City,State,Population,People per sq mi,Metro Name,Metro population,Median household income,% with at least Bachelor's degree,Median age,Median home price,Median home sqft,Median home cost per sqft,Median home age,Homeownership Rate,Avg Apartment Monthly Rent,Single Population,Num Violent Crimes Per 100k residents,Num Property Crimes Per 100k residents,Poverty Rate,Unemployment rate,Labor Force Participation rate,County,% Democrat,% Republican,% Asian,% Black,% Non-Hispanic White,% Hispanic,Foreign Born %,Timezone,Hottest month's avg high (F),Coldest month's avg high (F),Hottest high minus coldest high,Annual rainfall (in),Annual snowfall (in),Average yearly windspeed (mph),Air quality Index,Elevation (ft),UV Index,Land Area (sq mi),Fips Code,Latitude,Longitude,Annual Sunshine - Percentage of Possible,Summer Sunshine - Percentage of Possible,Winter Sunshine - Percentage of Possible,Annual Relative Humidity (afternoon),Summer Relative Humidity (afternoon),Number of days with thunder per year,Annual dew point (F),Average summer dew point (F),Hottest month's avg low (F),Coldest month's avg low (F),Summer rainfall (in),Winter rainfall (in),Percent of days that include precipitation,Percent of Summer days that include precipitation,Percent of Winter days that include precipitation,Days of snow per year,Hottest month's avg heat index high (F)
Beverly,Illinois,110,80,Quincy,115155,$65078,64.55%,70,N/A,N/A,N/A,42,64.55%,N/A,12.73%,N/A,N/A,0.0%,0.0%,10.91%,Adams County,23.80%,70.50%,0.0%,0.0%,100.0%,0.0%,0.0%,N/A,87,37,50,41.75,28.1,N/A,80,594,3.8,1.38,IL-05729,39.7945545,-90.9900191,57%,67%,49%,58%,55%,46.9,44,65,65,18,13.57,6.54,29.18%,31.1%,22.44%,10,91
Burton township (Adams Cnty),Illinois,41,124,Quincy,115155,$69635,0.0%,61,N/A,N/A,N/A,45,100.0%,N/A,34.15%,N/A,N/A,0.0%,0.0%,34.15%,Adams County,23.80%,70.50%,0.0%,0.0%,100.0%,0.0%,0.0%,N/A,87,36,51,36.76,28.1,N/A,80,702,3.8,0.33,IL-10006,39.90795,-91.2492481,57%,68%,48%,60%,59%,52.3,43,64,67,19,12.85,4.86,29.18%,31.1%,22.44%,10,92
Camp Point,Illinois,1144,1012,Quincy,115155,$52794,12.72%,37,N/A,N/A,N/A,64,82.48%,$563,50.12%,N/A,N/A,5.93%,3.51%,67.38%,Adams County,23.80%,70.50%,0.35%,0.0%,98.34%,0.0%,0.87%,N/A,87,36,51,36.76,28.1,N/A,82,702,3.8,1.13,IL-10877,40.0382537,-91.0664582,54%,65%,46%,61%,58%,47.8,40,62,67,19,12.85,4.86,29.18%,31.1%,22.44%,10,92
Camp Point township,Illinois,1144,1012,Quincy,115155,$52794,12.72%,37,N/A,N/A,N/A,64,82.48%,$563,50.12%,N/A,N/A,5.93%,3.51%,67.38%,Adams County,23.80%,70.50%,0.35%,0.0%,98.34%,0.0%,0.87%,N/A,87,36,51,36.76,28.1,N/A,82,702,3.8,1.13,IL-10877,40.0382537,-91.0664582,54%,65%,46%,61%,58%,47.8,40,62,67,19,12.85,4.86,29.18%,31.1%,22.44%,10,92
Clayton,Illinois,585,665,Quincy,115155,$44583,7.13%,44,$40000,1600,$25,55,74.19%,$417,52.31%,N/A,N/A,21.37%,0.68%,60.2%,Adams County,23.80%,70.50%,0.0%,0.0%,98.63%,1.03%,0.0%,N/A,87,36,51,36.76,28.1,N/A,82,702,3.8,0.88,IL-14767,40.0300946,-90.9580309,54%,65%,46%,61%,58%,47.8,40,62,67,19,12.85,4.86,29.18%,31.1%,22.44%,10,92
Clayton township (Adams Cnty),Illinois,585,665,Quincy,115155,$44583,7.13%,44,$40000,1600,$25,55,74.19%,$417,52.31%,N/A,N/A,21.37%,0.68%,60.2%,Adams County,23.80%,70.50%,0.0%,0.0%,98.63%,1.03%,0.0%,N/A,87,36,51,36.76,28.1,N/A,82,702,3.8,0.88,IL-14767,40.0300946,-90.9580309,54%,65%,46%,61%,58%,47.8,40,62,67,19,12.85,4.86,29.18%,31.1%,22.44%,10,92
Coatsburg,Illinois,180,1385,Quincy,115155,$55714,14.39%,36,N/A,N/A,N/A,56,81.11%,$940,57.05%,N/A,N/A,3.37%,5.93%,79.73%,Adams County,23.80%,70.50%,0.0%,0.0%,100.0%,0.0%,0.0%,N/A,87,36,51,36.76,28.1,N/A,80,702,3.8,0.13,IL-15261,40.0324558,-91.1603712,54%,65%,46%,61%,58%,47.8,40,62,67,19,12.85,4.86,29.18%,31.1%,22.44%,10,92
Columbus,Illinois,80,364,Quincy,115155,$63750,23.4%,36,N/A,N/A,N/A,42,77.5%,$813,35.94%,N/A,N/A,6.25%,0.0%,73.44%,Adams County,23.80%,70.50%,0.0%,0.0%,98.75%,0.0%,0.0%,N/A,87,36,51,36.76,28.1,N/A,79,702,3.8,0.22,IL-15846,39.9882225,-91.1456348,57%,68%,48%,60%,59%,52.3,43,64,67,19,12.85,4.86,29.18%,31.1%,22.44%,10,92
Columbus township,Illinois,80,364,Quincy,115155,$63750,23.4%,36,N/A,N/A,N/A,42,77.5%,$813,35.94%,N/A,N/A,6.25%,0.0%,73.44%,Adams County,23.80%,70.50%,0.0%,0.0%,98.75%,0.0%,0.0%,N/A,87,36,51,36.76,28.1,N/A,80,702,3.8,0.22,IL-15846,39.9882225,-91.1456348,57%,68%,48%,60%,59%,52.3,43,64,67,19,12.85,4.86,29.18%,31.1%,22.44%,10,92
Concord township (Adams Cnty),Illinois,115,460,Quincy,115155,$18214,N/A,N/A,N/A,N/A,N/A,64,51.20%,N/A,9.60%,N/A,N/A,N/A,3.50%,N/A,Adams County,23.80%,70.50%,N/A,N/A,N/A,N/A,N/A,N/A,87,36,51,36.76,28.1,N/A,80,702,3.8,0.25,IL-16015,39.9747143,-90.9724468,54%,65%,46%,61%,58%,47.8,40,62,67,19,12.85,4.86,29.18%,31.1%,22.44%,10,92
Ellington,Illinois,2813,82,Quincy,115155,$62045,31.93%,N/A,N/A,N/A,N/A,40,89.10%,N/A,32.70%,N/A,N/A,N/A,3.50%,N/A,Adams County,23.80%,70.50%,3.36%,N/A,N/A,N/A,N/A,N/A,87,36,51,36.76,28.1,N/A,75,702,3.8,34.3,IL-23412,39.9811537,-91.318006,57%,68%,48%,60%,59%,52.3,43,64,67,19,12.85,4.86,29.18%,31.1%,22.44%,10,92
Fall Creek,Illinois,29,483,Quincy,115155,$59211,0.0%,N/A,N/A,N/A,N/A,34,100.0%,N/A,0.0%,N/A,N/A,0.0%,0.0%,100.0%,Adams County,23.80%,70.50%,0.0%,0.0%,100.0%,0.0%,0.0%,N/A,86,35,51,43.48,28.1,N/A,78,651,3.8,0.06,IL-25245,39.7813842,-91.3031799,57%,68%,48%,60%,59%,52.3,43,64,68,18,14.66,6.65,29.56%,29.34%,26.0%,10,90
Gilmer,Illinois,1095,30,Quincy,115155,$54125,N/A,N/A,N/A,N/A,N/A,40,82.30%,N/A,38.80%,N/A,N/A,N/A,3.50%,N/A,Adams County,23.80%,70.50%,N/A,N/A,N/A,N/A,N/A,N/A,87,36,51,36.76,28.1,N/A,77,702,3.8,36.5,IL-29288,39.9773626,-91.2054431,57%,68%,48%,60%,59%,52.3,43,64,67,19,12.85,4.86,29.18%,31.1%,22.44%,10,92
Golden,Illinois,689,1077,Quincy,115155,$51979,21.23%,47,N/A,N/A,N/A,70,78.48%,$537,44.6%,N/A,N/A,14.09%,3.6%,59.36%,Adams County,23.80%,70.50%,0.0%,0.0%,96.81%,0.15%,0.15%,N/A,87,36,51,41.44,28.1,N/A,82,621,3.8,0.64,IL-30159,40.1103139,-91.0191831,54%,65%,46%,61%,58%,47.8,40,62,67,19,13.95,5.75,32.88%,31.54%,31.56%,10,92
Honey Creek township (Adams Cnty),Illinois,860,24,Quincy,115155,$36635,N/A,N/A,N/A,N/A,N/A,49,97.00%,N/A,37.00%,N/A,N/A,N/A,3.50%,N/A,Adams County,23.80%,70.50%,N/A,N/A,N/A,N/A,N/A,N/A,87,36,51,36.76,28.1,N/A,80,702,3.8,35.83,IL-35957,40.065056,-91.20481,54%,65%,46%,61%,58%,47.8,40,62,67,19,12.85,4.86,29.18%,31.1%,22.44%,10,92
Houston,Illinois,160,4,Quincy,115155,$54861,N/A,N/A,N/A,N/A,N/A,71,100.00%,N/A,26.10%,N/A,N/A,N/A,3.50%,N/A,Adams County,23.80%,70.50%,N/A,N/A,N/A,N/A,N/A,N/A,87,34,53,41.44,28.1,N/A,82,621,3.8,40.0,IL-36295,40.151059,-91.0870931,54%,65%,46%,61%,58%,47.8,40,62,67,18,13.95,5.75,32.88%,31.54%,31.56%,10,92
Keene,Illinois,557,15,Quincy,115155,$47386,11.69%,N/A,N/A,N/A,N/A,70,76.60%,N/A,33.60%,N/A,N/A,N/A,3.50%,N/A,Adams County,23.80%,70.50%,N/A,N/A,N/A,2.50%,N/A,N/A,87,34,53,41.5,28.1,N/A,80,627,3.8,37.13,IL-39220,40.1527395,-91.2029328,54%,65%,46%,61%,58%,47.8,40,62,67,18,14.72,5.44,29.89%,31.1%,25.22%,10,92
La Prairie,Illinois,64,337,Quincy,115155,$68056,0.0%,41,N/A,N/A,N/A,78,100.0%,N/A,43.33%,N/A,N/A,3.13%,13.33%,50.0%,Adams County,23.80%,70.50%,0.0%,0.0%,98.44%,0.0%,0.0%,N/A,87,34,53,41.44,28.1,N/A,82,621,3.8,0.19,IL-42080,40.1472782,-91.002449,54%,65%,46%,61%,58%,47.8,40,62,67,18,13.95,5.75,32.88%,31.54%,31.56%,10,92
Liberty,Illinois,398,1021,Quincy,115155,$63333,13.73%,41,N/A,N/A,N/A,49,83.42%,$775,41.39%,N/A,N/A,1.76%,5.64%,64.57%,Adams County,23.80%,70.50%,0.0%,1.26%,98.49%,0.0%,0.75%,N/A,87,36,51,36.76,28.1,N/A,80,702,3.8,0.39,IL-43133,39.8802265,-91.1065955,57%,68%,48%,60%,59%,52.3,43,64,67,19,12.85,4.86,29.18%,31.1%,22.44%,10,92
Liberty township (Adams Cnty),Illinois,398,1021,Quincy,115155,$63333,13.73%,41,N/A,N/A,N/A,49,83.42%,$775,41.39%,N/A,N/A,1.76%,5.64%,64.57%,Adams County,23.80%,70.50%,0.0%,1.26%,98.49%,0.0%,0.75%,N/A,87,36,51,36.76,28.1,N/A,80,702,3.8,0.39,IL-43133,39.8802265,-91.1065955,57%,68%,48%,60%,59%,52.3,43,64,67,19,12.85,4.86,29.18%,31.1%,22.44%,10,92
Lima,Illinois,105,750,Quincy,115155,$58750,22.47%,54,N/A,N/A,N/A,59,97.14%,N/A,31.52%,N/A,N/A,1.94%,0.0%,61.96%,Adams County,23.80%,70.50%,0.95%,0.0%,93.33%,0.0%,0.95%,N/A,85,34,51,41.35,28.1,N/A,80,447,3.8,0.14,IL-43445,40.1770359,-91.3782979,57%,68%,48%,60%,59%,52.3,43,64,67,17,14.05,5.54,31.53%,32.2%,29.0%,10,89
Lima township,Illinois,105,750,Quincy,115155,$58750,22.47%,54,N/A,N/A,N/A,59,97.14%,N/A,31.52%,N/A,N/A,1.94%,0.0%,61.96%,Adams County,23.80%,70.50%,0.95%,0.0%,93.33%,0.0%,0.95%,N/A,85,34,51,41.35,28.1,N/A,80,447,3.8,0.14,IL-43445,40.1770359,-91.3782979,57%,68%,48%,60%,59%,52.3,43,64,67,17,14.05,5.54,31.53%,32.2%,29.0%,10,89
McKee,Illinois,28,1,Quincy,115155,$0,N/A,N/A,N/A,N/A,N/A,54,72.00%,N/A,0.00%,N/A,N/A,N/A,3.50%,N/A,Adams County,23.80%,70.50%,N/A,N/A,N/A,N/A,N/A,N/A,87,37,50,41.75,28.1,N/A,80,594,3.8,28.0,IL-45746,39.8879735,-90.9738572,54%,65%,46%,61%,58%,47.8,40,62,65,18,13.57,6.54,29.18%,31.1%,22.44%,10,92
Melrose township (Adams Cnty),Illinois,5698,128,Quincy,115155,$58314,N/A,N/A,N/A,N/A,N/A,38,80.70%,N/A,40.70%,N/A,N/A,N/A,3.50%,N/A,Adams County,23.80%,70.50%,N/A,N/A,N/A,2.90%,N/A,N/A,87,36,51,39.82,28.1,N/A,77,441,3.8,44.52,IL-48203,39.8841903,-91.3451144,57%,68%,48%,60%,59%,52.3,43,64,68,19,13.9,5.35,29.18%,31.1%,22.44%,10,92
Mendon,Illinois,1092,1270,Quincy,115155,$56000,13.77%,38,N/A,N/A,N/A,52,79.3%,$759,38.65%,N/A,N/A,8.8%,4.26%,71.36%,Adams County,23.80%,70.50%,0.0%,0.0%,100.0%,0.0%,0.0%,N/A,87,36,51,36.76,28.1,N/A,80,702,3.8,0.86,IL-48307,40.0891826,-91.2857836,57%,68%,48%,60%,59%,52.3,43,64,67,19,12.85,4.86,29.18%,31.1%,22.44%,10,92
Mendon township,Illinois,1092,1270,Quincy,115155,$56000,13.77%,38,N/A,N/A,N/A,52,79.3%,$759,38.65%,N/A,N/A,8.8%,4.26%,71.36%,Adams County,23.80%,70.50%,0.0%,0.0%,100.0%,0.0%,0.0%,N/A,87,36,51,36.76,28.1,N/A,80,702,3.8,0.86,IL-48307,40.0891826,-91.2857836,57%,68%,48%,60%,59%,52.3,43,64,67,19,12.85,4.86,29.18%,31.1%,22.44%,10,92
Northeast,Illinois,807,22,Quincy,115155,$51477,N/A,N/A,N/A,N/A,N/A,75,73.30%,N/A,45.80%,N/A,N/A,N/A,3.50%,N/A,Adams County,23.80%,70.50%,N/A,N/A,N/A,3.10%,N/A,N/A,87,34,53,41.44,28.1,N/A,82,621,3.8,36.68,IL-53624,40.1496439,-90.9703296,54%,65%,46%,61%,58%,47.8,40,62,67,18,13.95,5.75,32.88%,31.54%,31.56%,10,92
Payson,Illinois,1398,1195,Quincy,115155,$62813,17.99%,28,$160000,1975,$81,46,76.68%,$792,39.24%,N/A,N/A,10.87%,1.03%,82.77%,Adams County,23.80%,70.50%,2.0%,0.0%,95.71%,1.14%,0.14%,N/A,87,36,51,36.76,28.1,N/A,80,702,3.8,1.17,IL-58265,39.8169407,-91.244322,57%,68%,48%,60%,59%,52.3,43,64,67,19,12.85,4.86,29.18%,31.1%,22.44%,10,92
Payson township,Illinois,1398,1195,Quincy,115155,$62813,17.99%,28,$160000,1975,$81,46,76.68%,$792,39.24%,N/A,N/A,10.87%,1.03%,82.77%,Adams County,23.80%,70.50%,2.0%,0.0%,95.71%,1.14%,0.14%,N/A,87,36,51,36.76,28.1,N/A,80,702,3.8,1.17,IL-58265,39.8169407,-91.244322,57%,68%,48%,60%,59%,52.3,43,64,67,19,12.85,4.86,29.18%,31.1%,22.44%,10,92
Plainville,Illinois,285,1188,Quincy,115155,$50500,12.56%,37,N/A,N/A,N/A,63,88.77%,$563,50.23%,N/A,N/A,17.19%,17.29%,60.73%,Adams County,23.80%,70.50%,0.0%,0.0%,92.63%,1.75%,0.0%,N/A,87,36,51,36.76,28.1,N/A,80,702,3.8,0.24,IL-60339,39.7847651,-91.1816486,57%,68%,48%,60%,59%,52.3,43,64,67,19,12.85,4.86,29.18%,31.1%,22.44%,10,92
Quincy,Illinois,40111,2544,Quincy,115155,$46935,24.11%,40,$150000,1579,$95,61,68.64%,$688,50.97%,N/A,N/A,15.32%,5.17%,63.35%,Adams County,23.80%,70.50%,0.72%,6.5%,87.69%,2.03%,1.44%,N/A,87,36,51,39.82,28.1,N/A,70,441,3.8,15.77,IL-62367,39.9335784,-91.3797863,57%,68%,48%,60%,59%,52.3,43,64,68,19,13.9,5.35,29.18%,31.1%,22.44%,10,92
Quincy township,Illinois,40111,2544,Quincy,115155,$46935,24.11%,40,$150000,1579,$95,61,68.64%,$688,50.97%,N/A,N/A,15.32%,5.17%,63.35%,Adams County,23.80%,70.50%,0.72%,6.5%,87.69%,2.03%,1.44%,N/A,87,36,51,39.82,28.1,N/A,70,441,3.8,15.77,IL-62367,39.9335784,-91.3797863,57%,68%,48%,60%,59%,52.3,43,64,68,19,13.9,5.35,29.18%,31.1%,22.44%,10,92
