City,State,Population,People per sq mi,Metro Name,Metro population,Median household income,% with at least Bachelor's degree,Median age,Median home price,Median home sqft,Median home cost per sqft,Median home age,Homeownership Rate,Avg Apartment Monthly Rent,Single Population,Num Violent Crimes Per 100k residents,Num Property Crimes Per 100k residents,Poverty Rate,Unemployment rate,Labor Force Participation rate,County,% Democrat,% Republican,% Asian,% Black,% Non-Hispanic White,% Hispanic,Foreign Born %,Timezone,Hottest month's avg high (F),Coldest month's avg high (F),Hottest high minus coldest high,Hottest month's avg low (F),Coldest month's avg low (F),Annual Relative Humidity (afternoon),Summer Relative Humidity (afternoon),Annual dew point (F),Average summer dew point (F),Hottest month's avg heat index high (F),Annual Sunshine - Percentage of Possible,Summer Sunshine - Percentage of Possible,Winter Sunshine - Percentage of Possible,Annual rainfall (in),Summer rainfall (in),Winter rainfall (in),Percent of days that include precipitation,Percent of Summer days that include precipitation,Percent of Winter days that include precipitation,Annual snowfall (in),Days of snow per year,Average yearly windspeed (mph),Number of days with thunder per year,Air quality Index,Elevation (ft),UV Index,Land Area (sq mi),Fips Code,Latitude,Longitude
Assyria,Michigan,2105,59,Grand Rapids-Wyoming,1151030,N/A,N/A,N/A,N/A,N/A,N/A,N/A,N/A,N/A,N/A,N/A,N/A,N/A,N/A,N/A,Barry County,29.90%,62.90%,N/A,N/A,N/A,N/A,N/A,Eastern Standard Time,84,33,51,60,17,62%,56%,38,58,86,50%,66%,39%,35.24,10.73,5.74,38.11%,33.19%,45.33%,68.3,46,8.1,33.6,82,843,3.2,35.68,MI-03860,42.4647571,-85.1314728
Baltimore,Michigan,2030,57,Grand Rapids-Wyoming,1151030,N/A,N/A,N/A,N/A,N/A,N/A,N/A,N/A,N/A,N/A,N/A,N/A,N/A,N/A,N/A,Barry County,29.90%,62.90%,N/A,N/A,N/A,N/A,N/A,Eastern Standard Time,83,31,52,60,17,62%,56%,38,58,85,46%,63%,28%,42.95,11.92,7.97,42.36%,35.27%,51.33%,68.3,46,8.1,34.5,82,750,3.2,35.61,MI-05020,42.5518039,-85.249774
Barry,Michigan,3406,99,Grand Rapids-Wyoming,1151030,N/A,N/A,N/A,N/A,N/A,N/A,N/A,N/A,N/A,N/A,28,370,N/A,N/A,N/A,Barry County,29.90%,62.90%,N/A,N/A,N/A,N/A,N/A,Eastern Standard Time,85,33,52,63,20,62%,56%,38,58,88,46%,63%,28%,41.67,12.3,8.07,38.11%,33.19%,45.33%,68.3,46,8.1,34.5,82,846,3.2,34.4,MI-05560,42.4640427,-85.366716
Carlton,Michigan,2216,63,Grand Rapids-Wyoming,1151030,N/A,N/A,N/A,N/A,N/A,N/A,N/A,N/A,N/A,N/A,N/A,N/A,N/A,N/A,N/A,Barry County,29.90%,62.90%,N/A,N/A,N/A,N/A,N/A,Eastern Standard Time,83,31,52,60,17,62%,56%,38,58,85,46%,63%,28%,42.95,11.92,7.97,42.36%,35.27%,51.33%,68.3,46,8.1,34.5,82,750,3.2,35.17,MI-13340,42.7262841,-85.2510844
Castleton,Michigan,3497,100,Grand Rapids-Wyoming,1151030,N/A,N/A,N/A,N/A,N/A,N/A,N/A,N/A,N/A,N/A,N/A,N/A,N/A,N/A,N/A,Barry County,29.90%,62.90%,N/A,N/A,N/A,N/A,N/A,Eastern Standard Time,83,31,52,60,17,62%,56%,38,58,85,50%,66%,39%,42.95,11.92,7.97,42.36%,35.27%,51.33%,68.3,46,8.1,33.6,82,750,3.2,34.97,MI-13960,42.6398192,-85.1336113
Delton,Michigan,596,268,Grand Rapids-Wyoming,1151030,$77019,29.14%,61,N/A,N/A,N/A,65,93.96%,$321,61.97%,N/A,N/A,9.56%,6.64%,39.79%,Barry County,29.90%,62.90%,0.0%,0.0%,95.3%,0.0%,3.69%,Eastern Standard Time,85,33,52,63,20,62%,56%,38,58,88,46%,63%,28%,41.67,12.3,8.07,38.11%,33.19%,45.33%,68.3,46,8.1,34.5,82,846,3.2,2.22,MI-21560,42.4950796,-85.4117681
Dowling,Michigan,399,66,Grand Rapids-Wyoming,1151030,$53295,5.44%,33,N/A,N/A,N/A,54,95.99%,N/A,42.31%,N/A,N/A,15.54%,0.0%,51.81%,Barry County,29.90%,62.90%,0.0%,0.0%,83.96%,16.04%,0.0%,Eastern Standard Time,83,31,52,60,17,62%,56%,38,58,85,46%,63%,28%,42.95,11.92,7.97,42.36%,35.27%,51.33%,68.3,46,8.1,34.5,82,750,3.2,6.08,MI-22900,42.5227104,-85.2531587
Freeport,Michigan,581,735,Grand Rapids-Wyoming,1151030,$58750,16.62%,28,N/A,N/A,N/A,N/A,79.69%,$872,49.05%,N/A,N/A,12.31%,2.76%,69.71%,Barry County,29.90%,62.90%,0.0%,0.0%,89.16%,10.15%,1.2%,Eastern Standard Time,83,31,52,60,17,62%,56%,38,58,85,46%,63%,28%,42.95,11.92,7.97,42.36%,35.27%,51.33%,68.3,46,8.1,34.5,82,750,3.2,0.79,MI-30580,42.7641504,-85.3159518
Hastings,Michigan,7289,1399,Grand Rapids-Wyoming,1151030,N/A,N/A,N/A,N/A,N/A,N/A,N/A,N/A,N/A,N/A,246,2064,N/A,N/A,N/A,Barry County,29.90%,62.90%,N/A,N/A,N/A,N/A,N/A,Eastern Standard Time,83,31,52,60,17,62%,56%,38,58,85,46%,63%,28%,42.95,11.92,7.97,42.36%,35.27%,51.33%,68.3,46,8.1,34.5,80,750,3.2,5.21,MI-37140,42.6376764,-85.2440664
Hastings charter township,Michigan,2969,570,Grand Rapids-Wyoming,1151030,N/A,N/A,N/A,N/A,N/A,N/A,N/A,N/A,N/A,N/A,246,2064,N/A,N/A,N/A,Barry County,29.90%,62.90%,N/A,N/A,N/A,N/A,N/A,Eastern Standard Time,83,31,52,60,17,62%,56%,38,58,85,46%,63%,28%,42.95,11.92,7.97,42.36%,35.27%,51.33%,68.3,46,8.1,34.5,79,750,3.2,5.21,MI-37140,42.6376764,-85.2440664
Hickory Corners,Michigan,161,78,Grand Rapids-Wyoming,1151030,$80417,0.0%,62,N/A,N/A,N/A,27,100.0%,N/A,50.93%,N/A,N/A,25.47%,0.0%,64.6%,Barry County,29.90%,62.90%,0.0%,0.0%,100.0%,0.0%,0.0%,Eastern Standard Time,85,33,52,63,20,62%,56%,38,58,88,46%,63%,28%,41.67,12.3,8.07,38.11%,33.19%,45.33%,68.3,46,8.1,34.5,82,846,3.2,2.07,MI-37960,42.4362909,-85.3792602
Hope township (Barry Cnty),Michigan,3246,100,Grand Rapids-Wyoming,1151030,N/A,N/A,N/A,N/A,N/A,N/A,N/A,N/A,N/A,N/A,N/A,N/A,N/A,N/A,N/A,Barry County,29.90%,62.90%,N/A,N/A,N/A,N/A,N/A,Eastern Standard Time,83,31,52,60,17,62%,56%,38,58,85,46%,63%,28%,42.95,11.92,7.97,42.36%,35.27%,51.33%,68.3,46,8.1,34.5,82,750,3.2,32.46,MI-39120,42.5518401,-85.3670069
Irving,Michigan,3294,92,Grand Rapids-Wyoming,1151030,N/A,N/A,N/A,N/A,N/A,N/A,N/A,N/A,N/A,N/A,N/A,N/A,N/A,N/A,N/A,Barry County,29.90%,62.90%,N/A,N/A,N/A,N/A,N/A,Eastern Standard Time,83,31,52,60,17,62%,56%,38,58,85,46%,63%,28%,42.95,11.92,7.97,42.36%,35.27%,51.33%,68.3,46,8.1,34.5,82,750,3.2,35.8,MI-41120,42.7258755,-85.3683393
Johnstown,Michigan,3032,87,Grand Rapids-Wyoming,1151030,N/A,N/A,N/A,N/A,N/A,N/A,N/A,N/A,N/A,N/A,N/A,N/A,N/A,N/A,N/A,Barry County,29.90%,62.90%,N/A,N/A,N/A,N/A,N/A,Eastern Standard Time,84,33,51,60,17,62%,56%,38,58,86,50%,66%,39%,35.24,10.73,5.74,38.11%,33.19%,45.33%,68.3,46,8.1,33.6,82,843,3.2,34.85,MI-41860,42.4640561,-85.2491856
Maple Grove township (Barry Cnty),Michigan,1399,3997,Grand Rapids-Wyoming,1151030,N/A,N/A,N/A,N/A,N/A,N/A,N/A,N/A,N/A,N/A,N/A,N/A,N/A,N/A,N/A,Barry County,29.90%,62.90%,N/A,N/A,N/A,N/A,N/A,Eastern Standard Time,83,31,52,60,17,62%,56%,38,58,85,50%,66%,39%,42.95,11.92,7.97,42.36%,35.27%,51.33%,68.3,46,8.1,33.6,82,750,3.2,0.35,MI-50960,42.5524773,-85.1330269
Middleville,Michigan,3447,1486,Grand Rapids-Wyoming,1151030,$60521,20.91%,28,N/A,N/A,N/A,28,72.17%,$973,47.28%,N/A,N/A,10.57%,1.13%,83.04%,Barry County,29.90%,62.90%,0.41%,0.93%,90.51%,3.66%,0.58%,Eastern Standard Time,83,31,52,60,17,62%,56%,38,58,85,46%,63%,28%,42.95,11.92,7.97,42.36%,35.27%,51.33%,68.3,46,8.1,34.5,81,750,3.2,2.32,MI-53760,42.7138417,-85.4693103
Nashville,Michigan,1461,692,Grand Rapids-Wyoming,1151030,$34886,10.25%,47,N/A,N/A,N/A,N/A,64.13%,$638,59.41%,238,1251,17.49%,6.22%,54.39%,Barry County,29.90%,62.90%,0.0%,0.0%,91.85%,5.61%,0.0%,Eastern Standard Time,83,31,52,60,17,62%,56%,38,58,85,50%,66%,39%,42.95,11.92,7.97,42.36%,35.27%,51.33%,68.3,46,8.1,33.6,82,750,3.2,2.11,MI-56680,42.6031955,-85.094097
Orangeville,Michigan,3349,100,Grand Rapids-Wyoming,1151030,N/A,N/A,N/A,N/A,N/A,N/A,N/A,N/A,N/A,N/A,N/A,N/A,N/A,N/A,N/A,Barry County,29.90%,62.90%,N/A,N/A,N/A,N/A,N/A,Eastern Standard Time,83,31,52,60,17,62%,56%,38,58,85,46%,63%,28%,42.95,11.92,7.97,42.36%,35.27%,51.33%,68.3,46,8.1,34.5,81,750,3.2,33.49,MI-60980,42.5517497,-85.4845015
Prairieville,Michigan,3422,104,Grand Rapids-Wyoming,1151030,N/A,N/A,N/A,N/A,N/A,N/A,N/A,N/A,N/A,N/A,56,453,N/A,N/A,N/A,Barry County,29.90%,62.90%,N/A,N/A,N/A,N/A,N/A,Eastern Standard Time,85,33,52,63,20,62%,56%,38,58,88,46%,63%,28%,41.67,12.3,8.07,38.11%,33.19%,45.33%,68.3,46,8.1,34.5,81,846,3.2,32.9,MI-66260,42.4647875,-85.4841587
Rutland charter township,Michigan,3991,114,Grand Rapids-Wyoming,1151030,N/A,N/A,N/A,N/A,N/A,N/A,N/A,N/A,N/A,N/A,N/A,N/A,N/A,N/A,N/A,Barry County,29.90%,62.90%,N/A,N/A,N/A,N/A,N/A,Eastern Standard Time,83,31,52,60,17,62%,56%,38,58,85,46%,63%,28%,42.95,11.92,7.97,42.36%,35.27%,51.33%,68.3,46,8.1,34.5,81,750,3.2,35.01,MI-70420,42.6386428,-85.3681458
Thornapple,Michigan,7972,226,Grand Rapids-Wyoming,1151030,N/A,N/A,N/A,N/A,N/A,N/A,N/A,N/A,N/A,N/A,N/A,N/A,N/A,N/A,N/A,Barry County,29.90%,62.90%,N/A,N/A,N/A,N/A,N/A,Eastern Standard Time,83,31,52,60,17,62%,56%,38,58,85,46%,63%,28%,42.95,11.92,7.97,42.36%,35.27%,51.33%,68.3,46,8.1,34.5,81,750,3.2,35.27,MI-79620,42.7253425,-85.4863674
Woodland,Michigan,530,624,Grand Rapids-Wyoming,1151030,$48816,11.63%,40,N/A,N/A,N/A,N/A,72.64%,$635,42.47%,N/A,N/A,7.74%,10.16%,56.29%,Barry County,29.90%,62.90%,0.38%,0.0%,92.26%,6.79%,0.38%,Eastern Standard Time,83,31,52,60,17,62%,56%,38,58,85,50%,66%,39%,42.95,11.92,7.97,42.36%,35.27%,51.33%,68.3,46,8.1,33.6,82,750,3.2,0.85,MI-88420,42.7267881,-85.1344231
Woodland township,Michigan,530,624,Grand Rapids-Wyoming,1151030,$48816,11.63%,40,N/A,N/A,N/A,N/A,72.64%,$635,42.47%,N/A,N/A,7.74%,10.16%,56.29%,Barry County,29.90%,62.90%,0.38%,0.0%,92.26%,6.79%,0.38%,Eastern Standard Time,83,31,52,60,17,62%,56%,38,58,85,50%,66%,39%,42.95,11.92,7.97,42.36%,35.27%,51.33%,68.3,46,8.1,33.6,82,750,3.2,0.85,MI-88420,42.7267881,-85.1344231
Yankee Springs,Michigan,4149,134,Grand Rapids-Wyoming,1151030,N/A,N/A,N/A,N/A,N/A,N/A,N/A,N/A,N/A,N/A,N/A,N/A,N/A,N/A,N/A,Barry County,29.90%,62.90%,N/A,N/A,N/A,N/A,N/A,Eastern Standard Time,83,31,52,60,17,62%,56%,38,58,85,46%,63%,28%,42.95,11.92,7.97,42.36%,35.27%,51.33%,68.3,46,8.1,34.5,81,750,3.2,30.96,MI-89020,42.6385587,-85.4856426
