City,State,Population,People per sq mi,Metro Name,Metro population,Median household income,% with at least Bachelor's degree,Median age,Median home price,Median home sqft,Median home cost per sqft,Median home age,Homeownership Rate,Avg Apartment Monthly Rent,Single Population,Num Violent Crimes Per 100k residents,Num Property Crimes Per 100k residents,Poverty Rate,Unemployment rate,Labor Force Participation rate,County,% Democrat,% Republican,% Asian,% Black,% Non-Hispanic White,% Hispanic,Foreign Born %,Timezone,Hottest month's avg high (F),Coldest month's avg high (F),Hottest high minus coldest high,Annual rainfall (in),Annual days of precipitation,Annual snowfall (in),Average yearly windspeed (mph),Air quality Index,Elevation (ft),UV Index,Land Area (sq mi),Fips Code,Latitude,Longitude,Annual Sunshine - Percentage of Possible,Summer Sunshine - Percentage of Possible,Winter Sunshine - Percentage of Possible,Annual Relative Humidity (afternoon),Summer Relative Humidity (afternoon),Number of days with thunder per year,Annual dew point (F),Average summer dew point (F)
Acushnet,Massachusetts,10443,567,Providence-Warwick,1623890,$69570,22.23%,N/A,$354000,1377,$257,53,83.90%,N/A,48.10%,113,332,N/A,3.50%,N/A,Bristol County,51.40%,41.80%,1.4%,0.0%,91.3%,2.2%,N/A,Eastern Standard Time,83,40,43,51,126,35,7.8,81,51,3.5,18.42,MA-00520,41.7138581,-70.9012204,57%,61%,55%,55%,56%,19.7,39,59
Attleboro,Massachusetts,45023,1681,Providence-Warwick,1623890,$77107,31.72%,40,$425000,1714,$248,50,74.04%,$1125,49.63%,273,1161,9.16%,4.2%,68.75%,Bristol County,51.40%,41.80%,4.03%,4.38%,83.38%,6.47%,9.99%,Eastern Standard Time,83,37,46,51,123,40,7.8,66,51,3.5,26.78,MA-02690,41.9311103,-71.2948922,57%,61%,55%,55%,56%,19.7,39,59
Berkley,Massachusetts,6630,402,Providence-Warwick,1623890,$84423,N/A,N/A,$553000,1646,$336,31,93.90%,N/A,36.20%,N/A,N/A,N/A,3.60%,N/A,Bristol County,51.40%,41.80%,0.0%,0.0%,98.6%,0.3%,N/A,Eastern Standard Time,85,40,45,50,120,36,7.8,79,51,3.5,16.49,MA-05280,41.8348836,-71.075448,57%,61%,55%,55%,56%,19.7,39,59
Bliss Corner,Massachusetts,5272,2636,Providence-Warwick,1623890,$63110,30.22%,47,$407000,1317,$309,59,76.69%,$839,51.41%,N/A,N/A,7.71%,1.83%,57.47%,Bristol County,51.40%,41.80%,1.61%,0.23%,88.09%,7.93%,11.78%,Eastern Standard Time,83,40,43,50,128,35,7.8,84,51,3.5,2.0,MA-06170,41.6054572,-70.9421077,57%,61%,55%,55%,56%,19.7,39,59
Dartmouth,Massachusetts,34341,564,Providence-Warwick,1623890,$68684,34.57%,N/A,$465000,1620,$287,45,71.80%,N/A,53.90%,N/A,N/A,N/A,3.40%,N/A,Bristol County,51.40%,41.80%,3.0%,2.6%,88.3%,2.9%,N/A,Eastern Standard Time,83,40,43,50,128,35,7.8,83,51,3.5,60.89,MA-16425,41.5799341,-70.9768434,57%,61%,55%,55%,56%,19.7,39,59
Dighton,Massachusetts,7438,338,Providence-Warwick,1623890,$85326,29.62%,N/A,$525000,1438,$365,40,85.90%,N/A,44.40%,N/A,N/A,N/A,3.60%,N/A,Bristol County,51.40%,41.80%,0.0%,2.6%,94.3%,1.1%,N/A,Eastern Standard Time,85,40,45,50,117,36,7.8,79,51,3.5,22.01,MA-16950,41.8359763,-71.1552577,57%,61%,55%,55%,56%,19.7,39,59
Easton,Massachusetts,24001,835,Providence-Warwick,1623890,$95372,49.11%,N/A,$622000,1962,$317,41,74.00%,N/A,46.40%,N/A,N/A,N/A,2.80%,N/A,Bristol County,51.40%,41.80%,2.2%,3.6%,89.4%,3.0%,N/A,Eastern Standard Time,83,37,46,50,121,45,7.8,76,51,3.5,28.74,MA-20100,42.0362156,-71.1103041,58%,66%,54%,57%,57%,17.7,39,59
Fairhaven,Massachusetts,16027,1299,Providence-Warwick,1623890,$60445,25.53%,N/A,$585000,1620,$361,64,67.30%,N/A,48.80%,N/A,N/A,N/A,3.60%,N/A,Bristol County,51.40%,41.80%,4.8%,0.5%,89.1%,1.9%,N/A,Eastern Standard Time,83,40,43,51,126,35,7.8,81,51,3.5,12.34,MA-22130,41.6375575,-70.8714396,57%,61%,55%,55%,56%,19.7,39,59
Fall River,Massachusetts,89618,2706,Providence-Warwick,1623890,$46007,15.93%,39,$405000,2025,$200,78,40.23%,$834,57.77%,N/A,N/A,18.28%,7.84%,59.53%,Bristol County,51.40%,41.80%,2.7%,6.47%,74.06%,10.84%,21.28%,Eastern Standard Time,83,40,43,48,129,34,7.8,70,51,3.5,33.12,MA-23000,41.7136704,-71.1013963,57%,61%,55%,55%,56%,19.7,39,59
Freetown,Massachusetts,9175,266,Providence-Warwick,1623890,$87830,32.37%,N/A,$512000,1835,$279,43,85.10%,N/A,39.90%,N/A,N/A,N/A,3.60%,N/A,Bristol County,51.40%,41.80%,0.7%,0.3%,94.1%,1.8%,N/A,Eastern Standard Time,83,39,44,50,123,33,7.8,81,51,3.5,34.49,MA-25240,41.7714358,-71.0157451,57%,61%,55%,55%,56%,19.7,39,59
Mansfield,Massachusetts,23678,1178,Providence-Warwick,1623890,$93082,54.80%,N/A,$591000,1791,$330,37,69.60%,N/A,41.10%,N/A,N/A,N/A,2.70%,N/A,Bristol County,51.40%,41.80%,5.0%,2.1%,87.0%,3.4%,N/A,Eastern Standard Time,83,37,46,50,123,46,7.8,73,51,3.5,20.1,MA-38225,42.0162549,-71.2186831,57%,61%,55%,55%,56%,19.7,39,59
New Bedford,Massachusetts,95355,4768,Providence-Warwick,1623890,$48999,16.92%,36,$362000,1609,$225,78,42.78%,$869,61.51%,N/A,N/A,18.56%,7.29%,62.71%,Bristol County,51.40%,41.80%,1.61%,6.68%,59.13%,21.87%,19.04%,Eastern Standard Time,83,40,43,51,127,35,7.8,74,51,3.5,20.0,MA-45000,41.6614929,-70.9381965,57%,61%,55%,55%,56%,19.7,39,59
North Attleborough,Massachusetts,29281,1553,Providence-Warwick,1623890,$91994,41.74%,40,$515000,1794,$287,48,75.59%,$1087,47.08%,N/A,N/A,5.34%,5.69%,72.19%,Bristol County,51.40%,41.80%,4.66%,0.84%,86.08%,5.26%,8.97%,Eastern Standard Time,85,39,46,51,123,40,7.8,67,51,3.5,18.86,MA-46598,41.9699139,-71.3344708,57%,61%,55%,55%,56%,19.7,39,59
North Seekonk,Massachusetts,2158,1541,Providence-Warwick,1623890,$96023,37.66%,48,$484000,1876,$258,58,82.76%,$1304,34.92%,N/A,N/A,3.2%,6.81%,69.95%,Bristol County,51.40%,41.80%,0.0%,0.0%,87.58%,7.51%,5.0%,Eastern Standard Time,85,39,46,50,124,38,7.8,70,51,3.5,1.4,MA-49200,41.8882459,-71.3297331,57%,61%,55%,55%,56%,19.7,39,59
North Westport,Massachusetts,4787,922,Providence-Warwick,1623890,$68578,26.03%,48,$648000,2464,$263,56,86.34%,$1077,58.53%,N/A,N/A,7.79%,2.16%,62.55%,Bristol County,51.40%,41.80%,0.0%,0.02%,98.33%,1.34%,18.36%,Eastern Standard Time,86,37,49,50,129,32,7.8,81,51,3.5,5.19,MA-49710,41.6626242,-71.1124068,57%,61%,55%,55%,56%,19.7,39,59
Norton,Massachusetts,19515,702,Providence-Warwick,1623890,$80806,40.77%,N/A,$486000,1813,$268,38,82.40%,N/A,48.60%,N/A,N/A,N/A,3.10%,N/A,Bristol County,51.40%,41.80%,2.0%,2.9%,91.3%,2.3%,N/A,Eastern Standard Time,83,37,46,50,117,41,7.8,75,51,3.5,27.8,MA-49970,41.9640182,-71.1841854,57%,61%,55%,55%,56%,19.7,39,59
Ocean Grove,Massachusetts,2434,3688,Providence-Warwick,1623890,$66985,18.74%,48,$275000,1066,$258,72,78.92%,$1403,59.34%,N/A,N/A,8.95%,10.3%,65.52%,Bristol County,51.40%,41.80%,2.1%,0.49%,93.59%,1.36%,9.41%,Eastern Standard Time,86,37,49,48,124,33,7.8,80,51,3.5,0.66,MA-50880,41.7281645,-71.2097829,57%,61%,55%,55%,56%,19.7,39,59
Raynham,Massachusetts,13845,676,Providence-Warwick,1623890,$80056,40.91%,N/A,$474000,1693,$280,37,78.30%,N/A,41.90%,N/A,N/A,N/A,3.20%,N/A,Bristol County,51.40%,41.80%,3.6%,4.6%,85.9%,2.2%,N/A,Eastern Standard Time,85,40,45,50,117,36,7.8,76,51,3.5,20.48,MA-56060,41.9312115,-71.0436395,57%,61%,55%,55%,56%,19.7,39,59
Rehoboth,Massachusetts,11990,255,Providence-Warwick,1623890,$85691,45.85%,N/A,$631000,2139,$295,40,83.40%,N/A,41.30%,N/A,N/A,N/A,2.60%,N/A,Bristol County,51.40%,41.80%,1.4%,0.7%,92.8%,2.5%,N/A,Eastern Standard Time,84,37,47,50,117,35,7.8,77,51,3.5,47.02,MA-56375,41.8439366,-71.2455835,57%,61%,55%,55%,56%,19.7,39,59
Seekonk,Massachusetts,14957,814,Providence-Warwick,1623890,$74242,40.83%,N/A,$805000,3207,$251,48,77.80%,N/A,37.50%,N/A,N/A,N/A,2.80%,N/A,Bristol County,51.40%,41.80%,0.6%,0.1%,95.3%,2.1%,N/A,Eastern Standard Time,84,39,45,50,124,38,7.8,70,51,3.5,18.37,MA-60645,41.8377961,-71.3174459,57%,61%,55%,55%,56%,19.7,39,59
Smith Mills,Massachusetts,4706,1008,Providence-Warwick,1623890,$51797,27.78%,45,$382000,1399,$273,55,76.96%,$511,45.94%,N/A,N/A,10.39%,3.24%,59.91%,Bristol County,51.40%,41.80%,1.81%,1.13%,92.92%,2.61%,12.75%,Eastern Standard Time,83,40,43,50,128,35,7.8,80,51,3.5,4.67,MA-62300,41.6431748,-70.9920825,57%,61%,55%,55%,56%,19.7,39,59
Somerset,Massachusetts,18160,2299,Providence-Warwick,1623890,$90260,30.36%,48,$433000,1546,$280,58,85.89%,$1130,44.34%,N/A,N/A,4.37%,3.1%,62.07%,Bristol County,51.40%,41.80%,0.77%,0.74%,95.27%,1.87%,6.06%,Eastern Standard Time,86,37,49,49,124,33,7.8,77,51,3.5,7.9,MA-62465,41.7194866,-71.1848412,57%,61%,55%,55%,56%,19.7,39,59
Swansea,Massachusetts,16341,720,Providence-Warwick,1623890,$77345,23.93%,N/A,$443000,1457,$304,50,84.60%,N/A,41.00%,N/A,N/A,N/A,3.00%,N/A,Bristol County,51.40%,41.80%,0.5%,0.3%,97.8%,0.5%,N/A,Eastern Standard Time,86,37,49,48,124,33,7.8,77,51,3.5,22.7,MA-68750,41.7571047,-71.2119993,57%,61%,55%,55%,56%,19.7,39,59
Taunton,Massachusetts,57327,1227,Providence-Warwick,1623890,$63433,22.66%,39,$450000,1601,$281,58,66.25%,$1024,56.17%,N/A,N/A,13.93%,5.8%,66.34%,Bristol County,51.40%,41.80%,1.8%,7.57%,74.34%,8.7%,12.0%,Eastern Standard Time,85,40,45,50,118,36,7.8,74,51,3.5,46.71,MA-69170,41.9035822,-71.0942855,57%,61%,55%,55%,56%,19.7,39,59
Westport,Massachusetts,15810,317,Providence-Warwick,1623890,$80840,36.61%,N/A,$635000,2252,$282,44,72.70%,N/A,44.90%,N/A,N/A,N/A,3.10%,N/A,Bristol County,51.40%,41.80%,0.4%,0.3%,97.1%,0.5%,N/A,Eastern Standard Time,86,37,49,50,129,32,7.8,83,51,3.5,49.87,MA-77570,41.5779779,-71.0818683,57%,61%,55%,55%,56%,19.7,39,59
