City,State,Population,People per sq mi,Metro Name,Metro population,Median household income,% with at least Bachelor's degree,Median age,Median home price,Median home sqft,Median home cost per sqft,Median home age,Homeownership Rate,Avg Apartment Monthly Rent,Single Population,Num Violent Crimes Per 100k residents,Num Property Crimes Per 100k residents,Poverty Rate,Unemployment rate,Labor Force Participation rate,County,% Democrat,% Republican,% Asian,% Black,% Non-Hispanic White,% Hispanic,Foreign Born %,Timezone,Hottest month's avg high (F),Coldest month's avg high (F),Hottest high minus coldest high,Hottest month's avg low (F),Coldest month's avg low (F),Annual Relative Humidity (afternoon),Summer Relative Humidity (afternoon),Annual dew point (F),Average summer dew point (F),Hottest month's avg heat index high (F),Annual Sunshine - Percentage of Possible,Summer Sunshine - Percentage of Possible,Winter Sunshine - Percentage of Possible,Annual rainfall (in),Summer rainfall (in),Winter rainfall (in),Percent of days that include precipitation,Percent of Summer days that include precipitation,Percent of Winter days that include precipitation,Annual snowfall (in),Days of snow per year,Average yearly windspeed (mph),Number of days with thunder per year,Air quality Index,Elevation (ft),UV Index,Land Area (sq mi),Fips Code,Latitude,Longitude
Apple Creek,North Dakota,2863,82,Bismarck,114072,N/A,N/A,N/A,N/A,N/A,N/A,N/A,N/A,N/A,N/A,N/A,N/A,N/A,N/A,N/A,Burleigh County,22.70%,67.80%,N/A,N/A,N/A,N/A,N/A,Central Standard Time,85,24,61,59,4,58%,50%,30,53,86,59%,71%,50%,19.5,8.58,1.73,27.75%,31.76%,28.33%,48.7,38,N/A,33.6,90,1509,3,34.91,ND-02780,46.7651985,-100.6449232
Bismarck,North Dakota,70536,2034,Bismarck,114072,N/A,N/A,N/A,N/A,N/A,N/A,N/A,N/A,N/A,N/A,305,2782,N/A,N/A,N/A,Burleigh County,22.70%,67.80%,N/A,N/A,N/A,N/A,N/A,Central Standard Time,86,25,61,58,4,58%,50%,30,53,88,59%,71%,50%,19.08,8.41,1.8,27.75%,31.76%,28.33%,48.7,38,N/A,33.6,74,1515,3,34.68,ND-07203,46.7297164,-100.7601265
Boyd,North Dakota,138,4,Bismarck,114072,N/A,N/A,N/A,N/A,N/A,N/A,N/A,N/A,N/A,N/A,N/A,N/A,N/A,N/A,N/A,Burleigh County,22.70%,67.80%,N/A,N/A,N/A,N/A,N/A,Central Standard Time,85,24,61,59,4,58%,50%,30,53,86,59%,71%,50%,19.5,8.58,1.73,27.75%,31.76%,28.33%,48.7,38,N/A,33.6,92,1509,3,34.5,ND-08780,46.7650829,-100.5209281
Canfield,North Dakota,8,N/A,Bismarck,114072,N/A,N/A,N/A,N/A,N/A,N/A,N/A,N/A,N/A,N/A,N/A,N/A,N/A,N/A,N/A,Burleigh County,22.70%,67.80%,N/A,N/A,N/A,N/A,N/A,Central Standard Time,86,25,61,60,5,58%,50%,30,53,88,59%,71%,50%,19.43,8.52,1.76,28.74%,34.4%,29.89%,48.7,38,N/A,33.6,95,1761,3,N/A,ND-11940,47.2001379,-100.4316972
Christiania,North Dakota,29,1,Bismarck,114072,N/A,N/A,N/A,N/A,N/A,N/A,N/A,N/A,N/A,N/A,N/A,N/A,N/A,N/A,N/A,Burleigh County,22.70%,67.80%,N/A,N/A,N/A,N/A,N/A,Central Standard Time,83,21,62,58,2,58%,50%,30,53,84,59%,71%,50%,21.63,9.15,2.43,23.42%,30.0%,16.78%,48.7,38,N/A,33.6,92,1695,3,29.0,ND-14060,46.9382405,-100.265504
Clear Lake township (Burleigh Cnty),North Dakota,48,1,Bismarck,114072,N/A,N/A,N/A,N/A,N/A,N/A,N/A,N/A,N/A,N/A,N/A,N/A,N/A,N/A,N/A,Burleigh County,22.70%,67.80%,N/A,N/A,N/A,N/A,N/A,Central Standard Time,83,21,62,58,2,58%,50%,30,53,84,59%,71%,50%,21.63,9.15,2.43,23.42%,30.0%,16.78%,48.7,38,N/A,33.6,92,1695,3,48.0,ND-14380,46.9379233,-100.1390601
Crofte,North Dakota,204,6,Bismarck,114072,N/A,N/A,N/A,N/A,N/A,N/A,N/A,N/A,N/A,N/A,N/A,N/A,N/A,N/A,N/A,Burleigh County,22.70%,67.80%,N/A,N/A,N/A,N/A,N/A,Central Standard Time,83,24,59,59,5,58%,50%,30,53,84,59%,71%,50%,20.57,8.9,2.01,28.74%,34.4%,29.89%,48.7,38,N/A,33.6,95,1674,3,34.0,ND-16860,47.0264306,-100.6859878
Cromwell,North Dakota,21,1,Bismarck,114072,N/A,N/A,N/A,N/A,N/A,N/A,N/A,N/A,N/A,N/A,N/A,N/A,N/A,N/A,N/A,Burleigh County,22.70%,67.80%,N/A,N/A,N/A,N/A,N/A,Central Standard Time,83,24,59,59,5,58%,50%,30,53,84,59%,71%,50%,20.57,8.9,2.01,28.74%,34.4%,29.89%,48.7,38,N/A,33.6,95,1674,3,21.0,ND-16900,47.0260139,-100.5588046
Driscoll CDP,North Dakota,85,147,Bismarck,114072,$35982,11.48%,43,N/A,N/A,N/A,55,75.29%,N/A,55.88%,N/A,N/A,31.76%,2.94%,50.0%,Burleigh County,22.70%,67.80%,0.0%,0.0%,92.94%,0.0%,0.0%,Central Standard Time,83,21,62,58,2,58%,50%,30,53,84,59%,71%,50%,21.63,9.15,2.43,23.42%,30.0%,16.78%,52.7,25,N/A,33.6,92,1695,3,0.58,ND-20500,46.8426826,-100.1439053
Driscoll township,North Dakota,85,147,Bismarck,114072,$35982,11.48%,43,N/A,N/A,N/A,55,75.29%,N/A,55.88%,N/A,N/A,31.76%,2.94%,50.0%,Burleigh County,22.70%,67.80%,0.0%,0.0%,92.94%,0.0%,0.0%,Central Standard Time,83,21,62,58,2,58%,50%,30,53,84,59%,71%,50%,21.63,9.15,2.43,23.42%,30.0%,16.78%,52.7,25,N/A,33.6,92,1695,3,0.58,ND-20500,46.8426826,-100.1439053
Ecklund,North Dakota,64,1,Bismarck,114072,N/A,N/A,N/A,N/A,N/A,N/A,N/A,N/A,N/A,N/A,N/A,N/A,N/A,N/A,N/A,Burleigh County,22.70%,67.80%,N/A,N/A,N/A,N/A,N/A,Central Standard Time,83,24,59,59,5,58%,50%,30,53,84,59%,71%,50%,16.86,7.1,1.65,28.74%,34.4%,29.89%,48.7,38,N/A,33.6,95,1605,3,64.0,ND-21860,47.1133559,-100.7176152
Francis,North Dakota,25,1,Bismarck,114072,N/A,N/A,N/A,N/A,N/A,N/A,N/A,N/A,N/A,N/A,N/A,N/A,N/A,N/A,N/A,Burleigh County,22.70%,67.80%,N/A,N/A,N/A,N/A,N/A,Central Standard Time,83,24,59,59,5,58%,50%,30,53,84,59%,71%,50%,20.57,8.9,2.01,28.74%,34.4%,29.89%,48.7,38,N/A,33.6,92,1674,3,25.0,ND-28100,46.9388643,-100.5183336
Ghylin,North Dakota,59,2,Bismarck,114072,N/A,N/A,N/A,N/A,N/A,N/A,N/A,N/A,N/A,N/A,N/A,N/A,N/A,N/A,N/A,Burleigh County,22.70%,67.80%,N/A,N/A,N/A,N/A,N/A,Central Standard Time,83,24,59,59,5,58%,50%,30,53,84,59%,71%,50%,20.57,8.9,2.01,28.74%,34.4%,29.89%,48.7,38,N/A,33.6,95,1674,3,29.5,ND-30100,47.1126614,-100.5592853
Gibbs,North Dakota,2414,69,Bismarck,114072,N/A,N/A,N/A,N/A,N/A,N/A,N/A,N/A,N/A,N/A,N/A,N/A,N/A,N/A,N/A,Burleigh County,22.70%,67.80%,N/A,N/A,N/A,N/A,N/A,Central Standard Time,83,24,59,59,5,58%,50%,30,53,84,59%,71%,50%,20.57,8.9,2.01,28.74%,34.4%,29.89%,48.7,38,N/A,33.6,90,1674,3,34.99,ND-30140,46.8529787,-100.6445167
Glenview,North Dakota,157,4,Bismarck,114072,N/A,N/A,N/A,N/A,N/A,N/A,N/A,N/A,N/A,N/A,N/A,N/A,N/A,N/A,N/A,Burleigh County,22.70%,67.80%,N/A,N/A,N/A,N/A,N/A,Central Standard Time,83,24,59,59,5,58%,50%,30,53,84,59%,71%,50%,20.57,8.9,2.01,28.74%,34.4%,29.89%,48.7,38,N/A,33.6,94,1674,3,39.25,ND-30900,47.0239538,-100.8201848
Grass Lake,North Dakota,116,3,Bismarck,114072,N/A,N/A,N/A,N/A,N/A,N/A,N/A,N/A,N/A,N/A,N/A,N/A,N/A,N/A,N/A,Burleigh County,22.70%,67.80%,N/A,N/A,N/A,N/A,N/A,Central Standard Time,86,25,61,60,5,58%,50%,30,53,88,59%,71%,50%,16.86,7.1,1.65,16.71%,24.51%,11.11%,36.5,27,N/A,33.6,95,1605,3,38.67,ND-32740,47.2007028,-100.6856453
Harriet-Lien,North Dakota,28,N/A,Bismarck,114072,N/A,N/A,N/A,N/A,N/A,N/A,N/A,N/A,N/A,N/A,N/A,N/A,N/A,N/A,N/A,Burleigh County,22.70%,67.80%,N/A,N/A,N/A,N/A,N/A,Central Standard Time,83,21,62,58,2,58%,50%,30,53,84,59%,71%,50%,21.63,9.15,2.43,23.42%,30.0%,16.78%,48.7,38,N/A,33.6,95,1695,3,N/A,ND-35670,47.0686379,-100.1778147
Hay Creek,North Dakota,4154,156,Bismarck,114072,N/A,N/A,N/A,N/A,N/A,N/A,N/A,N/A,N/A,N/A,N/A,N/A,N/A,N/A,N/A,Burleigh County,22.70%,67.80%,N/A,N/A,N/A,N/A,N/A,Central Standard Time,83,24,59,59,5,58%,50%,30,53,84,59%,71%,50%,20.57,8.9,2.01,28.74%,34.4%,29.89%,48.7,38,N/A,33.6,89,1674,3,26.63,ND-36460,46.8731699,-100.8007264
Hazel Grove,North Dakota,24,1,Bismarck,114072,N/A,N/A,N/A,N/A,N/A,N/A,N/A,N/A,N/A,N/A,N/A,N/A,N/A,N/A,N/A,Burleigh County,22.70%,67.80%,N/A,N/A,N/A,N/A,N/A,Central Standard Time,86,25,61,60,5,58%,50%,30,53,88,59%,71%,50%,19.43,8.52,1.76,23.42%,30.0%,16.78%,48.7,38,N/A,33.6,95,1761,3,24.0,ND-36660,47.2850227,-100.1769297
Lincoln,North Dakota,4140,2671,Bismarck,114072,$91667,22.25%,29,N/A,N/A,N/A,15,85.87%,$1179,42.22%,75,225,6.76%,0.0%,89.5%,Burleigh County,22.70%,67.80%,0.0%,3.77%,82.2%,5.87%,0.0%,Central Standard Time,85,24,61,59,4,58%,50%,30,53,86,59%,71%,50%,19.5,8.58,1.73,27.75%,31.76%,28.33%,48.7,38,N/A,33.6,89,1509,3,1.55,ND-46640,46.7689343,-100.6977373
Logan township,North Dakota,26,18,Bismarck,114072,N/A,N/A,N/A,N/A,N/A,N/A,N/A,N/A,N/A,N/A,N/A,N/A,N/A,N/A,N/A,Burleigh County,22.70%,67.80%,N/A,N/A,N/A,N/A,N/A,Central Standard Time,82,22,60,57,4,58%,50%,30,53,83,59%,71%,50%,20.34,8.93,1.86,27.75%,31.76%,28.33%,48.7,38,N/A,33.6,92,1812,3,1.46,ND-47500,46.7646655,-100.3946065
Long Lake,North Dakota,114,4,Bismarck,114072,N/A,N/A,N/A,N/A,N/A,N/A,N/A,N/A,N/A,N/A,N/A,N/A,N/A,N/A,N/A,Burleigh County,22.70%,67.80%,N/A,N/A,N/A,N/A,N/A,Central Standard Time,82,22,60,57,4,58%,50%,30,53,83,59%,71%,50%,20.34,8.93,1.86,23.42%,30.0%,16.78%,48.7,38,N/A,33.6,92,1812,3,28.5,ND-47860,46.6774103,-100.2697768
McKenzie,North Dakota,75,2,Bismarck,114072,N/A,N/A,N/A,N/A,N/A,N/A,N/A,N/A,N/A,N/A,N/A,N/A,N/A,N/A,N/A,Burleigh County,22.70%,67.80%,N/A,N/A,N/A,N/A,N/A,Central Standard Time,85,24,61,59,4,58%,50%,30,53,86,59%,71%,50%,19.5,8.58,1.73,27.75%,31.76%,28.33%,48.7,38,N/A,33.6,92,1509,3,37.5,ND-49380,46.8516321,-100.3933837
Menoken CDP,North Dakota,61,28,Bismarck,114072,$76250,13.33%,51,N/A,N/A,N/A,45,96.72%,N/A,32.08%,N/A,N/A,0.0%,2.78%,70.59%,Burleigh County,22.70%,67.80%,0.0%,0.0%,100.0%,0.0%,0.0%,Central Standard Time,85,24,61,59,4,58%,50%,30,53,86,59%,71%,50%,19.5,8.58,1.73,27.75%,31.76%,28.33%,48.7,38,N/A,33.6,92,1509,3,2.18,ND-52180,46.8148672,-100.5340928
Menoken township,North Dakota,61,28,Bismarck,114072,$76250,13.33%,51,N/A,N/A,N/A,45,96.72%,N/A,32.08%,N/A,N/A,0.0%,2.78%,70.59%,Burleigh County,22.70%,67.80%,0.0%,0.0%,100.0%,0.0%,0.0%,Central Standard Time,85,24,61,59,4,58%,50%,30,53,86,59%,71%,50%,19.5,8.58,1.73,27.75%,31.76%,28.33%,48.7,38,N/A,33.6,92,1509,3,2.18,ND-52180,46.8148672,-100.5340928
Missouri,North Dakota,136,6,Bismarck,114072,N/A,N/A,N/A,N/A,N/A,N/A,N/A,N/A,N/A,N/A,N/A,N/A,N/A,N/A,N/A,Burleigh County,22.70%,67.80%,N/A,N/A,N/A,N/A,N/A,Central Standard Time,86,25,61,58,4,58%,50%,30,53,88,59%,71%,50%,19.08,8.41,1.8,27.75%,31.76%,28.33%,48.7,38,N/A,33.6,91,1515,3,22.67,ND-53620,46.6837631,-100.6416233
Morton,North Dakota,25,1,Bismarck,114072,N/A,N/A,N/A,N/A,N/A,N/A,N/A,N/A,N/A,N/A,N/A,N/A,N/A,N/A,N/A,Burleigh County,22.70%,67.80%,N/A,N/A,N/A,N/A,N/A,Central Standard Time,82,22,60,57,4,58%,50%,30,53,83,59%,71%,50%,20.34,8.93,1.86,27.75%,31.76%,28.33%,48.7,38,N/A,33.6,92,1812,3,25.0,ND-54460,46.6776813,-100.395846
Naughton,North Dakota,81,2,Bismarck,114072,N/A,N/A,N/A,N/A,N/A,N/A,N/A,N/A,N/A,N/A,N/A,N/A,N/A,N/A,N/A,Burleigh County,22.70%,67.80%,N/A,N/A,N/A,N/A,N/A,Central Standard Time,83,24,59,59,5,58%,50%,30,53,84,59%,71%,50%,20.57,8.9,2.01,28.74%,34.4%,29.89%,48.7,38,N/A,33.6,90,1674,3,40.5,ND-55540,46.939257,-100.644871
Painted Woods,North Dakota,121,3,Bismarck,114072,N/A,N/A,N/A,N/A,N/A,N/A,N/A,N/A,N/A,N/A,N/A,N/A,N/A,N/A,N/A,Burleigh County,22.70%,67.80%,N/A,N/A,N/A,N/A,N/A,Central Standard Time,83,23,60,59,4,58%,50%,30,53,84,59%,71%,50%,16.86,7.1,1.65,28.74%,34.4%,29.89%,48.7,38,N/A,33.6,95,1605,3,40.33,ND-60580,47.1126004,-100.8775253
Regan,North Dakota,92,91,Bismarck,114072,$61058,13.64%,23,N/A,N/A,N/A,58,96.74%,N/A,20.78%,N/A,N/A,4.44%,0.0%,77.92%,Burleigh County,22.70%,67.80%,0.0%,0.0%,97.83%,0.0%,2.17%,Central Standard Time,86,25,61,60,5,58%,50%,30,53,88,59%,71%,50%,19.43,8.52,1.76,28.74%,34.4%,29.89%,48.7,38,N/A,33.6,95,1761,3,1.01,ND-65980,47.1567938,-100.5272984
Richmond,North Dakota,21,1,Bismarck,114072,N/A,N/A,N/A,N/A,N/A,N/A,N/A,N/A,N/A,N/A,N/A,N/A,N/A,N/A,N/A,Burleigh County,22.70%,67.80%,N/A,N/A,N/A,N/A,N/A,Central Standard Time,86,25,61,60,5,58%,50%,30,53,88,59%,71%,50%,19.43,8.52,1.76,23.42%,30.0%,16.78%,48.7,38,N/A,33.6,95,1761,3,21.0,ND-66635,47.1995147,-100.3045983
Rock Hill,North Dakota,20,1,Bismarck,114072,N/A,N/A,N/A,N/A,N/A,N/A,N/A,N/A,N/A,N/A,N/A,N/A,N/A,N/A,N/A,Burleigh County,22.70%,67.80%,N/A,N/A,N/A,N/A,N/A,Central Standard Time,86,25,61,60,5,58%,50%,30,53,88,59%,71%,50%,19.43,8.52,1.76,28.74%,34.4%,29.89%,48.7,38,N/A,33.6,95,1761,3,20.0,ND-67420,47.1129513,-100.4317806
Schrunk,North Dakota,17,1,Bismarck,114072,N/A,N/A,N/A,N/A,N/A,N/A,N/A,N/A,N/A,N/A,N/A,N/A,N/A,N/A,N/A,Burleigh County,22.70%,67.80%,N/A,N/A,N/A,N/A,N/A,Central Standard Time,86,25,61,60,5,58%,50%,30,53,88,59%,71%,50%,19.43,8.52,1.76,16.71%,24.51%,11.11%,36.5,27,N/A,33.6,95,1761,3,17.0,ND-71220,47.2855674,-100.4314898
Sibley Butte,North Dakota,18,1,Bismarck,114072,N/A,N/A,N/A,N/A,N/A,N/A,N/A,N/A,N/A,N/A,N/A,N/A,N/A,N/A,N/A,Burleigh County,22.70%,67.80%,N/A,N/A,N/A,N/A,N/A,Central Standard Time,83,24,59,59,5,58%,50%,30,53,84,59%,71%,50%,20.57,8.9,2.01,28.74%,34.4%,29.89%,48.7,38,N/A,33.6,92,1674,3,18.0,ND-72900,46.9385523,-100.3921214
Steiber,North Dakota,16,N/A,Bismarck,114072,N/A,N/A,N/A,N/A,N/A,N/A,N/A,N/A,N/A,N/A,N/A,N/A,N/A,N/A,N/A,Burleigh County,22.70%,67.80%,N/A,N/A,N/A,N/A,N/A,Central Standard Time,86,25,61,60,5,58%,50%,30,53,88,59%,71%,50%,19.43,8.52,1.76,16.71%,24.51%,11.11%,36.5,27,N/A,33.6,95,1761,3,N/A,ND-75820,47.2857415,-100.5581477
Sterling,North Dakota,127,4,Bismarck,114072,N/A,N/A,N/A,N/A,N/A,N/A,N/A,N/A,N/A,N/A,N/A,N/A,N/A,N/A,N/A,Burleigh County,22.70%,67.80%,N/A,N/A,N/A,N/A,N/A,Central Standard Time,83,21,62,58,2,58%,50%,30,53,84,59%,71%,50%,21.63,9.15,2.43,23.42%,30.0%,16.78%,48.7,38,N/A,33.6,92,1695,3,31.75,ND-75940,46.8512652,-100.2670873
Taft,North Dakota,45,1,Bismarck,114072,N/A,N/A,N/A,N/A,N/A,N/A,N/A,N/A,N/A,N/A,N/A,N/A,N/A,N/A,N/A,Burleigh County,22.70%,67.80%,N/A,N/A,N/A,N/A,N/A,Central Standard Time,82,22,60,57,4,58%,50%,30,53,83,59%,71%,50%,20.34,8.93,1.86,23.42%,30.0%,16.78%,48.7,38,N/A,33.6,92,1812,3,45.0,ND-77780,46.76432,-100.2685099
Telfer,North Dakota,69,2,Bismarck,114072,N/A,N/A,N/A,N/A,N/A,N/A,N/A,N/A,N/A,N/A,N/A,N/A,N/A,N/A,N/A,Burleigh County,22.70%,67.80%,N/A,N/A,N/A,N/A,N/A,Central Standard Time,85,24,61,59,4,58%,50%,30,53,86,59%,71%,50%,19.5,8.58,1.73,27.75%,31.76%,28.33%,48.7,38,N/A,33.6,92,1509,3,34.5,ND-78300,46.6781785,-100.5219635
Thelma,North Dakota,16,N/A,Bismarck,114072,N/A,N/A,N/A,N/A,N/A,N/A,N/A,N/A,N/A,N/A,N/A,N/A,N/A,N/A,N/A,Burleigh County,22.70%,67.80%,N/A,N/A,N/A,N/A,N/A,Central Standard Time,83,21,62,58,2,58%,50%,30,53,84,59%,71%,50%,21.63,9.15,2.43,23.42%,30.0%,16.78%,52.7,25,N/A,33.6,92,1695,3,N/A,ND-78580,46.7638838,-100.1420868
Trygg,North Dakota,47,1,Bismarck,114072,N/A,N/A,N/A,N/A,N/A,N/A,N/A,N/A,N/A,N/A,N/A,N/A,N/A,N/A,N/A,Burleigh County,22.70%,67.80%,N/A,N/A,N/A,N/A,N/A,Central Standard Time,83,24,59,59,5,58%,50%,30,53,84,59%,71%,50%,20.57,8.9,2.01,28.74%,34.4%,29.89%,48.7,38,N/A,33.6,95,1674,3,47.0,ND-79820,47.0257411,-100.4317859
Wild Rose,North Dakota,31,1,Bismarck,114072,N/A,N/A,N/A,N/A,N/A,N/A,N/A,N/A,N/A,N/A,N/A,N/A,N/A,N/A,N/A,Burleigh County,22.70%,67.80%,N/A,N/A,N/A,N/A,N/A,Central Standard Time,82,22,60,57,4,58%,50%,30,53,83,59%,71%,50%,20.34,8.93,1.86,23.42%,30.0%,16.78%,52.7,25,N/A,33.6,92,1812,3,31.0,ND-85980,46.6769863,-100.1435587
Wilson,North Dakota,34,1,Bismarck,114072,N/A,N/A,N/A,N/A,N/A,N/A,N/A,N/A,N/A,N/A,N/A,N/A,N/A,N/A,N/A,Burleigh County,22.70%,67.80%,N/A,N/A,N/A,N/A,N/A,Central Standard Time,86,25,61,60,5,58%,50%,30,53,88,59%,71%,50%,16.86,7.1,1.65,16.71%,24.51%,11.11%,36.5,27,N/A,33.6,95,1605,3,34.0,ND-86540,47.2860004,-100.6852884
Wing,North Dakota,115,180,Bismarck,114072,N/A,N/A,N/A,N/A,N/A,N/A,N/A,N/A,N/A,N/A,N/A,N/A,N/A,N/A,N/A,Burleigh County,22.70%,67.80%,N/A,N/A,N/A,N/A,N/A,Central Standard Time,83,21,62,58,2,58%,50%,30,53,84,59%,71%,50%,21.63,9.15,2.43,23.42%,30.0%,16.78%,48.7,38,N/A,33.6,95,1695,3,0.64,ND-86820,47.1120071,-100.3051765
Wing township,North Dakota,37,58,Bismarck,114072,N/A,N/A,N/A,N/A,N/A,N/A,N/A,N/A,N/A,N/A,N/A,N/A,N/A,N/A,N/A,Burleigh County,22.70%,67.80%,N/A,N/A,N/A,N/A,N/A,Central Standard Time,83,21,62,58,2,58%,50%,30,53,84,59%,71%,50%,21.63,9.15,2.43,23.42%,30.0%,16.78%,48.7,38,N/A,33.6,95,1695,3,0.64,ND-86820,47.1120071,-100.3051765
