City,State,Population,People per sq mi,Metro Name,Metro population,Median household income,% with at least Bachelor's degree,Median age,Median home price,Median home sqft,Median home cost per sqft,Median home age,Homeownership Rate,Avg Apartment Monthly Rent,Single Population,Num Violent Crimes Per 100k residents,Num Property Crimes Per 100k residents,Poverty Rate,Unemployment rate,Labor Force Participation rate,County,% Democrat,% Republican,% Asian,% Black,% Non-Hispanic White,% Hispanic,Foreign Born %,Timezone,Hottest month's avg high (F),Coldest month's avg high (F),Hottest high minus coldest high,Annual rainfall (in),Annual days of precipitation,Annual snowfall (in),Average yearly windspeed (mph),Air quality Index,Elevation (ft),UV Index,Land Area (sq mi),Fips Code,Latitude,Longitude,Annual Sunshine - Percentage of Possible,Summer Sunshine - Percentage of Possible,Winter Sunshine - Percentage of Possible,Annual Relative Humidity (afternoon),Summer Relative Humidity (afternoon),Number of days with thunder per year,Annual dew point (F),Average summer dew point (F),Hottest month's avg low (F),Coldest month's avg low (F),Summer rainfall (in),Winter rainfall (in),Percent of days that include precipitation,Percent of Summer days that include precipitation,Percent of Winter days that include precipitation,Days of snow per year
Adams township (Carroll Cnty),Indiana,696,27,Lafayette-West Lafayette,352736,$80556,N/A,N/A,N/A,N/A,N/A,38,95.50%,N/A,49.70%,N/A,N/A,N/A,3.30%,N/A,Carroll County,21.90%,72.60%,N/A,N/A,N/A,N/A,N/A,Eastern Standard Time,85,33,52,43.62,115,20.9,N/A,81,627,3.9,25.78,IN-00316,40.7052708,-86.6066997,51%,64%,41%,60%,57%,41.0,42,63,64,18,13.78,7.69,32.88%,34.07%,32.44%,17
Burlington,Indiana,647,1061,Lafayette-West Lafayette,352736,$57031,22.45%,43,$164000,1640,$100,61,85.16%,$533,49.49%,N/A,N/A,3.09%,0.63%,65.09%,Carroll County,21.90%,72.60%,0.0%,0.0%,94.59%,0.0%,0.77%,Eastern Standard Time,83,32,51,43.17,114,37.9,8.3,82,693,3.9,0.61,IN-09244,40.4819579,-86.3946459,51%,64%,41%,60%,57%,41.0,42,63,62,17,13.81,8.0,30.11%,29.67%,33.56%,22
Burlington township,Indiana,647,1061,Lafayette-West Lafayette,352736,$57031,22.45%,43,$164000,1640,$100,61,85.16%,$533,49.49%,N/A,N/A,3.09%,0.63%,65.09%,Carroll County,21.90%,72.60%,0.0%,0.0%,94.59%,0.0%,0.77%,Eastern Standard Time,83,32,51,43.17,116,37.9,8.3,82,693,3.9,0.61,IN-09244,40.4819579,-86.3946459,51%,64%,41%,60%,57%,41.0,42,63,62,17,13.81,8.0,30.11%,29.67%,33.56%,22
Camden,Indiana,589,2265,Lafayette-West Lafayette,352736,$53295,7.75%,38,N/A,N/A,N/A,67,78.78%,$582,53.8%,N/A,N/A,9.03%,2.16%,67.78%,Carroll County,21.90%,72.60%,0.0%,0.68%,97.11%,0.0%,0.0%,Eastern Standard Time,83,32,51,43.62,113,20.9,8.3,82,627,3.9,0.26,IN-09910,40.6099408,-86.5393492,51%,64%,41%,60%,57%,41.0,42,63,62,17,13.78,7.69,32.88%,34.07%,32.44%,17
Carrollton,Indiana,689,23,Lafayette-West Lafayette,352736,$58606,N/A,N/A,N/A,N/A,N/A,78,88.80%,N/A,29.70%,N/A,N/A,N/A,3.30%,N/A,Carroll County,21.90%,72.60%,N/A,N/A,N/A,N/A,N/A,Eastern Standard Time,83,32,51,41.99,113,20.9,8.3,82,708,3.9,29.96,IN-10540,40.5614783,-86.4212017,51%,64%,41%,60%,57%,41.0,42,63,62,17,13.86,7.61,30.11%,29.67%,33.56%,17
Clay township (Carroll Cnty),Indiana,1083,2006,Lafayette-West Lafayette,352736,$79398,N/A,N/A,N/A,N/A,N/A,25,78.80%,N/A,37.00%,N/A,N/A,N/A,3.30%,N/A,Carroll County,21.90%,72.60%,N/A,N/A,N/A,N/A,N/A,Eastern Standard Time,84,35,49,43.62,116,28.5,8.3,81,627,3.9,0.54,IN-12988,40.4568809,-86.6378024,51%,64%,41%,60%,57%,41.0,42,63,64,19,13.78,7.69,32.88%,34.07%,32.44%,19
Deer Creek township (Carroll Cnty),Indiana,114,814,Lafayette-West Lafayette,352736,$45161,0.0%,70,N/A,N/A,N/A,77,100.0%,N/A,65.06%,N/A,N/A,64.04%,0.0%,25.3%,Carroll County,21.90%,72.60%,0.0%,0.0%,100.0%,0.0%,0.0%,Eastern Standard Time,83,32,51,41.99,110,20.9,8.3,75,708,3.9,0.14,IN-17245,40.615023,-86.3904212,51%,64%,41%,60%,57%,41.0,42,63,62,17,13.86,7.61,30.11%,29.67%,33.56%,17
Delphi,Indiana,2979,1095,Lafayette-West Lafayette,352736,$45781,13.96%,37,$165000,2115,$78,67,63.1%,$742,52.03%,N/A,N/A,13.99%,4.46%,53.73%,Carroll County,21.90%,72.60%,0.0%,0.74%,81.03%,15.17%,8.9%,Eastern Standard Time,83,32,51,43.62,110,23.1,N/A,73,627,3.9,2.72,IN-17614,40.5834087,-86.6668108,51%,64%,41%,60%,57%,41.0,42,63,62,17,13.78,7.69,32.88%,34.07%,32.44%,13
Democrat,Indiana,942,32,Lafayette-West Lafayette,352736,$77232,N/A,N/A,N/A,N/A,N/A,44,94.20%,N/A,18.10%,N/A,N/A,N/A,3.30%,N/A,Carroll County,21.90%,72.60%,N/A,N/A,N/A,N/A,N/A,Eastern Standard Time,83,32,51,43.62,120,28.5,8.3,82,627,3.9,29.44,IN-17686,40.4675054,-86.5248842,51%,64%,41%,60%,57%,41.0,42,63,62,17,13.78,7.69,32.88%,34.07%,32.44%,19
Flora,Indiana,1856,1614,Lafayette-West Lafayette,352736,$47066,9.54%,40,N/A,N/A,N/A,57,63.36%,$601,52.05%,N/A,N/A,7.97%,4.3%,67.27%,Carroll County,21.90%,72.60%,0.0%,3.66%,93.91%,0.92%,1.19%,Eastern Standard Time,83,32,51,43.62,114,20.9,8.3,80,627,3.9,1.15,IN-23692,40.5454841,-86.5225675,51%,64%,41%,60%,57%,41.0,42,63,62,17,13.78,7.69,32.88%,34.07%,32.44%,17
Jackson township (Carroll Cnty),Indiana,1212,40,Lafayette-West Lafayette,352736,$54038,N/A,N/A,N/A,N/A,N/A,68,74.00%,N/A,41.80%,N/A,N/A,N/A,3.30%,N/A,Carroll County,21.90%,72.60%,N/A,N/A,N/A,N/A,N/A,Eastern Standard Time,83,32,51,43.62,113,20.9,8.3,82,627,3.9,30.3,IN-36828,40.5978851,-86.5250707,51%,64%,41%,60%,57%,41.0,42,63,62,17,13.78,7.69,32.88%,34.07%,32.44%,17
Jefferson township (Carroll Cnty),Indiana,1934,63,Lafayette-West Lafayette,352736,$56357,N/A,N/A,N/A,N/A,N/A,45,47.70%,N/A,46.30%,N/A,N/A,N/A,3.30%,N/A,Carroll County,21.90%,72.60%,N/A,N/A,N/A,1.10%,N/A,Eastern Standard Time,83,32,51,42.59,108,23.1,N/A,81,660,3.9,30.7,IN-37872,40.6919867,-86.7089922,51%,64%,41%,60%,57%,41.0,42,63,62,17,14.21,7.94,35.07%,33.85%,35.0%,13
Liberty township (Carroll Cnty),Indiana,585,680,Lafayette-West Lafayette,352736,$78304,N/A,N/A,N/A,N/A,N/A,75,94.90%,N/A,55.70%,N/A,N/A,N/A,3.30%,N/A,Carroll County,21.90%,72.60%,N/A,N/A,N/A,7.20%,N/A,Eastern Standard Time,85,33,52,43.62,112,20.9,8.3,82,627,3.9,0.86,IN-43200,40.6663963,-86.5083003,51%,64%,41%,60%,57%,41.0,42,63,64,18,13.78,7.69,32.88%,34.07%,32.44%,17
Madison township (Carroll Cnty),Indiana,477,55,Lafayette-West Lafayette,352736,$55833,N/A,N/A,$208000,1612,$129,78,88.40%,N/A,14.70%,N/A,N/A,N/A,3.30%,N/A,Carroll County,21.90%,72.60%,N/A,N/A,N/A,N/A,N/A,Eastern Standard Time,83,32,51,43.62,111,28.5,8.3,81,627,3.9,8.63,IN-45900,40.507412,-86.638463,51%,64%,41%,60%,57%,41.0,42,63,62,17,13.78,7.69,32.88%,34.07%,32.44%,19
Monroe township (Carroll Cnty),Indiana,2752,4047,Lafayette-West Lafayette,352736,$43281,N/A,N/A,$135000,1262,$107,64,62.00%,N/A,36.40%,N/A,N/A,N/A,3.30%,N/A,Carroll County,21.90%,72.60%,N/A,N/A,N/A,N/A,N/A,Eastern Standard Time,83,32,51,43.62,114,28.5,8.3,80,627,3.9,0.68,IN-50256,40.5326659,-86.5250859,51%,64%,41%,60%,57%,41.0,42,63,62,17,13.78,7.69,32.88%,34.07%,32.44%,19
Rock Creek township (Carroll Cnty),Indiana,660,49,Lafayette-West Lafayette,352736,$30455,N/A,N/A,N/A,N/A,N/A,64,73.50%,N/A,22.90%,N/A,N/A,N/A,3.30%,N/A,Carroll County,21.90%,72.60%,N/A,N/A,N/A,N/A,N/A,Eastern Standard Time,85,33,52,43.62,110,20.9,N/A,82,627,3.9,13.47,IN-65268,40.6644063,-86.5787064,51%,64%,41%,60%,57%,41.0,42,63,64,18,13.78,7.69,32.88%,34.07%,32.44%,17
Tippecanoe township (Carroll Cnty),Indiana,2421,89,Lafayette-West Lafayette,352736,$54018,N/A,N/A,N/A,N/A,N/A,49,66.30%,N/A,39.00%,N/A,N/A,N/A,3.30%,N/A,Carroll County,21.90%,72.60%,N/A,N/A,N/A,1.20%,N/A,Eastern Standard Time,83,32,51,43.62,111,23.1,N/A,81,627,3.9,27.2,IN-75824,40.6086434,-86.7269586,51%,64%,41%,60%,57%,41.0,42,63,62,17,13.78,7.69,32.88%,34.07%,32.44%,13
Washington township (Carroll Cnty),Indiana,394,59,Lafayette-West Lafayette,352736,$44375,N/A,N/A,$145000,1160,$125,74,89.90%,N/A,42.50%,N/A,N/A,N/A,3.30%,N/A,Carroll County,21.90%,72.60%,N/A,N/A,N/A,N/A,N/A,Eastern Standard Time,85,33,52,42.25,116,20.9,8.3,82,549,3.9,6.63,IN-80414,40.6486375,-86.4207435,51%,64%,41%,60%,57%,41.0,42,63,64,18,13.57,7.96,37.37%,35.38%,40.33%,17
Yeoman,Indiana,158,1215,Lafayette-West Lafayette,352736,$76563,2.59%,43,N/A,N/A,N/A,73,88.61%,N/A,44.12%,N/A,N/A,12.66%,0.0%,83.82%,Carroll County,21.90%,72.60%,0.0%,0.63%,98.73%,1.27%,1.27%,Eastern Standard Time,83,32,51,42.59,113,23.1,N/A,81,660,3.9,0.13,IN-85886,40.6676915,-86.723792,51%,64%,41%,60%,57%,41.0,42,63,62,17,14.21,7.94,35.07%,33.85%,35.0%,13
