City,State,Population,People per sq mi,Metro Name,Metro population,Median household income,% with at least Bachelor's degree,Median age,Median home price,Median home sqft,Median home cost per sqft,Median home age,Homeownership Rate,Avg Apartment Monthly Rent,Single Population,Num Violent Crimes Per 100k residents,Num Property Crimes Per 100k residents,Poverty Rate,Unemployment rate,Labor Force Participation rate,County,% Democrat,% Republican,% Asian,% Black,% Non-Hispanic White,% Hispanic,Foreign Born %,Timezone,Hottest month's avg high (F),Coldest month's avg high (F),Hottest high minus coldest high,Hottest month's avg low (F),Coldest month's avg low (F),Annual Relative Humidity (afternoon),Summer Relative Humidity (afternoon),Annual dew point (F),Average summer dew point (F),Hottest month's avg heat index high (F),Annual Sunshine - Percentage of Possible,Summer Sunshine - Percentage of Possible,Winter Sunshine - Percentage of Possible,Annual rainfall (in),Summer rainfall (in),Winter rainfall (in),Percent of days that include precipitation,Percent of Summer days that include precipitation,Percent of Winter days that include precipitation,Annual snowfall (in),Days of snow per year,Average yearly windspeed (mph),Number of days with thunder per year,Air quality Index,Elevation (ft),UV Index,Land Area (sq mi),Fips Code,Latitude,Longitude
Addison,North Dakota,95,3,Fargo,230126,N/A,N/A,N/A,N/A,N/A,N/A,N/A,N/A,N/A,N/A,N/A,N/A,N/A,N/A,N/A,Cass County,38.80%,49.30%,N/A,N/A,N/A,N/A,N/A,Central Standard Time,82,18,64,59,0,62%,55%,31,56,84,56%,70%,48%,22.0,9.6,1.77,19.73%,25.82%,15.78%,48.6,39,N/A,31.8,90,873,3.1,31.67,ND-00500,46.7602265,-97.1158814
Alice,North Dakota,45,46,Fargo,230126,$96667,15.38%,30,N/A,N/A,N/A,70,100.0%,N/A,32.26%,N/A,N/A,0.0%,0.0%,84.62%,Cass County,38.80%,49.30%,0.0%,0.0%,100.0%,0.0%,0.0%,Central Standard Time,86,24,62,62,5,62%,55%,31,56,89,56%,70%,48%,22.0,9.6,1.77,19.73%,25.82%,15.78%,51.5,17,N/A,31.8,92,1065,3.1,0.97,ND-01420,46.7600458,-97.5562481
Amenia,North Dakota,84,56,Fargo,230126,N/A,N/A,N/A,N/A,N/A,N/A,N/A,N/A,N/A,N/A,N/A,N/A,N/A,N/A,N/A,Cass County,38.80%,49.30%,N/A,N/A,N/A,N/A,N/A,Central Standard Time,82,18,64,59,0,62%,55%,31,56,84,56%,70%,48%,23.35,10.0,1.94,25.15%,31.65%,19.67%,48.6,39,N/A,31.8,89,855,3.1,1.49,ND-01980,47.0216205,-97.2627461
Amenia township,North Dakota,157,105,Fargo,230126,N/A,N/A,N/A,N/A,N/A,N/A,N/A,N/A,N/A,N/A,N/A,N/A,N/A,N/A,N/A,Cass County,38.80%,49.30%,N/A,N/A,N/A,N/A,N/A,Central Standard Time,82,18,64,59,0,62%,55%,31,56,84,56%,70%,48%,23.35,10.0,1.94,25.15%,31.65%,19.67%,48.6,39,N/A,31.8,89,855,3.1,1.49,ND-01980,47.0216205,-97.2627461
Argusville,North Dakota,588,147,Fargo,230126,$135156,60.96%,34,N/A,N/A,N/A,19,100.0%,N/A,20.11%,N/A,N/A,0.51%,0.32%,87.05%,Cass County,38.80%,49.30%,0.0%,0.34%,96.77%,1.87%,0.85%,Central Standard Time,83,18,65,60,-1,62%,55%,31,56,85,56%,70%,48%,24.13,10.13,2.66,29.53%,31.65%,29.67%,48.6,39,N/A,31.8,91,810,3.1,4.0,ND-03020,47.0500684,-96.9431407
Arthur,North Dakota,349,228,Fargo,230126,N/A,N/A,N/A,N/A,N/A,N/A,N/A,N/A,N/A,N/A,N/A,N/A,N/A,N/A,N/A,Cass County,38.80%,49.30%,N/A,N/A,N/A,N/A,N/A,Central Standard Time,82,18,64,59,0,62%,55%,31,56,84,56%,70%,48%,23.35,10.0,1.94,25.15%,31.65%,19.67%,48.6,39,N/A,31.8,91,855,3.1,1.53,ND-03340,47.1082052,-97.2626225
Arthur township,North Dakota,81,53,Fargo,230126,N/A,N/A,N/A,N/A,N/A,N/A,N/A,N/A,N/A,N/A,N/A,N/A,N/A,N/A,N/A,Cass County,38.80%,49.30%,N/A,N/A,N/A,N/A,N/A,Central Standard Time,82,18,64,59,0,62%,55%,31,56,84,56%,70%,48%,23.35,10.0,1.94,25.15%,31.65%,19.67%,48.6,39,N/A,31.8,91,855,3.1,1.53,ND-03340,47.1082052,-97.2626225
Ayr,North Dakota,12,133,Fargo,230126,N/A,N/A,N/A,N/A,N/A,N/A,N/A,N/A,N/A,N/A,N/A,N/A,N/A,N/A,N/A,Cass County,38.80%,49.30%,N/A,N/A,N/A,N/A,N/A,Central Standard Time,82,18,64,59,0,62%,55%,31,56,84,56%,70%,48%,23.35,10.0,1.94,25.15%,31.65%,19.67%,48.6,39,N/A,31.8,92,855,3.1,0.09,ND-04060,47.0215826,-97.5152451
Ayr township,North Dakota,55,611,Fargo,230126,N/A,N/A,N/A,N/A,N/A,N/A,N/A,N/A,N/A,N/A,N/A,N/A,N/A,N/A,N/A,Cass County,38.80%,49.30%,N/A,N/A,N/A,N/A,N/A,Central Standard Time,82,18,64,59,0,62%,55%,31,56,84,56%,70%,48%,23.35,10.0,1.94,25.15%,31.65%,19.67%,48.6,39,N/A,31.8,92,855,3.1,0.09,ND-04060,47.0215826,-97.5152451
Bell,North Dakota,62,2,Fargo,230126,N/A,N/A,N/A,N/A,N/A,N/A,N/A,N/A,N/A,N/A,N/A,N/A,N/A,N/A,N/A,Cass County,38.80%,49.30%,N/A,N/A,N/A,N/A,N/A,Central Standard Time,83,18,65,60,-1,62%,55%,31,56,85,56%,70%,48%,24.13,10.13,2.66,25.15%,31.65%,19.67%,48.6,39,N/A,31.8,91,810,3.1,31.0,ND-05900,47.1952707,-97.1337036
Berlin township (Cass Cnty),North Dakota,165,1650,Fargo,230126,N/A,N/A,N/A,N/A,N/A,N/A,N/A,N/A,N/A,N/A,N/A,N/A,N/A,N/A,N/A,Cass County,38.80%,49.30%,N/A,N/A,N/A,N/A,N/A,Central Standard Time,84,20,64,60,2,62%,55%,31,56,86,56%,70%,48%,23.49,9.31,2.44,29.53%,31.65%,29.67%,48.6,39,N/A,31.8,91,822,3.1,0.1,ND-06260,47.0193186,-97.0095996
Briarwood,North Dakota,80,571,Fargo,230126,$136806,41.07%,50,N/A,N/A,N/A,36,100.0%,N/A,29.17%,N/A,N/A,1.25%,0.0%,81.82%,Cass County,38.80%,49.30%,5.0%,0.0%,95.0%,0.0%,7.5%,Central Standard Time,83,19,64,60,0,62%,55%,31,56,85,56%,70%,48%,23.62,10.04,2.26,29.53%,31.65%,29.67%,48.6,39,N/A,31.8,84,831,3.1,0.14,ND-09320,46.7860752,-96.7970272
Brooktree Park,North Dakota,218,1211,Fargo,230126,$168021,85.71%,17,N/A,N/A,N/A,N/A,100.0%,N/A,20.45%,N/A,N/A,0.0%,0.0%,73.48%,Cass County,38.80%,49.30%,0.0%,0.0%,100.0%,0.0%,0.0%,Central Standard Time,84,20,64,60,2,62%,55%,31,56,86,56%,70%,48%,23.49,9.31,2.44,29.53%,31.65%,29.67%,48.6,39,N/A,31.8,87,822,3.1,0.18,ND-09830,47.0038843,-96.895693
Buffalo,North Dakota,208,433,Fargo,230126,N/A,N/A,N/A,N/A,N/A,N/A,N/A,N/A,N/A,N/A,N/A,N/A,N/A,N/A,N/A,Cass County,38.80%,49.30%,N/A,N/A,N/A,N/A,N/A,Central Standard Time,82,18,64,59,0,62%,55%,31,56,84,56%,70%,48%,23.35,10.0,1.94,25.15%,31.65%,19.67%,48.6,39,N/A,31.8,92,855,3.1,0.48,ND-10460,46.9343383,-97.4918511
Buffalo township,North Dakota,60,125,Fargo,230126,N/A,N/A,N/A,N/A,N/A,N/A,N/A,N/A,N/A,N/A,N/A,N/A,N/A,N/A,N/A,Cass County,38.80%,49.30%,N/A,N/A,N/A,N/A,N/A,Central Standard Time,82,18,64,59,0,62%,55%,31,56,84,56%,70%,48%,23.35,10.0,1.94,25.15%,31.65%,19.67%,48.6,39,N/A,31.8,92,855,3.1,0.48,ND-10460,46.9343383,-97.4918511
Casselton,North Dakota,2773,1422,Fargo,230126,N/A,N/A,N/A,N/A,N/A,N/A,N/A,N/A,N/A,N/A,N/A,N/A,N/A,N/A,N/A,Cass County,38.80%,49.30%,N/A,N/A,N/A,N/A,N/A,Central Standard Time,82,18,64,59,0,62%,55%,31,56,84,56%,70%,48%,23.35,10.0,1.94,25.15%,31.65%,19.67%,48.6,39,N/A,31.8,89,855,3.1,1.95,ND-12740,46.9358086,-97.2422132
Casselton township,North Dakota,84,43,Fargo,230126,N/A,N/A,N/A,N/A,N/A,N/A,N/A,N/A,N/A,N/A,N/A,N/A,N/A,N/A,N/A,Cass County,38.80%,49.30%,N/A,N/A,N/A,N/A,N/A,Central Standard Time,82,18,64,59,0,62%,55%,31,56,84,56%,70%,48%,23.35,10.0,1.94,25.15%,31.65%,19.67%,48.6,39,N/A,31.8,89,855,3.1,1.95,ND-12740,46.9358086,-97.2422132
Clifton,North Dakota,118,3,Fargo,230126,N/A,N/A,N/A,N/A,N/A,N/A,N/A,N/A,N/A,N/A,N/A,N/A,N/A,N/A,N/A,Cass County,38.80%,49.30%,N/A,N/A,N/A,N/A,N/A,Central Standard Time,86,24,62,62,5,62%,55%,31,56,89,56%,70%,48%,22.0,9.6,1.77,19.73%,25.82%,15.78%,51.5,17,N/A,31.8,92,1065,3.1,39.33,ND-14780,46.7602097,-97.6196747
Cornell,North Dakota,69,2,Fargo,230126,N/A,N/A,N/A,N/A,N/A,N/A,N/A,N/A,N/A,N/A,N/A,N/A,N/A,N/A,N/A,Cass County,38.80%,49.30%,N/A,N/A,N/A,N/A,N/A,Central Standard Time,82,18,64,59,0,62%,55%,31,56,84,56%,70%,48%,23.35,10.0,1.94,25.15%,31.65%,19.67%,51.5,17,N/A,31.8,92,855,3.1,34.5,ND-16100,47.0218787,-97.6422552
Davenport,North Dakota,274,1015,Fargo,230126,N/A,N/A,N/A,N/A,N/A,N/A,N/A,N/A,N/A,N/A,N/A,N/A,N/A,N/A,N/A,Cass County,38.80%,49.30%,N/A,N/A,N/A,N/A,N/A,Central Standard Time,82,18,64,59,0,62%,55%,31,56,84,56%,70%,48%,22.0,9.6,1.77,19.73%,25.82%,15.78%,48.6,39,N/A,31.8,90,873,3.1,0.27,ND-18220,46.6729238,-97.1154447
Davenport township,North Dakota,184,681,Fargo,230126,N/A,N/A,N/A,N/A,N/A,N/A,N/A,N/A,N/A,N/A,N/A,N/A,N/A,N/A,N/A,Cass County,38.80%,49.30%,N/A,N/A,N/A,N/A,N/A,Central Standard Time,82,18,64,59,0,62%,55%,31,56,84,56%,70%,48%,22.0,9.6,1.77,19.73%,25.82%,15.78%,48.6,39,N/A,31.8,90,873,3.1,0.27,ND-18220,46.6729238,-97.1154447
Dows,North Dakota,60,2,Fargo,230126,N/A,N/A,N/A,N/A,N/A,N/A,N/A,N/A,N/A,N/A,N/A,N/A,N/A,N/A,N/A,Cass County,38.80%,49.30%,N/A,N/A,N/A,N/A,N/A,Central Standard Time,81,17,64,57,-2,62%,55%,31,56,82,56%,70%,48%,23.09,9.9,1.86,25.75%,33.3%,20.44%,48.6,39,N/A,31.8,91,900,3.1,30.0,ND-20220,47.1954193,-97.3877034
Durbin,North Dakota,154,4,Fargo,230126,N/A,N/A,N/A,N/A,N/A,N/A,N/A,N/A,N/A,N/A,N/A,N/A,N/A,N/A,N/A,Cass County,38.80%,49.30%,N/A,N/A,N/A,N/A,N/A,Central Standard Time,82,18,64,59,0,62%,55%,31,56,84,56%,70%,48%,23.35,10.0,1.94,25.15%,31.65%,19.67%,48.6,39,N/A,31.8,89,855,3.1,38.5,ND-21100,46.8463202,-97.117518
Eldred,North Dakota,97,3,Fargo,230126,N/A,N/A,N/A,N/A,N/A,N/A,N/A,N/A,N/A,N/A,N/A,N/A,N/A,N/A,N/A,Cass County,38.80%,49.30%,N/A,N/A,N/A,N/A,N/A,Central Standard Time,86,24,62,62,5,62%,55%,31,56,89,56%,70%,48%,22.0,9.6,1.77,19.73%,25.82%,15.78%,48.6,39,N/A,31.8,92,873,3.1,32.33,ND-22860,46.7600421,-97.4922171
Embden,North Dakota,26,36,Fargo,230126,N/A,20.0%,51,N/A,N/A,N/A,N/A,100.0%,N/A,0.0%,N/A,N/A,0.0%,0.0%,65.0%,Cass County,38.80%,49.30%,0.0%,0.0%,100.0%,0.0%,0.0%,Central Standard Time,82,18,64,59,0,62%,55%,31,56,84,56%,70%,48%,22.0,9.6,1.77,19.73%,25.82%,15.78%,48.6,39,N/A,31.8,92,873,3.1,0.72,ND-24020,46.8050309,-97.4395057
Empire,North Dakota,79,2,Fargo,230126,N/A,N/A,N/A,N/A,N/A,N/A,N/A,N/A,N/A,N/A,N/A,N/A,N/A,N/A,N/A,Cass County,38.80%,49.30%,N/A,N/A,N/A,N/A,N/A,Central Standard Time,82,18,64,59,0,62%,55%,31,56,84,56%,70%,48%,23.35,10.0,1.94,25.15%,31.65%,19.67%,48.6,39,N/A,31.8,91,855,3.1,39.5,ND-24140,47.0212535,-97.3881535
Erie CDP,North Dakota,29,14,Fargo,230126,$86875,13.79%,57,N/A,N/A,N/A,N/A,100.0%,N/A,0.0%,N/A,N/A,0.0%,0.0%,82.76%,Cass County,38.80%,49.30%,0.0%,0.0%,100.0%,0.0%,0.0%,Central Standard Time,82,18,64,59,0,62%,55%,31,56,84,56%,70%,48%,23.35,10.0,1.94,25.15%,31.65%,19.67%,48.6,39,N/A,31.8,91,855,3.1,2.01,ND-24620,47.1153461,-97.3879176
Erie township,North Dakota,29,14,Fargo,230126,$86875,13.79%,57,N/A,N/A,N/A,N/A,100.0%,N/A,0.0%,N/A,N/A,0.0%,0.0%,82.76%,Cass County,38.80%,49.30%,0.0%,0.0%,100.0%,0.0%,0.0%,Central Standard Time,82,18,64,59,0,62%,55%,31,56,84,56%,70%,48%,23.35,10.0,1.94,25.15%,31.65%,19.67%,48.6,39,N/A,31.8,91,855,3.1,2.01,ND-24620,47.1153461,-97.3879176
Everest,North Dakota,40,1,Fargo,230126,N/A,N/A,N/A,N/A,N/A,N/A,N/A,N/A,N/A,N/A,N/A,N/A,N/A,N/A,N/A,Cass County,38.80%,49.30%,N/A,N/A,N/A,N/A,N/A,Central Standard Time,82,18,64,59,0,62%,55%,31,56,84,56%,70%,48%,23.35,10.0,1.94,25.15%,31.65%,19.67%,48.6,39,N/A,31.8,89,855,3.1,40.0,ND-25020,46.8467975,-97.2414909
Fargo,North Dakota,118099,2371,Fargo,230126,N/A,N/A,N/A,N/A,N/A,N/A,N/A,N/A,N/A,N/A,450,3121,N/A,N/A,N/A,Cass County,38.80%,49.30%,N/A,N/A,N/A,N/A,N/A,Central Standard Time,84,20,64,60,2,62%,55%,31,56,86,56%,70%,48%,23.49,9.31,2.44,29.53%,31.65%,29.67%,48.6,39,N/A,31.8,70,822,3.1,49.8,ND-25740,46.9437564,-96.7945175
Frontier,North Dakota,151,795,Fargo,230126,$112083,27.87%,55,N/A,N/A,N/A,38,100.0%,N/A,19.44%,N/A,N/A,0.0%,6.31%,77.08%,Cass County,38.80%,49.30%,0.0%,1.32%,98.68%,0.0%,0.0%,Central Standard Time,83,19,64,60,0,62%,55%,31,56,85,56%,70%,48%,24.05,10.19,2.3,29.53%,31.65%,29.67%,48.6,39,N/A,31.8,84,819,3.1,0.19,ND-28720,46.8005206,-96.8331391
Gardner,North Dakota,124,248,Fargo,230126,N/A,N/A,N/A,N/A,N/A,N/A,N/A,N/A,N/A,N/A,N/A,N/A,N/A,N/A,N/A,Cass County,38.80%,49.30%,N/A,N/A,N/A,N/A,N/A,Central Standard Time,83,18,65,60,-1,62%,55%,31,56,85,56%,70%,48%,24.13,10.13,2.66,29.53%,31.65%,29.67%,48.6,39,N/A,31.8,91,810,3.1,0.5,ND-29260,47.1078647,-97.0066165
Gardner township,North Dakota,115,230,Fargo,230126,N/A,N/A,N/A,N/A,N/A,N/A,N/A,N/A,N/A,N/A,N/A,N/A,N/A,N/A,N/A,Cass County,38.80%,49.30%,N/A,N/A,N/A,N/A,N/A,Central Standard Time,83,18,65,60,-1,62%,55%,31,56,85,56%,70%,48%,24.13,10.13,2.66,29.53%,31.65%,29.67%,48.6,39,N/A,31.8,91,810,3.1,0.5,ND-29260,47.1078647,-97.0066165
Gill,North Dakota,44,1,Fargo,230126,N/A,N/A,N/A,N/A,N/A,N/A,N/A,N/A,N/A,N/A,N/A,N/A,N/A,N/A,N/A,Cass County,38.80%,49.30%,N/A,N/A,N/A,N/A,N/A,Central Standard Time,82,18,64,59,0,62%,55%,31,56,84,56%,70%,48%,22.0,9.6,1.77,19.73%,25.82%,15.78%,48.6,39,N/A,31.8,89,873,3.1,44.0,ND-30260,46.8468609,-97.3665484
Grandin,North Dakota,135,750,Fargo,230126,$74167,13.73%,42,N/A,N/A,N/A,58,95.56%,N/A,20.0%,N/A,N/A,1.48%,1.33%,71.43%,Cass County,38.80%,49.30%,0.0%,0.0%,96.3%,0.0%,0.0%,Central Standard Time,83,18,65,60,-1,62%,55%,31,56,85,56%,70%,48%,24.13,10.13,2.66,29.53%,31.65%,29.67%,48.6,39,N/A,31.8,91,810,3.1,0.18,ND-32300,47.2367195,-97.003219
Gunkel,North Dakota,77,2,Fargo,230126,N/A,N/A,N/A,N/A,N/A,N/A,N/A,N/A,N/A,N/A,N/A,N/A,N/A,N/A,N/A,Cass County,38.80%,49.30%,N/A,N/A,N/A,N/A,N/A,Central Standard Time,82,18,64,59,0,62%,55%,31,56,84,56%,70%,48%,23.35,10.0,1.94,25.15%,31.65%,19.67%,48.6,39,N/A,31.8,91,855,3.1,38.5,ND-33820,47.1082582,-97.1335413
Harmony,North Dakota,198,6,Fargo,230126,N/A,N/A,N/A,N/A,N/A,N/A,N/A,N/A,N/A,N/A,N/A,N/A,N/A,N/A,N/A,Cass County,38.80%,49.30%,N/A,N/A,N/A,N/A,N/A,Central Standard Time,82,18,64,59,0,62%,55%,31,56,84,56%,70%,48%,23.35,10.0,1.94,25.15%,31.65%,19.67%,48.6,39,N/A,31.8,89,855,3.1,33.0,ND-35580,46.9352481,-97.1167882
Harwood,North Dakota,797,664,Fargo,230126,N/A,N/A,N/A,N/A,N/A,N/A,N/A,N/A,N/A,N/A,N/A,N/A,N/A,N/A,N/A,Cass County,38.80%,49.30%,N/A,N/A,N/A,N/A,N/A,Central Standard Time,83,18,65,60,-1,62%,55%,31,56,85,56%,70%,48%,24.13,10.13,2.66,29.53%,31.65%,29.67%,48.6,39,N/A,31.8,87,810,3.1,1.2,ND-35980,47.0196575,-96.8803904
Harwood township,North Dakota,372,310,Fargo,230126,N/A,N/A,N/A,N/A,N/A,N/A,N/A,N/A,N/A,N/A,N/A,N/A,N/A,N/A,N/A,Cass County,38.80%,49.30%,N/A,N/A,N/A,N/A,N/A,Central Standard Time,83,18,65,60,-1,62%,55%,31,56,85,56%,70%,48%,24.13,10.13,2.66,29.53%,31.65%,29.67%,48.6,39,N/A,31.8,87,810,3.1,1.2,ND-35980,47.0196575,-96.8803904
Highland township (Cass Cnty),North Dakota,143,4,Fargo,230126,N/A,N/A,N/A,N/A,N/A,N/A,N/A,N/A,N/A,N/A,N/A,N/A,N/A,N/A,N/A,Cass County,38.80%,49.30%,N/A,N/A,N/A,N/A,N/A,Central Standard Time,86,24,62,62,5,62%,55%,31,56,89,56%,70%,48%,22.0,9.6,1.77,19.73%,25.82%,15.78%,51.5,17,N/A,31.8,92,1065,3.1,35.75,ND-37900,46.6730465,-97.4931349
Hill,North Dakota,27,1,Fargo,230126,N/A,N/A,N/A,N/A,N/A,N/A,N/A,N/A,N/A,N/A,N/A,N/A,N/A,N/A,N/A,Cass County,38.80%,49.30%,N/A,N/A,N/A,N/A,N/A,Central Standard Time,86,24,62,62,5,62%,55%,31,56,89,56%,70%,48%,22.0,9.6,1.77,19.73%,25.82%,15.78%,51.5,17,N/A,31.8,92,1065,3.1,27.0,ND-38060,46.847251,-97.6188365
Horace,North Dakota,2847,247,Fargo,230126,$145208,44.81%,37,N/A,N/A,N/A,20,99.16%,$764,24.76%,N/A,N/A,1.69%,0.68%,76.51%,Cass County,38.80%,49.30%,0.0%,2.28%,93.68%,2.18%,0.67%,Central Standard Time,83,19,64,60,0,62%,55%,31,56,85,56%,70%,48%,24.05,10.19,2.3,29.53%,31.65%,29.67%,48.6,39,N/A,31.8,84,819,3.1,11.54,ND-38900,46.7558253,-96.9078042
Howes,North Dakota,116,3,Fargo,230126,N/A,N/A,N/A,N/A,N/A,N/A,N/A,N/A,N/A,N/A,N/A,N/A,N/A,N/A,N/A,Cass County,38.80%,49.30%,N/A,N/A,N/A,N/A,N/A,Central Standard Time,82,18,64,59,0,62%,55%,31,56,84,56%,70%,48%,22.0,9.6,1.77,19.73%,25.82%,15.78%,48.6,39,N/A,31.8,92,873,3.1,38.67,ND-39140,46.8468805,-97.492888
Hunter,North Dakota,298,200,Fargo,230126,N/A,N/A,N/A,N/A,N/A,N/A,N/A,N/A,N/A,N/A,N/A,N/A,N/A,N/A,N/A,Cass County,38.80%,49.30%,N/A,N/A,N/A,N/A,N/A,Central Standard Time,81,17,64,57,-2,62%,55%,31,56,82,56%,70%,48%,23.09,9.9,1.86,25.75%,33.3%,20.44%,48.6,39,N/A,31.8,91,900,3.1,1.49,ND-39500,47.1954576,-97.2626658
Hunter township,North Dakota,47,32,Fargo,230126,N/A,N/A,N/A,N/A,N/A,N/A,N/A,N/A,N/A,N/A,N/A,N/A,N/A,N/A,N/A,Cass County,38.80%,49.30%,N/A,N/A,N/A,N/A,N/A,Central Standard Time,81,17,64,57,-2,62%,55%,31,56,82,56%,70%,48%,23.09,9.9,1.86,25.75%,33.3%,20.44%,48.6,39,N/A,31.8,91,900,3.1,1.49,ND-39500,47.1954576,-97.2626658
Kindred,North Dakota,905,624,Fargo,230126,$81250,46.69%,28,N/A,N/A,N/A,53,85.97%,$630,36.17%,N/A,N/A,2.78%,4.49%,82.62%,Cass County,38.80%,49.30%,0.0%,0.0%,95.91%,0.77%,0.0%,Central Standard Time,83,19,64,60,0,62%,55%,31,56,85,56%,70%,48%,24.05,10.19,2.3,19.73%,25.82%,15.78%,48.6,39,N/A,31.8,90,819,3.1,1.45,ND-42780,46.6493789,-97.0169406
Kinyon,North Dakota,50,1,Fargo,230126,N/A,N/A,N/A,N/A,N/A,N/A,N/A,N/A,N/A,N/A,N/A,N/A,N/A,N/A,N/A,Cass County,38.80%,49.30%,N/A,N/A,N/A,N/A,N/A,Central Standard Time,83,18,65,60,-1,62%,55%,31,56,85,56%,70%,48%,24.13,10.13,2.66,29.53%,31.65%,29.67%,48.6,39,N/A,31.8,91,810,3.1,50.0,ND-42980,47.195058,-97.0062792
Lake,North Dakota,37,1,Fargo,230126,N/A,N/A,N/A,N/A,N/A,N/A,N/A,N/A,N/A,N/A,N/A,N/A,N/A,N/A,N/A,Cass County,38.80%,49.30%,N/A,N/A,N/A,N/A,N/A,Central Standard Time,82,18,64,59,0,62%,55%,31,56,84,56%,70%,48%,23.35,10.0,1.94,25.15%,31.65%,19.67%,48.6,39,N/A,31.8,92,855,3.1,37.0,ND-43780,47.1089307,-97.6420783
Leonard,North Dakota,295,393,Fargo,230126,N/A,N/A,N/A,N/A,N/A,N/A,N/A,N/A,N/A,N/A,N/A,N/A,N/A,N/A,N/A,Cass County,38.80%,49.30%,N/A,N/A,N/A,N/A,N/A,Central Standard Time,82,18,64,59,0,62%,55%,31,56,84,56%,70%,48%,22.0,9.6,1.77,19.73%,25.82%,15.78%,48.6,39,N/A,31.8,90,873,3.1,0.75,ND-46020,46.673358,-97.2410865
Leonard township,North Dakota,68,91,Fargo,230126,N/A,N/A,N/A,N/A,N/A,N/A,N/A,N/A,N/A,N/A,N/A,N/A,N/A,N/A,N/A,Cass County,38.80%,49.30%,N/A,N/A,N/A,N/A,N/A,Central Standard Time,82,18,64,59,0,62%,55%,31,56,84,56%,70%,48%,22.0,9.6,1.77,19.73%,25.82%,15.78%,48.6,39,N/A,31.8,90,873,3.1,0.75,ND-46020,46.673358,-97.2410865
Maple River,North Dakota,125,4,Fargo,230126,N/A,N/A,N/A,N/A,N/A,N/A,N/A,N/A,N/A,N/A,N/A,N/A,N/A,N/A,N/A,Cass County,38.80%,49.30%,N/A,N/A,N/A,N/A,N/A,Central Standard Time,82,18,64,59,0,62%,55%,31,56,84,56%,70%,48%,22.0,9.6,1.77,19.73%,25.82%,15.78%,48.6,39,N/A,31.8,90,873,3.1,31.25,ND-50540,46.7599557,-97.2414787
Mapleton,North Dakota,917,235,Fargo,230126,N/A,N/A,N/A,N/A,N/A,N/A,N/A,N/A,N/A,N/A,N/A,N/A,N/A,N/A,N/A,Cass County,38.80%,49.30%,N/A,N/A,N/A,N/A,N/A,Central Standard Time,83,19,64,60,0,62%,55%,31,56,85,56%,70%,48%,24.05,10.19,2.3,29.53%,31.65%,29.67%,48.6,39,N/A,31.8,87,819,3.1,3.91,ND-50620,46.8453689,-96.9902227
Mapleton township,North Dakota,158,40,Fargo,230126,N/A,N/A,N/A,N/A,N/A,N/A,N/A,N/A,N/A,N/A,N/A,N/A,N/A,N/A,N/A,Cass County,38.80%,49.30%,N/A,N/A,N/A,N/A,N/A,Central Standard Time,83,19,64,60,0,62%,55%,31,56,85,56%,70%,48%,24.05,10.19,2.3,29.53%,31.65%,29.67%,48.6,39,N/A,31.8,85,819,3.1,3.91,ND-50620,46.8453689,-96.9902227
Noble,North Dakota,49,2,Fargo,230126,N/A,N/A,N/A,N/A,N/A,N/A,N/A,N/A,N/A,N/A,N/A,N/A,N/A,N/A,N/A,Cass County,38.80%,49.30%,N/A,N/A,N/A,N/A,N/A,Central Standard Time,83,18,65,60,-1,62%,55%,31,56,85,56%,70%,48%,24.13,10.13,2.66,29.53%,31.65%,29.67%,48.6,39,N/A,31.8,91,810,3.1,24.5,ND-57020,47.1939447,-96.8868472
Normanna,North Dakota,427,12,Fargo,230126,N/A,N/A,N/A,N/A,N/A,N/A,N/A,N/A,N/A,N/A,N/A,N/A,N/A,N/A,N/A,Cass County,38.80%,49.30%,N/A,N/A,N/A,N/A,N/A,Central Standard Time,83,19,64,60,0,62%,55%,31,56,85,56%,70%,48%,24.05,10.19,2.3,19.73%,25.82%,15.78%,48.6,39,N/A,31.8,90,819,3.1,35.58,ND-57620,46.6746202,-96.9880939
North River,North Dakota,49,817,Fargo,230126,$114750,47.22%,53,N/A,N/A,N/A,44,100.0%,N/A,10.81%,N/A,N/A,0.0%,4.0%,67.57%,Cass County,38.80%,49.30%,0.0%,0.0%,100.0%,0.0%,2.04%,Central Standard Time,84,20,64,60,2,62%,55%,31,56,86,56%,70%,48%,23.49,9.31,2.44,29.53%,31.65%,29.67%,48.6,39,N/A,31.8,76,822,3.1,0.06,ND-58120,46.9507978,-96.8025805
Oxbow,North Dakota,249,163,Fargo,230126,$158750,60.85%,48,N/A,N/A,N/A,21,97.99%,N/A,16.67%,N/A,N/A,0.0%,0.0%,73.43%,Cass County,38.80%,49.30%,0.0%,0.0%,98.39%,1.61%,0.8%,Central Standard Time,83,19,64,60,0,62%,55%,31,56,85,56%,70%,48%,23.62,10.04,2.26,29.53%,31.65%,29.67%,48.6,39,N/A,31.8,90,831,3.1,1.53,ND-60480,46.672822,-96.810021
Page,North Dakota,308,308,Fargo,230126,N/A,N/A,N/A,N/A,N/A,N/A,N/A,N/A,N/A,N/A,N/A,N/A,N/A,N/A,N/A,Cass County,38.80%,49.30%,N/A,N/A,N/A,N/A,N/A,Central Standard Time,81,17,64,57,-2,62%,55%,31,56,82,56%,70%,48%,23.09,9.9,1.86,25.75%,33.3%,20.44%,48.6,39,N/A,31.8,92,900,3.1,1.0,ND-60540,47.1965404,-97.5133721
Page township,North Dakota,60,60,Fargo,230126,N/A,N/A,N/A,N/A,N/A,N/A,N/A,N/A,N/A,N/A,N/A,N/A,N/A,N/A,N/A,Cass County,38.80%,49.30%,N/A,N/A,N/A,N/A,N/A,Central Standard Time,81,17,64,57,-2,62%,55%,31,56,82,56%,70%,48%,23.09,9.9,1.86,25.75%,33.3%,20.44%,48.6,39,N/A,31.8,92,900,3.1,1.0,ND-60540,47.1965404,-97.5133721
Pleasant,North Dakota,346,9,Fargo,230126,N/A,N/A,N/A,N/A,N/A,N/A,N/A,N/A,N/A,N/A,N/A,N/A,N/A,N/A,N/A,Cass County,38.80%,49.30%,N/A,N/A,N/A,N/A,N/A,Central Standard Time,83,19,64,60,0,62%,55%,31,56,85,56%,70%,48%,24.05,10.19,2.3,29.53%,31.65%,29.67%,48.6,39,N/A,31.8,90,819,3.1,38.44,ND-63100,46.6730789,-96.8592011
Pontiac,North Dakota,10,N/A,Fargo,230126,N/A,N/A,N/A,N/A,N/A,N/A,N/A,N/A,N/A,N/A,N/A,N/A,N/A,N/A,N/A,Cass County,38.80%,49.30%,N/A,N/A,N/A,N/A,N/A,Central Standard Time,86,24,62,62,5,62%,55%,31,56,89,56%,70%,48%,23.51,10.14,2.32,19.73%,25.82%,15.78%,51.5,17,N/A,31.8,92,1065,3.1,N/A,ND-63580,46.6732777,-97.6189704
Prairie Rose,North Dakota,40,1000,Fargo,230126,$114583,38.71%,46,N/A,N/A,N/A,45,90.0%,N/A,23.53%,N/A,N/A,0.0%,0.0%,73.53%,Cass County,38.80%,49.30%,0.0%,0.0%,100.0%,0.0%,0.0%,Central Standard Time,83,19,64,60,0,62%,55%,31,56,85,56%,70%,48%,24.05,10.19,2.3,29.53%,31.65%,29.67%,48.6,39,N/A,31.8,77,819,3.1,0.04,ND-64320,46.8174651,-96.8356389
Raymond,North Dakota,305,9,Fargo,230126,N/A,N/A,N/A,N/A,N/A,N/A,N/A,N/A,N/A,N/A,N/A,N/A,N/A,N/A,N/A,Cass County,38.80%,49.30%,N/A,N/A,N/A,N/A,N/A,Central Standard Time,84,20,64,60,2,62%,55%,31,56,86,56%,70%,48%,23.49,9.31,2.44,29.53%,31.65%,29.67%,48.6,39,N/A,31.8,87,822,3.1,33.89,ND-65620,46.9357271,-96.9875364
Reed,North Dakota,1180,59,Fargo,230126,N/A,N/A,N/A,N/A,N/A,N/A,N/A,N/A,N/A,N/A,N/A,N/A,N/A,N/A,N/A,Cass County,38.80%,49.30%,N/A,N/A,N/A,N/A,N/A,Central Standard Time,84,20,64,60,2,62%,55%,31,56,86,56%,70%,48%,23.49,9.31,2.44,29.53%,31.65%,29.67%,48.6,39,N/A,31.8,82,822,3.1,20.0,ND-65860,46.9428838,-96.8792138
Reile's Acres,North Dakota,670,1340,Fargo,230126,$165625,54.71%,37,N/A,N/A,N/A,22,100.0%,N/A,24.41%,N/A,N/A,0.45%,8.71%,87.5%,Cass County,38.80%,49.30%,0.0%,0.0%,97.76%,0.45%,0.3%,Central Standard Time,84,20,64,60,2,62%,55%,31,56,86,56%,70%,48%,23.49,9.31,2.44,29.53%,31.65%,29.67%,48.6,39,N/A,31.8,87,822,3.1,0.5,ND-66040,46.9269643,-96.8666386
Rich,North Dakota,115,3,Fargo,230126,N/A,N/A,N/A,N/A,N/A,N/A,N/A,N/A,N/A,N/A,N/A,N/A,N/A,N/A,N/A,Cass County,38.80%,49.30%,N/A,N/A,N/A,N/A,N/A,Central Standard Time,82,18,64,59,0,62%,55%,31,56,84,56%,70%,48%,23.35,10.0,1.94,25.15%,31.65%,19.67%,48.6,39,N/A,31.8,92,855,3.1,38.33,ND-66460,47.1085959,-97.5146928
Rochester,North Dakota,39,1,Fargo,230126,N/A,N/A,N/A,N/A,N/A,N/A,N/A,N/A,N/A,N/A,N/A,N/A,N/A,N/A,N/A,Cass County,38.80%,49.30%,N/A,N/A,N/A,N/A,N/A,Central Standard Time,81,17,64,57,-2,62%,55%,31,56,82,56%,70%,48%,23.09,9.9,1.86,25.75%,33.3%,20.44%,48.6,39,N/A,31.8,92,900,3.1,39.0,ND-67260,47.1960077,-97.6421582
Rush River,North Dakota,18,N/A,Fargo,230126,N/A,N/A,N/A,N/A,N/A,N/A,N/A,N/A,N/A,N/A,N/A,N/A,N/A,N/A,N/A,Cass County,38.80%,49.30%,N/A,N/A,N/A,N/A,N/A,Central Standard Time,82,18,64,59,0,62%,55%,31,56,84,56%,70%,48%,23.35,10.0,1.94,25.15%,31.65%,19.67%,48.6,39,N/A,31.8,89,855,3.1,N/A,ND-69020,47.021068,-97.1336835
Stanley township,North Dakota,963,215,Fargo,230126,N/A,N/A,N/A,N/A,N/A,N/A,N/A,N/A,N/A,N/A,71,71,N/A,N/A,N/A,Cass County,38.80%,49.30%,N/A,N/A,N/A,N/A,N/A,Central Standard Time,83,19,64,60,0,62%,55%,31,56,85,56%,70%,48%,24.05,10.19,2.3,29.53%,31.65%,29.67%,48.6,39,N/A,31.8,84,819,3.1,4.48,ND-75340,46.7518873,-96.8397842
Tower,North Dakota,65,32,Fargo,230126,N/A,N/A,N/A,N/A,N/A,N/A,N/A,N/A,N/A,N/A,N/A,N/A,N/A,N/A,N/A,Cass County,38.80%,49.30%,N/A,N/A,N/A,N/A,N/A,Central Standard Time,82,18,64,59,0,62%,55%,31,56,84,56%,70%,48%,23.35,10.0,1.94,25.15%,31.65%,19.67%,51.5,17,N/A,31.8,92,855,3.1,2.05,ND-79300,46.934889,-97.6163609
Tower City,North Dakota,275,134,Fargo,230126,N/A,N/A,N/A,N/A,N/A,N/A,N/A,N/A,N/A,N/A,N/A,N/A,N/A,N/A,N/A,Cass County,38.80%,49.30%,N/A,N/A,N/A,N/A,N/A,Central Standard Time,82,18,64,59,0,62%,55%,31,56,84,56%,70%,48%,23.35,10.0,1.94,25.15%,31.65%,19.67%,51.5,17,N/A,31.8,92,855,3.1,2.05,ND-79300,46.934889,-97.6163609
Warren,North Dakota,144,4,Fargo,230126,N/A,N/A,N/A,N/A,N/A,N/A,N/A,N/A,N/A,N/A,N/A,N/A,N/A,N/A,N/A,Cass County,38.80%,49.30%,N/A,N/A,N/A,N/A,N/A,Central Standard Time,83,19,64,60,0,62%,55%,31,56,85,56%,70%,48%,24.05,10.19,2.3,19.73%,25.82%,15.78%,48.6,39,N/A,31.8,90,819,3.1,36.0,ND-83500,46.7605256,-96.9906467
Watson,North Dakota,75,2,Fargo,230126,N/A,N/A,N/A,N/A,N/A,N/A,N/A,N/A,N/A,N/A,N/A,N/A,N/A,N/A,N/A,Cass County,38.80%,49.30%,N/A,N/A,N/A,N/A,N/A,Central Standard Time,86,24,62,62,5,62%,55%,31,56,89,56%,70%,48%,22.0,9.6,1.77,19.73%,25.82%,15.78%,48.6,39,N/A,31.8,92,873,3.1,37.5,ND-83940,46.6728714,-97.3672209
West Fargo,North Dakota,36406,2267,Fargo,230126,$87674,43.04%,33,N/A,N/A,N/A,18,72.34%,$957,38.66%,144,1529,6.54%,1.21%,82.56%,Cass County,38.80%,49.30%,1.88%,2.74%,90.08%,1.75%,4.23%,Central Standard Time,83,19,64,60,0,62%,55%,31,56,85,56%,70%,48%,24.05,10.19,2.3,29.53%,31.65%,29.67%,48.6,39,N/A,31.8,70,819,3.1,16.06,ND-84780,46.8573426,-96.905709
Wheatland CDP,North Dakota,31,8,Fargo,230126,N/A,0.0%,75,N/A,N/A,N/A,N/A,100.0%,N/A,58.06%,N/A,N/A,0.0%,0.0%,22.58%,Cass County,38.80%,49.30%,0.0%,0.0%,100.0%,0.0%,0.0%,Central Standard Time,82,18,64,59,0,62%,55%,31,56,84,56%,70%,48%,23.35,10.0,1.94,25.15%,31.65%,19.67%,48.6,39,N/A,31.8,89,855,3.1,4.01,ND-85180,46.9048973,-97.3454829
Wheatland township,North Dakota,31,8,Fargo,230126,N/A,0.0%,75,N/A,N/A,N/A,N/A,100.0%,N/A,58.06%,N/A,N/A,0.0%,0.0%,22.58%,Cass County,38.80%,49.30%,0.0%,0.0%,100.0%,0.0%,0.0%,Central Standard Time,82,18,64,59,0,62%,55%,31,56,84,56%,70%,48%,23.35,10.0,1.94,25.15%,31.65%,19.67%,48.6,39,N/A,31.8,89,855,3.1,4.01,ND-85180,46.9048973,-97.3454829
Wiser,North Dakota,25,1,Fargo,230126,N/A,N/A,N/A,N/A,N/A,N/A,N/A,N/A,N/A,N/A,N/A,N/A,N/A,N/A,N/A,Cass County,38.80%,49.30%,N/A,N/A,N/A,N/A,N/A,Central Standard Time,83,18,65,60,-1,62%,55%,31,56,85,56%,70%,48%,24.13,10.13,2.66,29.53%,31.65%,29.67%,48.6,39,N/A,31.8,91,810,3.1,25.0,ND-86980,47.1065966,-96.8828085
