City,State,Population,People per sq mi,Metro Name,Metro population,Median household income,% with at least Bachelor's degree,Median age,Median home price,Median home sqft,Median home cost per sqft,Median home age,Homeownership Rate,Avg Apartment Monthly Rent,Single Population,Num Violent Crimes Per 100k residents,Num Property Crimes Per 100k residents,Poverty Rate,Unemployment rate,Labor Force Participation rate,County,% Democrat,% Republican,% Asian,% Black,% Non-Hispanic White,% Hispanic,Foreign Born %,Timezone,Hottest month's avg high (F),Coldest month's avg high (F),Hottest high minus coldest high,Annual rainfall (in),Annual days of precipitation,Annual days of sunshine,Annual snowfall (in),Avg Summer Dew Point,Avg Annual Dew Point,Average yearly windspeed (mph),Air quality Index,Elevation (ft),UV Index,Land Area (sq mi),Fips Code,Latitude,Longitude
Bellevue,Texas,443,527,Wichita Falls,152485,$63333,13.19%,34,N/A,N/A,N/A,63,76.52%,$893,49.3%,N/A,N/A,17.83%,4.93%,59.71%,Clay County,10.70%,87.20%,0.0%,0.0%,93.45%,1.58%,0.68%,Central Standard Time,95,54,41,34,59,241,1,64.2,49.6,N/A,67,994,5.7,0.84,TX-07396,33.633508,-98.016347
Byers,Texas,401,405,Wichita Falls,152485,$46625,13.36%,47,N/A,N/A,N/A,49,81.8%,$754,27.74%,N/A,N/A,5.24%,6.47%,55.19%,Clay County,10.70%,87.20%,0.0%,0.0%,93.02%,3.74%,1.25%,Central Standard Time,97,55,42,32,60,246,2,64,48.9,9,68,994,5.7,0.99,TX-11644,34.0695934,-98.1912465
Dean,Texas,461,216,Wichita Falls,152485,$57656,21.43%,45,N/A,N/A,N/A,42,95.88%,N/A,22.51%,N/A,N/A,4.77%,4.84%,48.95%,Clay County,10.70%,87.20%,1.08%,0.0%,82.43%,13.23%,3.9%,Central Standard Time,97,55,42,30,67,243,2,63.8,48.9,10,68,994,5.7,2.13,TX-19456,33.9158558,-98.3527648
Henrietta,Texas,3073,601,Wichita Falls,152485,$50194,28.69%,44,$185000,1542,$120,49,76.66%,$753,39.8%,N/A,N/A,12.2%,3.18%,56.26%,Clay County,10.70%,87.20%,0.55%,0.42%,94.5%,1.14%,1.24%,Central Standard Time,97,55,42,33,63,244,2,63.1,48.3,9,62,994,5.7,5.11,TX-33284,33.8145941,-98.1924244
Jolly,Texas,223,228,Wichita Falls,152485,$76250,18.91%,65,N/A,N/A,N/A,38,100.0%,N/A,30.77%,N/A,N/A,8.97%,0.0%,29.21%,Clay County,10.70%,87.20%,0.0%,0.0%,77.13%,3.59%,0.0%,Central Standard Time,97,55,42,31,65,242,3,63.8,48.9,N/A,68,994,5.7,0.98,TX-37924,33.8826701,-98.3474961
Petrolia,Texas,415,561,Wichita Falls,152485,$36250,6.29%,51,N/A,N/A,N/A,53,88.43%,$575,53.04%,N/A,N/A,9.88%,0.0%,42.61%,Clay County,10.70%,87.20%,0.0%,0.0%,87.95%,6.02%,0.0%,Central Standard Time,97,55,42,32,66,247,1,63.9,48.8,9,68,994,5.7,0.74,TX-57044,34.013192,-98.2312409
