City,State,Population,People per sq mi,Metro Name,Metro population,Median household income,% with at least Bachelor's degree,Median age,Median home price,Median home sqft,Median home cost per sqft,Median home age,Homeownership Rate,Avg Apartment Monthly Rent,Single Population,Num Violent Crimes Per 100k residents,Num Property Crimes Per 100k residents,Poverty Rate,Unemployment rate,Labor Force Participation rate,County,% Democrat,% Republican,% Asian,% Black,% Non-Hispanic White,% Hispanic,Foreign Born %,Timezone,Hottest month's avg high (F),Coldest month's avg high (F),Hottest high minus coldest high,Annual rainfall (in),Annual days of precipitation,Annual snowfall (in),Average yearly windspeed (mph),Air quality Index,Elevation (ft),UV Index,Land Area (sq mi),Fips Code,Latitude,Longitude,Annual Sunshine - Percentage of Possible,Summer Sunshine - Percentage of Possible,Winter Sunshine - Percentage of Possible,Annual Relative Humidity (afternoon),Summer Relative Humidity (afternoon),Number of days with thunder per year
Albion (Dane Cnty),Wisconsin,1991,57,Madison,670447,$66071,N/A,N/A,N/A,N/A,N/A,61,73.30%,N/A,44.40%,N/A,N/A,N/A,2.60%,N/A,Dane County,70.40%,23.00%,0.4%,0.1%,95.3%,3.7%,N/A,Central Standard Time,83,28,55,35,117,35,8.1,79,863,3.3,34.93,WI-00875,42.8915048,-89.0727839,52%,64%,45%,60%,57%,40.5
Belleville,Wisconsin,2682,1687,Madison,670447,$75735,36.19%,36,$340000,1643,$207,30,81.43%,$818,39.2%,81,650,4.33%,4.36%,80.87%,Dane County,70.40%,23.00%,0.52%,0.6%,90.49%,3.58%,1.83%,Central Standard Time,83,27,56,37,111,35,8.1,82,863,3.3,1.59,WI-06300,42.86421,-89.5402372,52%,64%,45%,60%,57%,40.5
Berry,Wisconsin,1181,33,Madison,670447,$85000,37.05%,N/A,N/A,N/A,N/A,42,77.70%,N/A,33.00%,N/A,N/A,N/A,2.60%,N/A,Dane County,70.40%,23.00%,0.0%,0.0%,99.3%,0.3%,N/A,Central Standard Time,83,27,56,36,113,44,8.1,81,863,3.3,35.79,WI-07025,43.1628643,-89.6602006,52%,64%,45%,60%,57%,40.5
Black Earth,Wisconsin,485,577,Madison,670447,$96250,32.47%,N/A,$246000,1166,$211,35,92.10%,N/A,32.00%,N/A,N/A,6.3%,2.60%,N/A,Dane County,70.40%,23.00%,0.0%,0.0%,97.3%,1.9%,0.6%,Central Standard Time,83,28,55,35,109,44,8.1,80,863,3.3,0.84,WI-07825,43.1408388,-89.7803001,52%,64%,45%,60%,57%,40.5
Blooming Grove,Wisconsin,1918,288,Madison,670447,$67067,32.17%,N/A,N/A,N/A,N/A,44,79.50%,N/A,44.90%,N/A,N/A,N/A,2.60%,N/A,Dane County,70.40%,23.00%,2.0%,4.4%,88.7%,2.7%,N/A,Central Standard Time,82,27,55,36,116,42,8.1,61,863,3.3,6.66,WI-08350,43.0260067,-89.3197637,52%,64%,45%,60%,57%,40.5
Blue Mounds,Wisconsin,924,1050,Madison,670447,$81250,28.57%,N/A,$273000,1645,$166,41,91.40%,N/A,34.30%,N/A,N/A,1.8%,2.60%,N/A,Dane County,70.40%,23.00%,1.9%,0.6%,92.5%,1.5%,2.8%,Central Standard Time,82,27,55,37,105,40,8.1,81,863,3.3,0.88,WI-08500,42.9861203,-89.7815916,52%,64%,45%,60%,57%,40.5
Bristol,Wisconsin,3908,120,Madison,670447,$104427,27.90%,N/A,$413000,2401,$172,21,96.00%,$1269,31.40%,N/A,N/A,2.5%,2.60%,N/A,Dane County,70.40%,23.00%,3.0%,0.0%,89.5%,5.7%,4.6%,Central Standard Time,81,26,55,35,113,43,8.1,75,863,3.3,32.7,WI-09775,43.2412401,-89.1839571,52%,64%,45%,60%,57%,40.5
Burke,Wisconsin,3396,222,Madison,670447,$73214,38.73%,N/A,N/A,N/A,N/A,38,89.00%,$1364,34.10%,N/A,N/A,N/A,2.60%,N/A,Dane County,70.40%,23.00%,5.5%,0.0%,87.5%,3.4%,N/A,Central Standard Time,82,27,55,35,114,43,8.1,68,863,3.3,15.3,WI-11150,43.1725722,-89.3382717,52%,64%,45%,60%,57%,40.5
Cambridge,Wisconsin,1260,857,Madison,670447,$77955,35.31%,49,$300000,1807,$166,32,90.4%,$929,47.73%,N/A,N/A,5.87%,3.76%,66.92%,Dane County,70.40%,23.00%,0.32%,0.0%,93.81%,4.29%,1.75%,Central Standard Time,82,27,55,35,112,38,8.1,77,863,3.3,1.47,WI-12225,43.0071007,-89.0213158,52%,64%,45%,60%,57%,40.5
Christiana (Dane Cnty),Wisconsin,1378,40,Madison,670447,$58807,N/A,N/A,N/A,N/A,N/A,51,79.90%,N/A,37.70%,N/A,N/A,N/A,2.60%,N/A,Dane County,70.40%,23.00%,0.4%,0.3%,97.2%,0.7%,N/A,Central Standard Time,82,27,55,36,112,39,8.1,77,863,3.3,34.45,WI-14650,42.9776239,-89.0739246,52%,64%,45%,60%,57%,40.5
Cottage Grove,Wisconsin,3939,840,Madison,670447,$84643,50.41%,N/A,$433000,2092,$207,38,86.10%,$1204,33.40%,41,305,4%,2.60%,N/A,Dane County,70.40%,23.00%,1.2%,0.6%,96.2%,0.9%,6.8%,Central Standard Time,82,27,55,36,115,42,8.1,71,863,3.3,4.69,WI-17200,43.0618667,-89.1856881,52%,64%,45%,60%,57%,40.5
Cross Plains,Wisconsin,1486,826,Madison,670447,$98229,37.33%,N/A,$362000,1581,$229,37,85.60%,$917,33.70%,92,529,1.6%,2.60%,N/A,Dane County,70.40%,23.00%,0.3%,0.3%,96.9%,2.2%,3%,Central Standard Time,83,27,56,37,113,44,8.1,81,863,3.3,1.8,WI-17800,43.0736897,-89.6608633,52%,64%,45%,60%,57%,40.5
Dane,Wisconsin,901,764,Madison,670447,$72500,29.58%,N/A,$400000,1923,$208,41,79.00%,N/A,37.10%,N/A,N/A,1.8%,2.60%,N/A,Dane County,70.40%,23.00%,0.8%,0.2%,90.8%,7.0%,10.7%,Central Standard Time,82,27,55,35,113,43,8.1,75,863,3.3,1.18,WI-18725,43.250011,-89.5423783,52%,64%,45%,60%,57%,40.5
Deerfield (Dane Cnty),Wisconsin,1612,743,Madison,670447,$87857,N/A,N/A,$310000,1623,$191,37,90.30%,N/A,35.60%,N/A,N/A,N/A,2.60%,N/A,Dane County,70.40%,23.00%,0.0%,3.8%,95.4%,0.4%,N/A,Central Standard Time,82,27,55,36,114,43,8.1,77,863,3.3,2.17,WI-19275,43.0671433,-89.070373,52%,64%,45%,60%,57%,40.5
DeForest,Wisconsin,10473,1232,Madison,670447,$84282,39.32%,38,$425000,2191,$194,31,79.01%,$1000,46.63%,92,900,9.16%,1.04%,73.21%,Dane County,70.40%,23.00%,3.95%,0.55%,83.04%,5.3%,3.28%,Central Standard Time,82,27,55,35,113,43,8.1,69,863,3.3,8.5,WI-19350,43.2468505,-89.3365527,52%,64%,45%,60%,57%,40.5
Dunkirk,Wisconsin,2205,71,Madison,670447,$73690,32.17%,N/A,N/A,N/A,N/A,47,85.90%,N/A,33.00%,N/A,N/A,N/A,2.60%,N/A,Dane County,70.40%,23.00%,0.3%,0.5%,95.7%,2.9%,N/A,Central Standard Time,82,27,55,36,111,40,8.1,74,863,3.3,31.06,WI-21100,42.8855266,-89.186846,52%,64%,45%,60%,57%,40.5
Dunn (Dane Cnty),Wisconsin,5195,186,Madison,670447,$72666,N/A,N/A,N/A,N/A,N/A,40,78.50%,N/A,33.50%,N/A,N/A,N/A,2.60%,N/A,Dane County,70.40%,23.00%,0.1%,1.0%,94.1%,2.7%,N/A,Central Standard Time,82,27,55,36,113,42,8.1,76,863,3.3,27.93,WI-21125,42.9733971,-89.3091575,52%,64%,45%,60%,57%,40.5
Fitchburg,Wisconsin,30032,860,Madison,670447,$76240,56.82%,34,$396000,1980,$200,27,55.0%,$1098,53.87%,301,1714,11.12%,2.06%,70.38%,Dane County,70.40%,23.00%,4.92%,8.17%,67.56%,15.45%,11.32%,Central Standard Time,82,27,55,36,114,44,8.1,66,863,3.3,34.92,WI-25950,42.9858664,-89.4255059,52%,64%,45%,60%,57%,40.5
Madison,Wisconsin,248856,3128,Madison,670447,$53933,57.87%,N/A,$361000,1619,$223,41,45.00%,$1364,61.20%,359,2474,7.4%,2.50%,N/A,Dane County,70.40%,23.00%,8.7%,6.4%,74.5%,7.0%,12%,Central Standard Time,82,27,55,36,115,42,8.1,55,863,3.3,79.57,WI-48025,43.0412076,-89.3918681,52%,64%,45%,60%,57%,40.5
Madison town,Wisconsin,6829,86,Madison,670447,$30227,N/A,N/A,$361000,1619,$223,41,25.70%,N/A,70.50%,359,2474,N/A,2.60%,N/A,Dane County,70.40%,23.00%,3.9%,15.4%,47.2%,28.5%,N/A,Central Standard Time,82,27,55,36,116,42,8.1,62,863,3.3,79.57,WI-48025,43.0412076,-89.3918681,52%,64%,45%,60%,57%,40.5
Maple Bluff,Wisconsin,1288,1840,Madison,670447,$157917,76.91%,46,$665000,2866,$232,67,93.4%,$971,31.97%,0,758,0.62%,1.37%,64.47%,Dane County,70.40%,23.00%,0.0%,0.0%,90.92%,8.62%,2.1%,Central Standard Time,82,27,55,36,116,42,8.1,61,863,3.3,0.7,WI-48750,43.1131115,-89.3718065,52%,64%,45%,60%,57%,40.5
Mazomanie,Wisconsin,1085,616,Madison,670447,$70400,27.76%,N/A,$230000,1620,$142,39,82.60%,N/A,39.20%,N/A,N/A,8.9%,2.60%,N/A,Dane County,70.40%,23.00%,1.1%,0.4%,93.5%,2.3%,1.5%,Central Standard Time,83,28,55,35,110,44,8.1,80,863,3.3,1.76,WI-50250,43.2034528,-89.7722157,52%,64%,45%,60%,57%,40.5
McFarland,Wisconsin,8845,1858,Madison,670447,$82583,42.0%,41,$490000,2450,$200,34,75.88%,$1185,47.17%,55,580,1.98%,3.87%,75.35%,Dane County,70.40%,23.00%,2.33%,2.97%,91.81%,1.45%,3.2%,Central Standard Time,82,27,55,36,114,41,8.1,70,863,3.3,4.76,WI-46850,43.0202365,-89.2829327,52%,64%,45%,60%,57%,40.5
Medina,Wisconsin,1263,38,Madison,670447,$72692,23.93%,N/A,N/A,N/A,N/A,41,77.50%,N/A,33.00%,N/A,N/A,N/A,2.60%,N/A,Dane County,70.40%,23.00%,0.0%,2.5%,89.6%,5.2%,N/A,Central Standard Time,82,27,55,35,117,43,8.1,80,863,3.3,33.24,WI-50475,43.1514103,-89.0696492,52%,64%,45%,60%,57%,40.5
Middleton,Wisconsin,18951,2120,Madison,670447,$62238,61.97%,N/A,$485000,2215,$219,36,50.60%,$1189,47.90%,59,1335,4.6%,2.60%,N/A,Dane County,70.40%,23.00%,4.5%,6.7%,80.6%,4.5%,9.3%,Central Standard Time,82,27,55,36,116,43,8.1,69,863,3.3,8.94,WI-51600,43.0776634,-89.5729514,52%,64%,45%,60%,57%,40.5
Middleton town,Wisconsin,6172,690,Madison,670447,$126755,N/A,N/A,$485000,2215,$219,26,100.00%,N/A,22.40%,59,1335,N/A,2.60%,N/A,Dane County,70.40%,23.00%,9.3%,0.4%,87.2%,1.5%,N/A,Central Standard Time,82,27,55,37,112,44,8.1,79,863,3.3,8.94,WI-51600,43.0776634,-89.5729514,52%,64%,45%,60%,57%,40.5
Monona,Wisconsin,8141,2497,Madison,670447,$76719,54.17%,45,$401000,1610,$249,59,68.47%,$961,45.88%,111,7698,6.05%,1.62%,62.55%,Dane County,70.40%,23.00%,1.81%,1.62%,89.78%,4.46%,3.78%,Central Standard Time,82,27,55,36,116,42,8.1,62,863,3.3,3.26,WI-53675,43.0540078,-89.3334476,52%,64%,45%,60%,57%,40.5
Montrose,Wisconsin,1198,35,Madison,670447,$71667,41.41%,N/A,N/A,N/A,N/A,38,71.50%,N/A,28.50%,N/A,N/A,N/A,2.60%,N/A,Dane County,70.40%,23.00%,0.4%,0.3%,90.8%,5.8%,N/A,Central Standard Time,83,27,56,37,110,37,8.1,82,863,3.3,34.23,WI-54100,42.9021034,-89.5443716,52%,64%,45%,60%,57%,40.5
Mount Horeb,Wisconsin,7494,2320,Madison,670447,$81297,47.02%,36,$520000,2766,$188,30,70.1%,$1036,42.15%,93,307,3.69%,1.06%,78.37%,Dane County,70.40%,23.00%,1.0%,1.99%,86.82%,4.6%,1.13%,Central Standard Time,82,27,55,37,107,41,8.1,79,863,3.3,3.23,WI-54725,43.006002,-89.7317037,52%,64%,45%,60%,57%,40.5
Oregon,Wisconsin,3295,734,Madison,670447,$103750,51.41%,N/A,$375000,2155,$174,33,92.20%,$1011,28.40%,74,496,2.2%,2.60%,N/A,Dane County,70.40%,23.00%,0.4%,0.5%,95.8%,0.3%,1.9%,Central Standard Time,83,27,56,36,111,40,8.1,79,863,3.3,4.49,WI-60225,42.8963271,-89.4330878,52%,64%,45%,60%,57%,40.5
Perry,Wisconsin,892,25,Madison,670447,$76125,38.40%,N/A,N/A,N/A,N/A,73,86.10%,N/A,41.90%,N/A,N/A,N/A,2.60%,N/A,Dane County,70.40%,23.00%,0.0%,2.4%,89.1%,8.5%,N/A,Central Standard Time,82,27,55,37,106,41,8.1,82,863,3.3,35.68,WI-62050,42.9011012,-89.7792506,52%,64%,45%,60%,57%,40.5
Pleasant Springs,Wisconsin,3340,103,Madison,670447,$90815,45.50%,N/A,N/A,N/A,N/A,42,86.20%,N/A,36.20%,N/A,N/A,N/A,2.60%,N/A,Dane County,70.40%,23.00%,1.9%,0.5%,94.4%,1.4%,N/A,Central Standard Time,82,27,55,36,111,41,8.1,73,863,3.3,32.43,WI-63375,42.9784808,-89.1886187,52%,64%,45%,60%,57%,40.5
Primrose,Wisconsin,699,20,Madison,670447,$67500,29.47%,N/A,N/A,N/A,N/A,42,81.80%,N/A,28.00%,N/A,N/A,N/A,2.60%,N/A,Dane County,70.40%,23.00%,0.0%,0.0%,96.0%,3.4%,N/A,Central Standard Time,82,27,55,37,108,39,8.1,82,863,3.3,34.95,WI-65575,42.9010508,-89.6614879,52%,64%,45%,60%,57%,40.5
Rockdale,Wisconsin,210,750,Madison,670447,$61094,29.17%,39,$438000,2940,$149,70,69.52%,$868,51.23%,N/A,N/A,9.05%,0.93%,69.93%,Dane County,70.40%,23.00%,0.48%,0.0%,88.57%,1.43%,0.48%,Central Standard Time,82,27,55,35,112,38,8.1,77,863,3.3,0.28,WI-68725,42.9717151,-89.0317542,52%,64%,45%,60%,57%,40.5
Roxbury,Wisconsin,1909,56,Madison,670447,$75893,32.45%,N/A,N/A,N/A,N/A,37,77.10%,N/A,31.50%,N/A,N/A,N/A,2.60%,N/A,Dane County,70.40%,23.00%,0.5%,0.2%,97.3%,1.8%,N/A,Central Standard Time,83,28,55,35,112,41,8.1,82,863,3.3,34.09,WI-69850,43.2492612,-89.6596408,52%,64%,45%,60%,57%,40.5
Rutland,Wisconsin,1939,56,Madison,670447,$85547,37.50%,N/A,N/A,N/A,N/A,40,89.50%,N/A,33.10%,N/A,N/A,N/A,2.60%,N/A,Dane County,70.40%,23.00%,1.0%,0.2%,93.3%,3.7%,N/A,Central Standard Time,83,27,56,36,111,40,8.1,79,863,3.3,34.63,WI-70400,42.8887542,-89.3094695,52%,64%,45%,60%,57%,40.5
Shorewood Hills,Wisconsin,2085,2606,Madison,670447,$136750,92.59%,39,$1095000,2844,$385,60,75.38%,$1774,32.34%,48,1924,4.18%,2.15%,65.79%,Dane County,70.40%,23.00%,9.59%,1.82%,82.45%,3.02%,12.95%,Central Standard Time,82,27,55,36,116,42,8.1,65,863,3.3,0.8,WI-73750,43.0788928,-89.4469634,52%,64%,45%,60%,57%,40.5
Springdale,Wisconsin,2104,60,Madison,670447,$82500,46.93%,N/A,N/A,N/A,N/A,26,87.40%,N/A,28.20%,N/A,N/A,N/A,2.60%,N/A,Dane County,70.40%,23.00%,1.5%,0.3%,96.2%,0.5%,N/A,Central Standard Time,82,27,55,37,107,43,8.1,82,863,3.3,35.07,WI-75850,42.9877912,-89.6605093,52%,64%,45%,60%,57%,40.5
Springfield (Dane Cnty),Wisconsin,2895,4321,Madison,670447,$97273,N/A,N/A,N/A,N/A,N/A,38,85.90%,N/A,30.80%,N/A,N/A,N/A,2.60%,N/A,Dane County,70.40%,23.00%,0.7%,0.2%,94.2%,3.6%,N/A,Central Standard Time,82,27,55,36,116,43,8.1,74,863,3.3,0.67,WI-75875,43.1627639,-89.5412571,52%,64%,45%,60%,57%,40.5
Stoughton,Wisconsin,13146,2184,Madison,670447,$65878,36.79%,40,$321000,1745,$184,38,78.19%,$933,45.28%,228,1449,6.11%,1.8%,69.4%,Dane County,70.40%,23.00%,0.0%,0.85%,95.31%,1.95%,3.0%,Central Standard Time,82,27,55,36,111,41,8.1,67,863,3.3,6.02,WI-77675,42.9237494,-89.2224597,52%,64%,45%,60%,57%,40.5
Sun Prairie,Wisconsin,32112,2487,Madison,670447,$66956,44.73%,N/A,$381000,2093,$182,24,56.90%,$1194,47.60%,95,1440,5.8%,2.70%,N/A,Dane County,70.40%,23.00%,5.1%,7.6%,79.3%,4.9%,7.5%,Central Standard Time,81,26,55,35,113,43,8.1,69,863,3.3,12.91,WI-78625,43.1471041,-89.1804045,52%,64%,45%,60%,57%,40.5
Sun Prairie town,Wisconsin,2426,188,Madison,670447,$77381,N/A,N/A,$381000,2093,$182,39,79.30%,N/A,40.70%,95,1440,N/A,2.60%,N/A,Dane County,70.40%,23.00%,1.2%,0.9%,84.2%,12.5%,N/A,Central Standard Time,82,27,55,35,114,43,8.1,78,863,3.3,12.91,WI-78625,43.1471041,-89.1804045,52%,64%,45%,60%,57%,40.5
Vermont,Wisconsin,866,24,Madison,670447,$81071,52.80%,N/A,N/A,N/A,N/A,40,84.80%,N/A,29.50%,N/A,N/A,N/A,2.60%,N/A,Dane County,70.40%,23.00%,0.3%,0.0%,97.0%,0.3%,N/A,Central Standard Time,83,27,56,36,107,42,8.1,82,863,3.3,36.08,WI-82525,43.0753621,-89.7791427,52%,64%,45%,60%,57%,40.5
Verona,Wisconsin,12465,1666,Madison,670447,$81474,59.54%,N/A,$479000,2218,$216,21,66.80%,$1340,43.60%,133,1398,1.6%,2.60%,N/A,Dane County,70.40%,23.00%,3.7%,3.5%,89.0%,0.7%,3.5%,Central Standard Time,82,27,55,37,108,44,8.1,75,863,3.3,7.48,WI-82625,42.9685823,-89.5732687,52%,64%,45%,60%,57%,40.5
Verona town,Wisconsin,2107,282,Madison,670447,$96750,N/A,N/A,$479000,2218,$216,38,83.60%,N/A,37.40%,133,1398,N/A,2.60%,N/A,Dane County,70.40%,23.00%,0.9%,1.4%,95.6%,1.5%,N/A,Central Standard Time,82,27,55,37,108,44,8.1,75,863,3.3,7.48,WI-82625,42.9685823,-89.5732687,52%,64%,45%,60%,57%,40.5
Vienna,Wisconsin,1749,50,Madison,670447,$92798,30.82%,N/A,N/A,N/A,N/A,36,88.90%,N/A,30.50%,N/A,N/A,N/A,2.60%,N/A,Dane County,70.40%,23.00%,0.5%,0.0%,97.9%,1.6%,N/A,Central Standard Time,82,27,55,35,114,43,8.1,75,863,3.3,34.98,WI-82750,43.2504156,-89.4231959,52%,64%,45%,60%,57%,40.5
Waunakee,Wisconsin,13903,1939,Madison,670447,$114983,57.19%,39,$442000,2483,$178,25,83.44%,$1022,38.06%,105,946,4.97%,1.62%,71.36%,Dane County,70.40%,23.00%,1.77%,1.32%,91.4%,4.1%,3.88%,Central Standard Time,82,27,55,36,116,43,8.1,72,863,3.3,7.17,WI-84350,43.1828522,-89.4446747,52%,64%,45%,60%,57%,40.5
York (Dane Cnty),Wisconsin,690,19,Madison,670447,$78250,N/A,N/A,N/A,N/A,N/A,65,77.20%,N/A,26.90%,N/A,N/A,N/A,2.60%,N/A,Dane County,70.40%,23.00%,0.4%,1.6%,95.2%,1.4%,N/A,Central Standard Time,82,27,55,35,115,41,8.1,80,863,3.3,36.32,WI-89450,43.2396769,-89.0679388,52%,64%,45%,60%,57%,40.5
