City,State,Population,People per sq mi,Metro Name,Metro population,Median household income,% with at least Bachelor's degree,Median age,Median home price,Median home sqft,Median home cost per sqft,Median home age,Homeownership Rate,Avg Apartment Monthly Rent,Single Population,Num Violent Crimes Per 100k residents,Num Property Crimes Per 100k residents,Poverty Rate,Unemployment rate,Labor Force Participation rate,County,% Democrat,% Republican,% Asian,% Black,% Non-Hispanic White,% Hispanic,Foreign Born %,Timezone,Hottest month's avg high (F),Coldest month's avg high (F),Hottest high minus coldest high,Annual rainfall (in),Annual days of precipitation,Annual snowfall (in),Average yearly windspeed (mph),Air quality Index,Elevation (ft),UV Index,Land Area (sq mi),Fips Code,Latitude,Longitude,Annual Sunshine - Percentage of Possible,Summer Sunshine - Percentage of Possible,Winter Sunshine - Percentage of Possible,Annual Relative Humidity (afternoon),Summer Relative Humidity (afternoon),Number of days with thunder per year,Annual dew point (F),Average summer dew point (F),Hottest month's avg low (F),Coldest month's avg low (F),Summer rainfall (in),Winter rainfall (in),Percent of days that include precipitation,Percent of Summer days that include precipitation,Percent of Winter days that include precipitation
Berrysburg,Pennsylvania,295,484,Harrisburg-Carlisle,581943,$54167,11.64%,50,N/A,N/A,N/A,78,77.97%,$765,38.65%,N/A,N/A,13.1%,4.08%,59.04%,Dauphin County,49.10%,46.20%,0.0%,0.0%,90.51%,7.8%,1.02%,Eastern Standard Time,N/A,N/A,N/A,N/A,123,N/A,6.5,78,351,4.1,0.61,PA-05856,40.6029352,-76.8101049,50%,62%,42%,56%,55%,30.2,41,62,N/A,N/A,N/A,N/A,31.4%,33.96%,29.67%
Bressler,Pennsylvania,1452,4538,Harrisburg-Carlisle,581943,$66579,9.39%,46,N/A,N/A,N/A,68,73.83%,$1008,48.15%,N/A,N/A,12.33%,10.74%,65.83%,Dauphin County,49.10%,46.20%,0.0%,10.88%,76.1%,13.02%,17.63%,Eastern Standard Time,N/A,N/A,N/A,N/A,122,N/A,7.2,53,351,4.1,0.32,PA-08432,40.2319281,-76.8189726,55%,61%,52%,53%,53%,30.2,41,62,N/A,N/A,N/A,N/A,35.07%,38.24%,32.78%
Colonial Park,Pennsylvania,15457,3067,Harrisburg-Carlisle,581943,$54628,26.9%,35,$260000,1557,$167,53,51.6%,$1069,50.23%,N/A,N/A,15.78%,5.47%,67.17%,Dauphin County,49.10%,46.20%,8.71%,21.06%,57.07%,8.47%,14.19%,Eastern Standard Time,N/A,N/A,N/A,N/A,123,N/A,6.5,48,351,4.1,5.04,PA-15328,40.2986954,-76.806995,55%,61%,52%,56%,55%,30.2,41,62,N/A,N/A,N/A,N/A,35.26%,39.01%,32.89%
Conewago township (Dauphin Cnty),Pennsylvania,3029,181,Harrisburg-Carlisle,581943,$90114,N/A,N/A,N/A,N/A,N/A,38,81.40%,N/A,34.70%,N/A,N/A,N/A,4.30%,N/A,Dauphin County,49.10%,46.20%,5.2%,0.8%,92.8%,0.3%,N/A,Eastern Standard Time,N/A,N/A,N/A,N/A,121,N/A,7.2,65,351,4.1,16.73,PA-15640,40.2153407,-76.6159829,55%,61%,52%,53%,53%,30.2,41,62,N/A,N/A,N/A,N/A,35.64%,37.25%,36.67%
Dauphin,Pennsylvania,1097,2551,Harrisburg-Carlisle,581943,$49327,54.37%,38,$385000,2070,$186,67,84.05%,$851,53.65%,N/A,N/A,11.52%,1.15%,58.1%,Dauphin County,49.10%,46.20%,0.46%,0.55%,96.63%,2.01%,2.01%,Eastern Standard Time,N/A,N/A,N/A,N/A,122,N/A,6.5,70,351,4.1,0.43,PA-18272,40.3683367,-76.9296237,55%,61%,52%,56%,55%,30.2,41,62,N/A,N/A,N/A,N/A,35.26%,39.01%,32.89%
Derry township (Dauphin Cnty),Pennsylvania,24950,32403,Harrisburg-Carlisle,581943,$65138,N/A,N/A,$188000,N/A,N/A,37,60.20%,N/A,46.50%,N/A,N/A,N/A,4.30%,N/A,Dauphin County,49.10%,46.20%,6.4%,4.6%,79.7%,7.3%,N/A,Eastern Standard Time,N/A,N/A,N/A,N/A,122,N/A,7.4,59,351,4.1,0.77,PA-18936,40.2708874,-76.6560862,55%,61%,52%,55%,54%,30.2,41,62,N/A,N/A,N/A,N/A,35.64%,37.25%,36.67%
East Hanover township (Dauphin Cnty),Pennsylvania,5898,147,Harrisburg-Carlisle,581943,$72979,N/A,N/A,N/A,N/A,N/A,32,86.70%,N/A,34.40%,N/A,N/A,N/A,4.30%,N/A,Dauphin County,49.10%,46.20%,1.3%,1.6%,94.9%,2.2%,N/A,Eastern Standard Time,N/A,N/A,N/A,N/A,121,N/A,6.5,66,351,4.1,40.12,PA-21208,40.3910299,-76.6845077,55%,61%,52%,56%,55%,30.2,41,62,N/A,N/A,N/A,N/A,31.4%,33.96%,29.67%
Elizabethville,Pennsylvania,1544,2807,Harrisburg-Carlisle,581943,$64750,17.48%,41,$153000,1866,$82,68,67.86%,$638,53.46%,N/A,N/A,10.53%,1.95%,68.36%,Dauphin County,49.10%,46.20%,0.0%,0.78%,86.46%,3.24%,0.91%,Eastern Standard Time,N/A,N/A,N/A,N/A,123,N/A,6.5,76,351,4.1,0.55,PA-23024,40.5472419,-76.8159733,50%,62%,42%,56%,55%,30.2,41,62,N/A,N/A,N/A,N/A,31.4%,33.96%,29.67%
Enhaut,Pennsylvania,1060,4609,Harrisburg-Carlisle,581943,$54036,12.91%,36,$161000,1917,$84,78,66.89%,$1084,57.46%,N/A,N/A,5.48%,2.6%,75.49%,Dauphin County,49.10%,46.20%,0.0%,15.0%,62.17%,12.26%,5.94%,Eastern Standard Time,N/A,N/A,N/A,N/A,122,N/A,7.2,53,351,4.1,0.23,PA-23704,40.2324252,-76.8253895,55%,61%,52%,53%,53%,30.2,41,62,N/A,N/A,N/A,N/A,35.07%,38.24%,32.78%
Gratz,Pennsylvania,763,259,Harrisburg-Carlisle,581943,$38194,10.11%,42,N/A,N/A,N/A,62,71.95%,$667,56.35%,N/A,N/A,22.41%,6.35%,61.85%,Dauphin County,49.10%,46.20%,0.0%,1.44%,79.95%,18.48%,12.06%,Eastern Standard Time,N/A,N/A,N/A,N/A,123,N/A,6.5,78,351,4.1,2.95,PA-30600,40.6073224,-76.7157193,50%,62%,42%,56%,55%,30.2,41,62,N/A,N/A,N/A,N/A,31.4%,33.96%,29.67%
Halifax,Pennsylvania,3544,10424,Harrisburg-Carlisle,581943,$53182,8.50%,N/A,$200000,1266,$158,47,76.90%,N/A,41.70%,N/A,N/A,4.9%,4.30%,N/A,Dauphin County,49.10%,46.20%,0.0%,0.0%,98.4%,1.6%,0.7%,Eastern Standard Time,N/A,N/A,N/A,N/A,122,N/A,6.5,73,351,4.1,0.34,PA-32040,40.4697628,-76.9266903,55%,61%,52%,56%,55%,30.2,41,62,N/A,N/A,N/A,N/A,31.4%,33.96%,29.67%
Halifax borough,Pennsylvania,1008,2965,Harrisburg-Carlisle,581943,$40870,N/A,N/A,$200000,1266,$158,78,40.90%,N/A,51.40%,N/A,N/A,N/A,4.30%,N/A,Dauphin County,49.10%,46.20%,0.0%,2.9%,96.8%,0.3%,N/A,Eastern Standard Time,N/A,N/A,N/A,N/A,122,N/A,6.5,73,351,4.1,0.34,PA-32040,40.4697628,-76.9266903,55%,61%,52%,56%,55%,30.2,41,62,N/A,N/A,N/A,N/A,31.4%,33.96%,29.67%
Harrisburg,Pennsylvania,49247,6065,Harrisburg-Carlisle,581943,$41831,22.58%,32,$200000,1653,$121,76,33.6%,$846,69.06%,N/A,N/A,26.46%,8.46%,67.35%,Dauphin County,49.10%,46.20%,3.29%,51.7%,24.41%,23.62%,9.01%,Eastern Standard Time,N/A,N/A,N/A,N/A,122,N/A,6.5,44,351,4.1,8.12,PA-32800,40.2752111,-76.8842483,55%,61%,52%,56%,55%,30.2,41,62,N/A,N/A,N/A,N/A,35.26%,39.01%,32.89%
Hershey,Pennsylvania,14941,1045,Harrisburg-Carlisle,581943,$61948,49.48%,47,$350000,2147,$163,52,61.02%,$1055,46.2%,N/A,N/A,8.05%,2.87%,62.55%,Dauphin County,49.10%,46.20%,5.39%,2.43%,74.45%,10.94%,12.65%,Eastern Standard Time,N/A,N/A,N/A,N/A,122,N/A,7.4,59,351,4.1,14.3,PA-34144,40.2805843,-76.6458207,55%,61%,52%,55%,54%,30.2,41,62,N/A,N/A,N/A,N/A,35.64%,37.25%,36.67%
Highspire,Pennsylvania,2512,3489,Harrisburg-Carlisle,581943,$45822,17.08%,35,$169000,1707,$99,69,55.37%,$913,57.88%,N/A,N/A,12.78%,6.33%,65.31%,Dauphin County,49.10%,46.20%,1.07%,14.73%,72.01%,13.26%,1.79%,Eastern Standard Time,N/A,N/A,N/A,N/A,122,N/A,7.2,42,351,4.1,0.72,PA-34664,40.208545,-76.7851733,55%,61%,52%,53%,53%,30.2,41,62,N/A,N/A,N/A,N/A,35.64%,37.25%,36.67%
Hummelstown,Pennsylvania,4732,3816,Harrisburg-Carlisle,581943,$58250,40.77%,36,$295000,1891,$156,57,67.75%,$908,50.0%,N/A,N/A,8.83%,2.65%,79.23%,Dauphin County,49.10%,46.20%,1.31%,0.0%,86.69%,6.91%,5.54%,Eastern Standard Time,N/A,N/A,N/A,N/A,122,N/A,7.2,54,351,4.1,1.24,PA-36232,40.2656362,-76.7128017,55%,61%,52%,53%,53%,30.2,41,62,N/A,N/A,N/A,N/A,35.64%,37.25%,36.67%
Jackson township (Dauphin Cnty),Pennsylvania,1869,47,Harrisburg-Carlisle,581943,$70742,N/A,N/A,N/A,N/A,N/A,38,84.00%,N/A,35.20%,N/A,N/A,N/A,4.30%,N/A,Dauphin County,49.10%,46.20%,0.3%,0.0%,98.8%,0.9%,N/A,Eastern Standard Time,N/A,N/A,N/A,N/A,122,N/A,6.5,73,351,4.1,39.77,PA-37368,40.5251571,-76.7753399,50%,62%,42%,56%,55%,30.2,41,62,N/A,N/A,N/A,N/A,31.4%,33.96%,29.67%
Jefferson township (Dauphin Cnty),Pennsylvania,276,452,Harrisburg-Carlisle,581943,$54107,N/A,N/A,N/A,N/A,N/A,41,59.00%,N/A,40.90%,N/A,N/A,N/A,4.30%,N/A,Dauphin County,49.10%,46.20%,0.4%,0.0%,97.5%,1.4%,N/A,Eastern Standard Time,N/A,N/A,N/A,N/A,122,N/A,6.5,73,351,4.1,0.61,PA-37864,40.5120528,-76.7028999,50%,62%,42%,56%,55%,30.2,41,62,N/A,N/A,N/A,N/A,31.4%,33.96%,29.67%
Lawnton,Pennsylvania,4871,3336,Harrisburg-Carlisle,581943,$76228,24.56%,37,$230000,1337,$172,44,82.51%,$1014,40.87%,N/A,N/A,2.96%,0.67%,66.24%,Dauphin County,49.10%,46.20%,16.67%,30.03%,44.65%,8.54%,13.47%,Eastern Standard Time,N/A,N/A,N/A,N/A,123,N/A,7.2,46,351,4.1,1.46,PA-41944,40.2652513,-76.7984298,55%,61%,52%,53%,53%,30.2,41,62,N/A,N/A,N/A,N/A,35.26%,39.01%,32.89%
Lenkerville,Pennsylvania,996,2929,Harrisburg-Carlisle,581943,$45000,9.72%,36,$125000,1250,$100,62,79.92%,$586,76.31%,N/A,N/A,67.55%,0.0%,21.13%,Dauphin County,49.10%,46.20%,2.81%,1.91%,95.28%,0.0%,1.0%,Eastern Standard Time,N/A,N/A,N/A,N/A,118,N/A,6.5,73,351,4.1,0.34,PA-42704,40.5326866,-76.9594282,50%,62%,42%,56%,55%,30.2,41,62,N/A,N/A,N/A,N/A,31.4%,33.96%,29.67%
Linglestown,Pennsylvania,5811,1517,Harrisburg-Carlisle,581943,$77500,28.46%,46,$195000,1477,$132,48,90.7%,$1300,36.39%,N/A,N/A,2.17%,5.31%,63.92%,Dauphin County,49.10%,46.20%,1.89%,13.65%,78.7%,4.65%,4.9%,Eastern Standard Time,N/A,N/A,N/A,N/A,123,N/A,6.5,54,351,4.1,3.83,PA-43672,40.3443512,-76.7948256,55%,61%,52%,56%,55%,30.2,41,62,N/A,N/A,N/A,N/A,35.26%,39.01%,32.89%
Londonderry township (Dauphin Cnty),Pennsylvania,5246,231,Harrisburg-Carlisle,581943,$55639,N/A,N/A,N/A,N/A,N/A,46,83.20%,N/A,40.30%,N/A,N/A,N/A,4.30%,N/A,Dauphin County,49.10%,46.20%,0.0%,0.0%,99.0%,1.0%,N/A,Eastern Standard Time,N/A,N/A,N/A,N/A,122,N/A,7.2,60,351,4.1,22.71,PA-44464,40.1813888,-76.6963751,55%,61%,52%,53%,53%,30.2,41,62,N/A,N/A,N/A,N/A,35.64%,37.25%,36.67%
Lower Paxton,Pennsylvania,48381,1717,Harrisburg-Carlisle,581943,$67839,37.31%,N/A,N/A,N/A,N/A,39,63.80%,N/A,47.20%,N/A,N/A,N/A,3.30%,N/A,Dauphin County,49.10%,46.20%,6.1%,11.6%,73.7%,4.8%,N/A,Eastern Standard Time,N/A,N/A,N/A,N/A,123,N/A,6.5,53,351,4.1,28.18,PA-45056,40.3182789,-76.7983274,55%,61%,52%,56%,55%,30.2,41,62,N/A,N/A,N/A,N/A,35.26%,39.01%,32.89%
Lower Swatara,Pennsylvania,8750,710,Harrisburg-Carlisle,581943,$67369,28.25%,N/A,N/A,N/A,N/A,34,83.70%,N/A,47.10%,N/A,N/A,N/A,4.30%,N/A,Dauphin County,49.10%,46.20%,2.3%,6.2%,81.2%,8.0%,N/A,Eastern Standard Time,N/A,N/A,N/A,N/A,122,N/A,7.2,51,351,4.1,12.32,PA-45120,40.2188042,-76.7601588,55%,61%,52%,53%,53%,30.2,41,62,N/A,N/A,N/A,N/A,35.64%,37.25%,36.67%
Lykens,Pennsylvania,1932,1584,Harrisburg-Carlisle,581943,$46920,13.85%,37,$110000,1692,$65,52,65.11%,$874,49.13%,N/A,N/A,30.64%,5.08%,60.54%,Dauphin County,49.10%,46.20%,11.85%,0.26%,79.45%,1.71%,0.41%,Eastern Standard Time,N/A,N/A,N/A,N/A,123,N/A,6.5,78,351,4.1,1.22,PA-45592,40.56411,-76.6983802,50%,62%,42%,56%,55%,30.2,41,62,N/A,N/A,N/A,N/A,31.4%,33.96%,29.67%
Lykens borough,Pennsylvania,1932,1584,Harrisburg-Carlisle,581943,$46920,13.85%,37,$110000,1692,$65,78,65.11%,$874,49.13%,N/A,N/A,30.64%,5.08%,60.54%,Dauphin County,49.10%,46.20%,11.85%,0.26%,79.45%,1.71%,0.41%,Eastern Standard Time,N/A,N/A,N/A,N/A,123,N/A,6.5,72,351,4.1,1.22,PA-45592,40.56411,-76.6983802,50%,62%,42%,56%,55%,30.2,41,62,N/A,N/A,N/A,N/A,31.4%,33.96%,29.67%
Middle Paxton,Pennsylvania,5060,93,Harrisburg-Carlisle,581943,$66086,35.59%,N/A,N/A,N/A,N/A,51,75.00%,N/A,42.80%,N/A,N/A,N/A,4.30%,N/A,Dauphin County,49.10%,46.20%,0.3%,2.1%,90.3%,2.7%,N/A,Eastern Standard Time,N/A,N/A,N/A,N/A,122,N/A,6.5,70,351,4.1,54.41,PA-49040,40.393451,-76.8753575,55%,61%,52%,56%,55%,30.2,41,62,N/A,N/A,N/A,N/A,35.26%,39.01%,32.89%
Middletown borough,Pennsylvania,9410,4635,Harrisburg-Carlisle,581943,$51222,18.54%,35,$270000,1492,$181,65,50.23%,$963,60.85%,N/A,N/A,16.55%,4.32%,62.21%,Dauphin County,49.10%,46.20%,4.92%,10.48%,73.55%,8.91%,6.79%,Eastern Standard Time,N/A,N/A,N/A,N/A,122,N/A,7.2,42,351,4.1,2.03,PA-49128,40.2010061,-76.7288956,55%,61%,52%,53%,53%,30.2,41,62,N/A,N/A,N/A,N/A,35.64%,37.25%,36.67%
Mifflin township (Dauphin Cnty),Pennsylvania,734,4318,Harrisburg-Carlisle,581943,$56429,N/A,N/A,N/A,N/A,N/A,50,74.70%,N/A,32.70%,N/A,N/A,N/A,4.30%,N/A,Dauphin County,49.10%,46.20%,0.0%,0.0%,98.6%,1.4%,N/A,Eastern Standard Time,N/A,N/A,N/A,N/A,121,N/A,6.5,78,351,4.1,0.17,PA-49264,40.6037447,-76.8377246,50%,62%,42%,56%,55%,30.2,41,62,N/A,N/A,N/A,N/A,31.4%,33.96%,29.67%
Millersburg,Pennsylvania,2514,3308,Harrisburg-Carlisle,581943,$58618,19.48%,41,$85000,1604,$53,67,57.79%,$667,43.58%,N/A,N/A,10.42%,0.67%,65.55%,Dauphin County,49.10%,46.20%,2.23%,0.0%,91.17%,2.47%,1.95%,Eastern Standard Time,N/A,N/A,N/A,N/A,118,N/A,6.5,58,351,4.1,0.76,PA-49680,40.5421879,-76.9553094,50%,62%,42%,56%,55%,30.2,41,62,N/A,N/A,N/A,N/A,31.4%,33.96%,29.67%
Oberlin,Pennsylvania,374,2877,Harrisburg-Carlisle,581943,$46613,11.4%,45,N/A,N/A,N/A,78,75.94%,N/A,50.74%,N/A,N/A,0.0%,0.0%,73.53%,Dauphin County,49.10%,46.20%,0.0%,0.0%,100.0%,0.0%,0.0%,Eastern Standard Time,N/A,N/A,N/A,N/A,122,N/A,7.2,53,351,4.1,0.13,PA-56264,40.2398183,-76.8157373,55%,61%,52%,53%,53%,30.2,41,62,N/A,N/A,N/A,N/A,35.07%,38.24%,32.78%
Palmdale,Pennsylvania,1359,912,Harrisburg-Carlisle,581943,$50625,42.97%,36,$255000,1992,$128,61,65.79%,$1066,47.91%,N/A,N/A,22.0%,2.38%,70.61%,Dauphin County,49.10%,46.20%,3.09%,4.19%,81.9%,10.3%,5.37%,Eastern Standard Time,N/A,N/A,N/A,N/A,122,N/A,7.4,60,351,4.1,1.49,PA-57648,40.2962437,-76.6233125,55%,61%,52%,55%,54%,30.2,41,62,N/A,N/A,N/A,N/A,36.05%,38.68%,34.78%
Paxtang,Pennsylvania,1726,4210,Harrisburg-Carlisle,581943,$72545,33.69%,35,$225000,1860,$121,78,71.15%,$944,46.01%,N/A,N/A,14.9%,5.56%,71.23%,Dauphin County,49.10%,46.20%,10.02%,20.8%,58.46%,11.12%,12.86%,Eastern Standard Time,N/A,N/A,N/A,N/A,123,N/A,7.2,52,351,4.1,0.41,PA-58504,40.2623478,-76.8342408,55%,61%,52%,53%,53%,30.2,41,62,N/A,N/A,N/A,N/A,35.26%,39.01%,32.89%
Paxtonia,Pennsylvania,5075,2197,Harrisburg-Carlisle,581943,$78556,35.44%,44,$315000,1667,$189,43,77.98%,$1099,46.2%,N/A,N/A,2.29%,2.53%,65.24%,Dauphin County,49.10%,46.20%,4.14%,12.51%,71.57%,3.98%,4.49%,Eastern Standard Time,N/A,N/A,N/A,N/A,123,N/A,6.5,51,351,4.1,2.31,PA-58528,40.3166207,-76.788479,55%,61%,52%,56%,55%,30.2,41,62,N/A,N/A,N/A,N/A,35.26%,39.01%,32.89%
Penbrook,Pennsylvania,2973,6607,Harrisburg-Carlisle,581943,$50347,34.65%,29,$207000,2724,$76,78,61.53%,$748,65.02%,N/A,N/A,9.93%,4.26%,73.75%,Dauphin County,49.10%,46.20%,0.0%,45.44%,40.13%,22.03%,5.99%,Eastern Standard Time,N/A,N/A,N/A,N/A,123,N/A,6.5,47,351,4.1,0.45,PA-58712,40.2780092,-76.8483291,55%,61%,52%,56%,55%,30.2,41,62,N/A,N/A,N/A,N/A,35.26%,39.01%,32.89%
Pillow,Pennsylvania,297,606,Harrisburg-Carlisle,581943,$52188,7.41%,40,N/A,N/A,N/A,78,91.25%,$650,40.09%,N/A,N/A,4.1%,0.0%,60.34%,Dauphin County,49.10%,46.20%,0.0%,9.09%,88.89%,2.02%,1.68%,Eastern Standard Time,N/A,N/A,N/A,N/A,123,N/A,6.5,78,351,4.1,0.49,PA-60264,40.6405431,-76.8029088,50%,62%,42%,56%,55%,30.2,41,62,N/A,N/A,N/A,N/A,37.37%,38.68%,37.67%
Progress,Pennsylvania,10997,3641,Harrisburg-Carlisle,581943,$61563,32.13%,38,$213000,1732,$123,60,58.21%,$957,54.47%,N/A,N/A,11.88%,2.45%,70.32%,Dauphin County,49.10%,46.20%,13.19%,30.41%,44.1%,8.78%,16.27%,Eastern Standard Time,N/A,N/A,N/A,N/A,123,N/A,6.5,49,351,4.1,3.02,PA-62736,40.2900619,-76.8393764,55%,61%,52%,56%,55%,30.2,41,62,N/A,N/A,N/A,N/A,35.26%,39.01%,32.89%
Reed,Pennsylvania,201,34,Harrisburg-Carlisle,581943,$62813,20.99%,N/A,N/A,N/A,N/A,50,73.80%,N/A,44.00%,N/A,N/A,N/A,4.30%,N/A,Dauphin County,49.10%,46.20%,0.0%,0.0%,88.6%,0.0%,N/A,Eastern Standard Time,N/A,N/A,N/A,N/A,122,N/A,6.5,73,351,4.1,5.91,PA-63928,40.4123276,-76.9901059,55%,61%,52%,56%,55%,30.2,41,62,N/A,N/A,N/A,N/A,35.26%,39.01%,32.89%
Royalton,Pennsylvania,1149,3591,Harrisburg-Carlisle,581943,$62917,20.53%,40,N/A,N/A,N/A,62,70.58%,$879,38.72%,N/A,N/A,7.83%,2.86%,66.74%,Dauphin County,49.10%,46.20%,0.0%,9.75%,83.55%,2.35%,3.74%,Eastern Standard Time,N/A,N/A,N/A,N/A,122,N/A,7.2,60,351,4.1,0.32,PA-66560,40.1874336,-76.7269486,55%,61%,52%,53%,53%,30.2,41,62,N/A,N/A,N/A,N/A,35.64%,37.25%,36.67%
Rush township (Dauphin Cnty),Pennsylvania,310,13,Harrisburg-Carlisle,581943,$65250,N/A,N/A,N/A,N/A,N/A,49,75.00%,N/A,36.10%,N/A,N/A,N/A,4.30%,N/A,Dauphin County,49.10%,46.20%,0.0%,0.6%,99.4%,0.0%,N/A,Eastern Standard Time,N/A,N/A,N/A,N/A,120,N/A,6.5,70,351,4.1,23.85,PA-66744,40.503907,-76.6566792,50%,62%,42%,56%,55%,30.2,41,62,N/A,N/A,N/A,N/A,31.4%,33.96%,29.67%
Rutherford,Pennsylvania,5568,4490,Harrisburg-Carlisle,581943,$68146,31.31%,38,$240000,1481,$162,41,71.63%,$997,51.1%,N/A,N/A,6.93%,3.13%,70.31%,Dauphin County,49.10%,46.20%,11.66%,23.83%,54.89%,9.5%,11.39%,Eastern Standard Time,N/A,N/A,N/A,N/A,123,N/A,7.2,48,351,4.1,1.24,PA-66864,40.2695872,-76.7678188,55%,61%,52%,53%,53%,30.2,41,62,N/A,N/A,N/A,N/A,35.64%,37.25%,36.67%
Skyline View,Pennsylvania,4365,1635,Harrisburg-Carlisle,581943,$101875,33.73%,59,$328000,2523,$130,20,99.15%,$1229,23.15%,N/A,N/A,1.42%,1.53%,59.03%,Dauphin County,49.10%,46.20%,0.55%,0.0%,95.23%,1.26%,0.73%,Eastern Standard Time,N/A,N/A,N/A,N/A,123,N/A,6.5,61,351,4.1,2.67,PA-71032,40.3376217,-76.7255579,55%,61%,52%,56%,55%,30.2,41,62,N/A,N/A,N/A,N/A,35.26%,39.01%,32.89%
South Hanover,Pennsylvania,6709,595,Harrisburg-Carlisle,581943,$80318,45.54%,N/A,N/A,N/A,N/A,34,72.60%,N/A,37.40%,N/A,N/A,N/A,4.30%,N/A,Dauphin County,49.10%,46.20%,3.8%,6.9%,82.1%,4.4%,N/A,Eastern Standard Time,N/A,N/A,N/A,N/A,122,N/A,6.5,64,351,4.1,11.28,PA-72200,40.2961981,-76.7084743,55%,61%,52%,56%,55%,30.2,41,62,N/A,N/A,N/A,N/A,35.64%,37.25%,36.67%
Steelton,Pennsylvania,5964,3139,Harrisburg-Carlisle,581943,$47556,17.18%,32,$113000,1766,$64,75,54.47%,$1023,64.7%,N/A,N/A,16.13%,6.59%,62.93%,Dauphin County,49.10%,46.20%,0.15%,45.51%,40.9%,17.0%,1.79%,Eastern Standard Time,N/A,N/A,N/A,N/A,122,N/A,7.2,45,351,4.1,1.9,PA-73888,40.2258063,-76.8254042,55%,61%,52%,53%,53%,30.2,41,62,N/A,N/A,N/A,N/A,35.07%,38.24%,32.78%
Susquehanna township (Dauphin Cnty),Pennsylvania,24707,1852,Harrisburg-Carlisle,581943,$63357,N/A,N/A,N/A,N/A,N/A,41,58.80%,N/A,51.70%,N/A,N/A,N/A,4.30%,N/A,Dauphin County,49.10%,46.20%,4.0%,23.4%,63.0%,6.2%,N/A,Eastern Standard Time,N/A,N/A,N/A,N/A,123,N/A,6.5,54,351,4.1,13.34,PA-75528,40.3110606,-76.8698833,55%,61%,52%,56%,55%,30.2,41,62,N/A,N/A,N/A,N/A,35.26%,39.01%,32.89%
Swatara township (Dauphin Cnty),Pennsylvania,24593,1885,Harrisburg-Carlisle,581943,$57445,N/A,N/A,N/A,N/A,N/A,48,59.50%,N/A,52.40%,N/A,N/A,N/A,4.30%,N/A,Dauphin County,49.10%,46.20%,4.6%,22.9%,56.0%,11.7%,N/A,Eastern Standard Time,N/A,N/A,N/A,N/A,123,N/A,7.2,51,351,4.1,13.05,PA-75672,40.2462714,-76.8029927,55%,61%,52%,53%,53%,30.2,41,62,N/A,N/A,N/A,N/A,35.07%,38.24%,32.78%
Union Deposit,Pennsylvania,429,1532,Harrisburg-Carlisle,581943,$90417,19.32%,38,$240000,1148,$209,38,33.1%,$1317,25.16%,N/A,N/A,0.0%,0.0%,87.26%,Dauphin County,49.10%,46.20%,0.0%,0.0%,100.0%,0.0%,0.0%,Eastern Standard Time,N/A,N/A,N/A,N/A,122,N/A,7.4,64,351,4.1,0.28,PA-78472,40.2909667,-76.6810807,55%,61%,52%,55%,54%,30.2,41,62,N/A,N/A,N/A,N/A,35.64%,37.25%,36.67%
Upper Paxton,Pennsylvania,4205,162,Harrisburg-Carlisle,581943,$58619,18.52%,N/A,N/A,N/A,N/A,43,77.80%,N/A,39.00%,N/A,N/A,N/A,4.30%,N/A,Dauphin County,49.10%,46.20%,0.0%,1.0%,98.4%,0.6%,N/A,Eastern Standard Time,N/A,N/A,N/A,N/A,119,N/A,6.5,73,351,4.1,25.96,PA-79216,40.566264,-76.9278088,50%,62%,42%,56%,55%,30.2,41,62,N/A,N/A,N/A,N/A,31.4%,33.96%,29.67%
Washington township (Dauphin Cnty),Pennsylvania,2092,716,Harrisburg-Carlisle,581943,$63667,N/A,N/A,$190000,1242,$153,44,80.10%,N/A,37.90%,N/A,N/A,N/A,4.30%,N/A,Dauphin County,49.10%,46.20%,0.0%,0.2%,99.0%,0.7%,N/A,Eastern Standard Time,N/A,N/A,N/A,N/A,122,N/A,6.5,76,351,4.1,2.92,PA-81216,40.5608468,-76.8106992,50%,62%,42%,56%,55%,30.2,41,62,N/A,N/A,N/A,N/A,31.4%,33.96%,29.67%
Wayne township (Dauphin Cnty),Pennsylvania,1305,616,Harrisburg-Carlisle,581943,$66667,N/A,N/A,$1650000,3700,$446,30,91.50%,N/A,32.90%,N/A,N/A,N/A,4.30%,N/A,Dauphin County,49.10%,46.20%,0.8%,0.0%,97.5%,0.4%,N/A,Eastern Standard Time,N/A,N/A,N/A,N/A,122,N/A,6.5,73,351,4.1,2.12,PA-81744,40.4604084,-76.8353344,55%,61%,52%,56%,55%,30.2,41,62,N/A,N/A,N/A,N/A,31.4%,33.96%,29.67%
West Hanover,Pennsylvania,9953,429,Harrisburg-Carlisle,581943,$74250,39.32%,N/A,N/A,N/A,N/A,35,84.60%,N/A,34.60%,N/A,N/A,N/A,4.30%,N/A,Dauphin County,49.10%,46.20%,0.7%,3.6%,93.7%,1.3%,N/A,Eastern Standard Time,N/A,N/A,N/A,N/A,123,N/A,6.5,61,351,4.1,23.2,PA-83128,40.3635089,-76.7467726,55%,61%,52%,56%,55%,30.2,41,62,N/A,N/A,N/A,N/A,31.4%,33.96%,29.67%
Wiconisco,Pennsylvania,1101,113,Harrisburg-Carlisle,581943,$42969,10.81%,N/A,N/A,N/A,N/A,78,65.70%,N/A,36.90%,N/A,N/A,N/A,4.30%,N/A,Dauphin County,49.10%,46.20%,0.4%,0.0%,95.2%,3.3%,N/A,Eastern Standard Time,N/A,N/A,N/A,N/A,122,N/A,6.5,72,351,4.1,9.74,PA-84976,40.578614,-76.6997321,50%,62%,42%,56%,55%,30.2,41,62,N/A,N/A,N/A,N/A,31.4%,33.96%,29.67%
Wiconsico,Pennsylvania,598,549,Harrisburg-Carlisle,581943,$46250,9.63%,51,$148000,1510,$98,78,82.11%,$788,40.12%,N/A,N/A,20.74%,5.44%,60.45%,Dauphin County,49.10%,46.20%,0.0%,0.0%,99.83%,0.0%,0.0%,Eastern Standard Time,N/A,N/A,N/A,N/A,122,N/A,6.5,72,351,4.1,1.09,PA-84968,40.5742027,-76.6772744,50%,62%,42%,56%,55%,30.2,41,62,N/A,N/A,N/A,N/A,31.4%,33.96%,29.67%
Williams township (Dauphin Cnty),Pennsylvania,1020,115,Harrisburg-Carlisle,581943,$42569,N/A,N/A,N/A,N/A,N/A,58,64.40%,N/A,43.50%,N/A,N/A,N/A,4.30%,N/A,Dauphin County,49.10%,46.20%,0.0%,3.3%,90.9%,5.1%,N/A,Eastern Standard Time,N/A,N/A,N/A,N/A,121,N/A,6.5,78,351,4.1,8.87,PA-85232,40.5907624,-76.6301511,50%,62%,42%,56%,55%,30.2,41,62,N/A,N/A,N/A,N/A,31.4%,33.96%,29.67%
Williamstown,Pennsylvania,1172,4508,Harrisburg-Carlisle,581943,$49444,11.95%,38,$150000,1282,$117,78,58.02%,$689,56.22%,N/A,N/A,19.61%,7.06%,57.23%,Dauphin County,49.10%,46.20%,0.0%,1.79%,90.7%,5.38%,0.43%,Eastern Standard Time,N/A,N/A,N/A,N/A,121,N/A,6.5,78,351,4.1,0.26,PA-85320,40.5809216,-76.6169558,50%,62%,42%,56%,55%,30.2,41,62,N/A,N/A,N/A,N/A,31.4%,33.96%,29.67%
