City,State,Population,People per sq mi,Metro Name,Metro population,Median household income,% with at least Bachelor's degree,Median age,Median home price,Median home sqft,Median home cost per sqft,Median home age,Homeownership Rate,Avg Apartment Monthly Rent,Single Population,Num Violent Crimes Per 100k residents,Num Property Crimes Per 100k residents,Poverty Rate,Unemployment rate,Labor Force Participation rate,County,% Democrat,% Republican,% Asian,% Black,% Non-Hispanic White,% Hispanic,Foreign Born %,Timezone,Hottest month's avg high (F),Coldest month's avg high (F),Hottest high minus coldest high,Annual rainfall (in),Annual days of precipitation,Annual snowfall (in),Average yearly windspeed (mph),Air quality Index,Elevation (ft),UV Index,Land Area (sq mi),Fips Code,Latitude,Longitude,Annual Sunshine - Percentage of Possible,Summer Sunshine - Percentage of Possible,Winter Sunshine - Percentage of Possible,Annual Relative Humidity (afternoon),Summer Relative Humidity (afternoon)
Adamstown,Maryland,2130,2009,Washington-Arlington-Alexandria,6324629,$167857,60.17%,41,$654000,3554,$184,17,97.0%,N/A,37.24%,N/A,N/A,1.08%,5.69%,80.87%,Frederick County,45.00%,47.40%,3.62%,8.73%,83.0%,2.68%,3.62%,Eastern Standard Time,88,41,47,42,108,21,6,66,26,4.2,1.06,MD-00350,39.3070006,-77.4692952,55%,61%,52%,53%,53%
Ballenger Creek,Maryland,21484,1989,Washington-Arlington-Alexandria,6324629,$94385,41.37%,35,$377000,1894,$199,26,66.38%,$1645,51.37%,N/A,N/A,10.26%,4.34%,73.57%,Frederick County,45.00%,47.40%,7.0%,19.01%,56.5%,14.62%,15.7%,Eastern Standard Time,88,41,47,42,107,23,N/A,57,26,4.2,10.8,MD-03800,39.380713,-77.4206053,55%,61%,52%,53%,53%
Bartonsville,Maryland,1786,835,Washington-Arlington-Alexandria,6324629,$143889,48.23%,38,$625000,2626,$238,20,94.57%,$1940,26.02%,N/A,N/A,8.47%,3.74%,72.31%,Frederick County,45.00%,47.40%,5.32%,3.92%,82.7%,4.31%,7.22%,Eastern Standard Time,88,41,47,42,113,24,N/A,64,26,4.2,2.14,MD-04650,39.3901319,-77.351344,55%,61%,52%,53%,53%
Braddock Heights,Maryland,3093,579,Washington-Arlington-Alexandria,6324629,$103438,45.29%,43,$501000,2169,$231,49,88.12%,$984,28.82%,N/A,N/A,1.58%,2.5%,61.84%,Frederick County,45.00%,47.40%,3.72%,0.1%,89.27%,7.08%,8.83%,Eastern Standard Time,88,41,47,42,107,23,6,66,26,4.2,5.34,MD-09100,39.4118189,-77.4990566,55%,61%,52%,53%,53%
Brunswick,Maryland,6364,1940,Washington-Arlington-Alexandria,6324629,$84133,32.83%,36,$590000,3533,$167,39,79.84%,$887,48.45%,N/A,N/A,10.69%,8.07%,72.29%,Frederick County,45.00%,47.40%,1.63%,10.54%,76.67%,5.03%,5.36%,Eastern Standard Time,87,41,46,42,115,18,6,64,26,4.2,3.28,MD-10900,39.3181223,-77.6252167,55%,61%,52%,53%,53%
Buckeystown,Maryland,1289,1416,Washington-Arlington-Alexandria,6324629,$87974,51.17%,66,N/A,N/A,N/A,25,56.29%,$2242,46.5%,N/A,N/A,2.99%,9.11%,46.47%,Frederick County,45.00%,47.40%,4.73%,2.79%,75.95%,11.87%,4.42%,Eastern Standard Time,88,41,47,42,108,21,6,66,26,4.2,0.91,MD-11050,39.3263345,-77.4278409,55%,61%,52%,53%,53%
Burkittsville,Maryland,167,371,Washington-Arlington-Alexandria,6324629,$71071,46.15%,53,N/A,N/A,N/A,78,79.04%,$980,55.33%,N/A,N/A,4.79%,11.21%,72.3%,Frederick County,45.00%,47.40%,0.0%,0.0%,94.01%,2.4%,4.79%,Eastern Standard Time,87,41,46,41,115,20,6,70,26,4.2,0.45,MD-11400,39.3922662,-77.6275264,55%,61%,52%,53%,53%
Emmitsburg,Maryland,3156,2104,Washington-Arlington-Alexandria,6324629,$72887,27.16%,43,$400000,1869,$214,34,76.11%,$829,50.87%,N/A,N/A,12.42%,4.79%,64.2%,Frederick County,45.00%,47.40%,0.0%,7.76%,86.91%,5.16%,3.49%,Eastern Standard Time,86,39,47,43,108,23,7,71,26,4.2,1.5,MD-26200,39.7051358,-77.3217482,55%,61%,52%,53%,53%
Frederick,Maryland,71843,3000,Washington-Arlington-Alexandria,6324629,$78400,40.59%,36,$427000,1968,$217,32,61.62%,$1378,52.15%,N/A,N/A,10.44%,4.71%,70.75%,Frederick County,45.00%,47.40%,5.56%,18.55%,55.1%,16.62%,19.22%,Eastern Standard Time,88,41,47,43,107,23,6,50,26,4.2,23.95,MD-30325,39.433662,-77.4140106,55%,61%,52%,53%,53%
Jefferson,Maryland,2577,924,Washington-Arlington-Alexandria,6324629,$116042,40.67%,42,$510000,4180,$122,28,86.46%,$1184,31.73%,N/A,N/A,11.82%,3.55%,67.27%,Frederick County,45.00%,47.40%,3.61%,2.48%,84.09%,7.1%,6.21%,Eastern Standard Time,88,41,47,42,111,19,6,70,26,4.2,2.79,MD-42350,39.3653455,-77.5406711,55%,61%,52%,53%,53%
Libertytown,Maryland,831,345,Washington-Arlington-Alexandria,6324629,$86719,27.19%,33,N/A,N/A,N/A,45,94.58%,$813,55.23%,N/A,N/A,4.09%,6.98%,64.99%,Frederick County,45.00%,47.40%,0.0%,0.0%,98.44%,1.56%,4.45%,Eastern Standard Time,87,41,46,42,107,23,7,71,26,4.2,2.41,MD-46800,39.4858599,-77.2481627,55%,61%,52%,53%,53%
Linganore,Maryland,9988,1206,Washington-Arlington-Alexandria,6324629,$146500,55.98%,39,$545000,2300,$237,24,92.51%,$2091,30.04%,N/A,N/A,2.22%,3.13%,74.57%,Frederick County,45.00%,47.40%,2.5%,5.45%,84.99%,3.29%,3.77%,Eastern Standard Time,87,41,46,42,113,24,N/A,64,26,4.2,8.28,MD-47040,39.4126868,-77.3013143,55%,61%,52%,53%,53%
Middletown,Maryland,4694,2214,Washington-Arlington-Alexandria,6324629,$142903,56.33%,39,$470000,2500,$188,26,85.62%,$1398,39.74%,N/A,N/A,3.93%,3.29%,70.5%,Frederick County,45.00%,47.40%,9.74%,1.62%,80.7%,1.19%,8.48%,Eastern Standard Time,88,42,46,42,111,20,6,66,26,4.2,2.12,MD-52425,39.4415295,-77.5347492,55%,61%,52%,53%,53%
Monrovia,Maryland,1556,692,Washington-Arlington-Alexandria,6324629,$151786,58.0%,41,$832000,3731,$223,44,95.5%,N/A,21.9%,N/A,N/A,0.0%,0.0%,82.72%,Frederick County,45.00%,47.40%,23.91%,22.3%,49.1%,1.29%,27.12%,Eastern Standard Time,85,40,45,44,115,25,6,64,26,4.2,2.25,MD-53100,39.3570577,-77.2746823,55%,61%,52%,53%,53%
Myersville,Maryland,2225,2060,Washington-Arlington-Alexandria,6324629,$125625,54.78%,33,$483000,2669,$181,26,94.52%,$1203,28.89%,N/A,N/A,1.13%,1.6%,72.69%,Frederick County,45.00%,47.40%,2.56%,1.44%,87.24%,5.08%,6.07%,Eastern Standard Time,86,39,47,42,118,20,6,68,26,4.2,1.08,MD-54875,39.506205,-77.5690273,55%,61%,52%,53%,53%
New Market,Maryland,1527,943,Washington-Arlington-Alexandria,6324629,$153472,69.73%,33,$520000,2353,$221,14,95.15%,$1690,29.77%,N/A,N/A,0.26%,1.98%,80.12%,Frederick County,45.00%,47.40%,1.31%,2.1%,81.6%,12.57%,7.14%,Eastern Standard Time,87,41,46,42,113,24,6,64,26,4.2,1.62,MD-55650,39.3826433,-77.27595,55%,61%,52%,53%,53%
Point of Rocks,Maryland,1751,1592,Washington-Arlington-Alexandria,6324629,$108162,N/A,N/A,$390000,2191,$178,24,93.90%,N/A,35.70%,N/A,N/A,2.3%,3.60%,N/A,Frederick County,45.00%,47.40%,4.2%,11.4%,75.8%,3.2%,7.5%,Eastern Standard Time,88,41,47,43,112,20,6,65,26,4.2,1.1,N/A,N/A,N/A,N/A,N/A,N/A,N/A,N/A
Rosemont,Maryland,325,580,Washington-Arlington-Alexandria,6324629,$99514,40.16%,53,$338000,1280,$264,68,95.08%,$1650,39.29%,N/A,N/A,1.86%,1.23%,58.7%,Frederick County,45.00%,47.40%,0.0%,1.54%,97.23%,0.92%,2.15%,Eastern Standard Time,87,41,46,41,115,20,N/A,67,26,4.2,0.56,MD-68600,39.3316862,-77.6214157,55%,61%,52%,53%,53%
Sabillasville,Maryland,390,234,Washington-Arlington-Alexandria,6324629,$57917,6.42%,47,$107000,907,$118,68,89.61%,N/A,49.3%,N/A,N/A,6.23%,4.97%,56.21%,Frederick County,45.00%,47.40%,0.0%,9.23%,81.54%,8.21%,0.0%,Eastern Standard Time,83,38,45,46,125,31,7,79,26,4.2,1.67,MD-69200,39.6993661,-77.4572778,55%,61%,52%,53%,53%
Spring Ridge,Maryland,5612,2086,Washington-Arlington-Alexandria,6324629,$106078,59.05%,36,$370000,1888,$196,24,84.21%,$1618,46.67%,N/A,N/A,2.71%,4.13%,77.5%,Frederick County,45.00%,47.40%,2.23%,5.52%,84.94%,5.84%,3.28%,Eastern Standard Time,88,41,47,43,107,23,N/A,58,26,4.2,2.69,MD-74560,39.4042776,-77.3405628,55%,61%,52%,53%,53%
Thurmont,Maryland,6783,2188,Washington-Arlington-Alexandria,6324629,$83654,24.69%,42,$302000,1488,$203,35,81.26%,$1024,41.69%,N/A,N/A,4.87%,4.36%,69.27%,Frederick County,45.00%,47.40%,0.0%,1.08%,90.84%,5.94%,1.11%,Eastern Standard Time,87,41,46,42,107,23,7,71,26,4.2,3.1,MD-77825,39.6209593,-77.407599,55%,61%,52%,53%,53%
Urbana,Maryland,12362,1591,Washington-Arlington-Alexandria,6324629,$152314,66.63%,36,$580000,2387,$243,13,83.76%,$2223,35.34%,N/A,N/A,2.07%,2.3%,79.0%,Frederick County,45.00%,47.40%,18.86%,11.51%,49.68%,15.02%,23.13%,Eastern Standard Time,88,41,47,42,113,24,6,61,26,4.2,7.77,MD-79900,39.3273441,-77.3422915,55%,61%,52%,53%,53%
Walkersville,Maryland,6306,1325,Washington-Arlington-Alexandria,6324629,$107781,37.87%,43,$370000,1787,$207,35,87.15%,$1466,39.68%,N/A,N/A,2.75%,2.11%,68.23%,Frederick County,45.00%,47.40%,4.12%,5.58%,79.8%,7.77%,6.9%,Eastern Standard Time,88,41,47,42,107,22,6,65,26,4.2,4.76,MD-81275,39.4832123,-77.355944,55%,61%,52%,53%,53%
Woodsboro,Maryland,1181,1663,Washington-Arlington-Alexandria,6324629,$102500,29.34%,46,$245000,881,$278,31,89.84%,$778,38.76%,N/A,N/A,9.44%,0.41%,72.55%,Frederick County,45.00%,47.40%,1.61%,29.47%,63.93%,3.98%,19.48%,Eastern Standard Time,88,41,47,42,107,23,7,74,26,4.2,0.71,MD-86750,39.5328771,-77.309559,55%,61%,52%,53%,53%
