City,State,Population,People per sq mi,Metro Name,Metro population,Median household income,% with at least Bachelor's degree,Median age,Median home price,Median home sqft,Median home cost per sqft,Median home age,Homeownership Rate,Avg Apartment Monthly Rent,Single Population,Num Violent Crimes Per 100k residents,Num Property Crimes Per 100k residents,Poverty Rate,Unemployment rate,Labor Force Participation rate,County,% Democrat,% Republican,% Asian,% Black,% Non-Hispanic White,% Hispanic,Foreign Born %,Timezone,Hottest month's avg high (F),Coldest month's avg high (F),Hottest high minus coldest high,Hottest month's avg low (F),Coldest month's avg low (F),Annual Relative Humidity (afternoon),Summer Relative Humidity (afternoon),Annual dew point (F),Average summer dew point (F),Hottest month's avg heat index high (F),Annual Sunshine - Percentage of Possible,Summer Sunshine - Percentage of Possible,Winter Sunshine - Percentage of Possible,Annual rainfall (in),Summer rainfall (in),Winter rainfall (in),Percent of days that include precipitation,Percent of Summer days that include precipitation,Percent of Winter days that include precipitation,Annual snowfall (in),Days of snow per year,Average yearly windspeed (mph),Number of days with thunder per year,Air quality Index,Elevation (ft),UV Index,Land Area (sq mi),Fips Code,Latitude,Longitude
Beckett,New Jersey,5072,2898,Philadelphia-Camden-Wilmington,6215222,$119063,46.36%,43,$354000,1639,$216,37,96.96%,$1839,42.24%,N/A,N/A,6.66%,4.9%,72.77%,Gloucester County,47.30%,47.80%,2.62%,9.52%,83.32%,3.33%,4.4%,Eastern Standard Time,85,38,47,68,25,55%,55%,43,63,87,55%,62%,50%,50.62,16.02,11.14,28.88%,29.01%,30.44%,25.2,10,7.4,29.3,68,42,3.8,1.75,NJ-04400,39.7559068,-75.3569419
Clayton,New Jersey,8867,1252,Philadelphia-Camden-Wilmington,6215222,$89375,21.55%,40,$234000,1176,$199,46,85.12%,$1204,52.07%,149,976,7.02%,6.59%,60.07%,Gloucester County,47.30%,47.80%,0.24%,20.31%,67.17%,8.95%,3.46%,Eastern Standard Time,87,42,45,69,26,54%,53%,42,62,90,55%,62%,50%,54.25,18.13,12.32,32.47%,31.32%,34.11%,25.2,10,7.4,28.3,70,84,3.8,7.08,NJ-13360,39.662711,-75.0782539
Deptford,New Jersey,30556,1760,Philadelphia-Camden-Wilmington,6215222,N/A,N/A,N/A,N/A,N/A,N/A,N/A,N/A,N/A,N/A,132,3879,N/A,N/A,N/A,Gloucester County,47.30%,47.80%,N/A,N/A,N/A,N/A,N/A,Eastern Standard Time,89,42,47,71,27,54%,53%,42,62,94,55%,62%,50%,50.79,15.97,11.22,36.27%,35.49%,38.0%,25.2,10,7.4,28.3,53,81,3.8,17.36,NJ-17710,39.815746,-75.1181152
East Greenwich,New Jersey,10320,715,Philadelphia-Camden-Wilmington,6215222,N/A,N/A,N/A,N/A,N/A,N/A,N/A,N/A,N/A,N/A,0,966,N/A,N/A,N/A,Gloucester County,47.30%,47.80%,N/A,N/A,N/A,N/A,N/A,Eastern Standard Time,89,42,47,71,27,55%,55%,43,63,94,55%,62%,50%,47.62,14.67,10.58,33.42%,33.3%,36.56%,25.2,10,7.4,29.3,61,9,3.8,14.43,NJ-19180,39.7903027,-75.2396296
Elk,New Jersey,4123,212,Philadelphia-Camden-Wilmington,6215222,N/A,N/A,N/A,N/A,N/A,N/A,N/A,N/A,N/A,N/A,0,938,N/A,N/A,N/A,Gloucester County,47.30%,47.80%,N/A,N/A,N/A,N/A,N/A,Eastern Standard Time,87,42,45,69,26,55%,55%,43,63,91,55%,62%,50%,50.15,15.36,11.27,32.47%,31.32%,34.11%,25.2,10,7.4,29.3,71,108,3.8,19.45,NJ-21060,39.6655798,-75.1531477
Franklin township (Gloucester Cnty),New Jersey,16579,3803,Philadelphia-Camden-Wilmington,6215222,N/A,N/A,N/A,$280000,1582,$177,N/A,N/A,N/A,N/A,212,1021,N/A,N/A,N/A,Gloucester County,47.30%,47.80%,N/A,N/A,N/A,N/A,N/A,Eastern Standard Time,88,43,45,68,24,55%,55%,43,63,93,55%,62%,50%,54.25,18.13,12.32,32.47%,31.32%,34.11%,28.1,6,7.4,29.3,72,84,3.8,4.36,NJ-24840,39.5953703,-75.0189845
Gibbstown,New Jersey,3494,2130,Philadelphia-Camden-Wilmington,6215222,$90371,29.89%,45,$285000,2007,$142,57,85.16%,$1538,50.53%,N/A,N/A,7.39%,2.63%,61.96%,Gloucester County,47.30%,47.80%,3.55%,4.35%,85.09%,5.18%,5.27%,Eastern Standard Time,89,42,47,71,27,55%,55%,43,63,94,55%,62%,50%,47.62,14.67,10.58,33.42%,33.3%,36.56%,25.2,10,7.4,29.3,56,9,3.8,1.64,NJ-26100,39.8233171,-75.2782072
Glassboro,New Jersey,23375,2508,Philadelphia-Camden-Wilmington,6215222,$80388,41.03%,29,$330000,1701,$194,34,63.41%,$1561,65.26%,154,1508,16.36%,8.58%,57.84%,Gloucester County,47.30%,47.80%,6.76%,18.18%,61.87%,10.38%,8.93%,Eastern Standard Time,89,42,47,71,27,54%,53%,42,62,94,55%,62%,50%,50.15,15.36,11.27,32.47%,31.32%,34.11%,25.2,10,7.4,28.3,60,108,3.8,9.32,NJ-26340,39.7013541,-75.1113351
Greenwich township (Gloucester Cnty),New Jersey,4861,5342,Philadelphia-Camden-Wilmington,6215222,N/A,N/A,N/A,$520000,2723,$191,N/A,N/A,N/A,N/A,N/A,N/A,N/A,N/A,N/A,Gloucester County,47.30%,47.80%,N/A,N/A,N/A,N/A,N/A,Eastern Standard Time,89,42,47,71,27,55%,55%,43,63,94,55%,62%,50%,47.62,14.67,10.58,33.42%,33.3%,36.56%,25.2,10,7.4,29.3,56,9,3.8,0.91,NJ-28185,39.829979,-75.2896101
Harrison township,New Jersey,12884,10648,Philadelphia-Camden-Wilmington,6215222,N/A,N/A,N/A,$327000,1619,$202,N/A,N/A,N/A,N/A,7,434,N/A,N/A,N/A,Gloucester County,47.30%,47.80%,N/A,N/A,N/A,N/A,N/A,Eastern Standard Time,89,42,47,71,27,55%,55%,43,63,94,55%,62%,50%,50.15,15.36,11.27,33.42%,33.3%,36.56%,25.2,10,7.4,29.3,66,108,3.8,1.21,NJ-30180,39.7266785,-75.2074082
Logan,New Jersey,5976,272,Philadelphia-Camden-Wilmington,6215222,N/A,N/A,N/A,N/A,N/A,N/A,N/A,N/A,N/A,N/A,85,1793,N/A,N/A,N/A,Gloucester County,47.30%,47.80%,N/A,N/A,N/A,N/A,N/A,Eastern Standard Time,89,42,47,71,27,55%,55%,43,63,94,55%,62%,50%,47.62,14.67,10.58,33.42%,33.3%,36.56%,25.2,10,7.4,29.3,68,9,3.8,21.97,NJ-41160,39.7923283,-75.354992
Mantua,New Jersey,15110,953,Philadelphia-Camden-Wilmington,6215222,N/A,N/A,N/A,N/A,N/A,N/A,N/A,N/A,N/A,N/A,20,1434,N/A,N/A,N/A,Gloucester County,47.30%,47.80%,N/A,N/A,N/A,N/A,N/A,Eastern Standard Time,89,42,47,71,27,54%,53%,42,62,94,55%,62%,50%,50.15,15.36,11.27,33.42%,33.3%,36.56%,25.2,10,7.4,28.3,60,108,3.8,15.86,NJ-43440,39.7618324,-75.1685621
Monroe township (Gloucester Cnty),New Jersey,36779,793,Philadelphia-Camden-Wilmington,6215222,N/A,N/A,N/A,N/A,N/A,N/A,N/A,N/A,N/A,N/A,N/A,N/A,N/A,N/A,N/A,Gloucester County,47.30%,47.80%,N/A,N/A,N/A,N/A,N/A,Eastern Standard Time,88,43,45,68,24,54%,53%,42,62,92,55%,62%,50%,49.69,15.14,11.23,32.47%,31.32%,34.11%,28.1,6,7.4,28.3,66,129,3.8,46.38,NJ-47250,39.6599329,-74.9720397
National Park,New Jersey,3043,3013,Philadelphia-Camden-Wilmington,6215222,$81507,17.11%,41,$275000,1590,$173,66,85.83%,$1380,49.9%,102,783,7.73%,6.57%,64.91%,Gloucester County,47.30%,47.80%,1.51%,3.19%,87.48%,5.88%,2.4%,Eastern Standard Time,89,42,47,71,27,54%,53%,42,62,94,55%,62%,50%,47.62,14.67,10.58,33.42%,33.3%,36.56%,25.2,10,7.4,28.3,56,9,3.8,1.01,NJ-49680,39.8676215,-75.1851968
Newfield,New Jersey,1811,1041,Philadelphia-Camden-Wilmington,6215222,$105000,36.4%,43,$194000,1198,$162,46,87.91%,$1438,47.83%,130,520,3.93%,0.98%,67.8%,Gloucester County,47.30%,47.80%,0.0%,4.58%,80.23%,16.29%,1.49%,Eastern Standard Time,87,42,45,69,26,55%,55%,43,63,91,55%,62%,50%,54.25,18.13,12.32,32.47%,31.32%,34.11%,28.1,6,7.4,29.3,72,84,3.8,1.74,NJ-51390,39.5484155,-75.0166564
Oak Valley,New Jersey,4374,6249,Philadelphia-Camden-Wilmington,6215222,$90563,18.43%,33,$331000,1706,$194,59,81.78%,N/A,49.18%,N/A,N/A,16.14%,3.54%,66.19%,Gloucester County,47.30%,47.80%,1.14%,16.8%,75.88%,5.28%,2.93%,Eastern Standard Time,89,42,47,71,27,54%,53%,42,62,94,55%,62%,50%,50.79,15.97,11.22,33.42%,33.3%,36.56%,25.2,10,7.4,28.3,52,81,3.8,0.7,NJ-54060,39.8054554,-75.1589188
Paulsboro,New Jersey,6213,3236,Philadelphia-Camden-Wilmington,6215222,$68750,21.28%,37,$200000,1299,$154,67,73.46%,$970,55.96%,240,1956,12.67%,12.71%,62.43%,Gloucester County,47.30%,47.80%,0.58%,38.55%,38.85%,18.85%,4.01%,Eastern Standard Time,89,42,47,71,27,54%,53%,42,62,94,55%,62%,50%,47.62,14.67,10.58,33.42%,33.3%,36.56%,25.2,10,7.4,28.3,43,9,3.8,1.92,NJ-57150,39.8399708,-75.2396431
Pitman,New Jersey,8834,3979,Philadelphia-Camden-Wilmington,6215222,$96199,43.28%,41,$281000,1448,$194,74,76.34%,$1474,48.16%,45,631,4.57%,6.1%,69.16%,Gloucester County,47.30%,47.80%,1.61%,2.3%,92.27%,2.84%,4.64%,Eastern Standard Time,89,42,47,71,27,54%,53%,42,62,94,55%,62%,50%,50.15,15.36,11.27,36.27%,35.49%,38.0%,25.2,10,7.4,28.3,55,108,3.8,2.22,NJ-59070,39.7334907,-75.1305516
Richwood,New Jersey,3453,390,Philadelphia-Camden-Wilmington,6215222,$206685,67.49%,39,$510000,3036,$168,20,96.02%,N/A,41.51%,N/A,N/A,4.2%,4.47%,64.31%,Gloucester County,47.30%,47.80%,0.0%,0.0%,93.14%,4.03%,0.0%,Eastern Standard Time,89,42,47,71,27,55%,55%,43,63,94,55%,62%,50%,50.15,15.36,11.27,32.47%,31.32%,34.11%,25.2,10,7.4,29.3,67,108,3.8,8.86,NJ-62820,39.7139105,-75.1731584
South Harrison,New Jersey,3190,203,Philadelphia-Camden-Wilmington,6215222,N/A,N/A,N/A,N/A,N/A,N/A,N/A,N/A,N/A,N/A,32,416,N/A,N/A,N/A,Gloucester County,47.30%,47.80%,N/A,N/A,N/A,N/A,N/A,Eastern Standard Time,89,42,47,71,27,55%,55%,43,63,94,55%,62%,50%,50.62,16.02,11.14,33.42%,33.3%,36.56%,25.2,10,7.4,29.3,69,42,3.8,15.71,NJ-69030,39.6968929,-75.256598
Swedesboro,New Jersey,2720,3726,Philadelphia-Camden-Wilmington,6215222,$91000,27.01%,34,$320000,1905,$168,56,69.78%,$1461,53.0%,0,1403,6.76%,4.34%,81.17%,Gloucester County,47.30%,47.80%,0.88%,16.21%,54.74%,27.17%,21.54%,Eastern Standard Time,89,42,47,71,27,55%,55%,43,63,94,55%,62%,50%,50.62,16.02,11.14,33.42%,33.3%,36.56%,25.2,10,7.4,29.3,62,42,3.8,0.73,NJ-71850,39.7458703,-75.3117448
Turnersville,New Jersey,3071,2047,Philadelphia-Camden-Wilmington,6215222,$156176,51.09%,42,$330000,1953,$169,40,92.02%,N/A,42.59%,N/A,N/A,1.11%,3.95%,72.81%,Gloucester County,47.30%,47.80%,3.87%,1.53%,86.55%,3.55%,5.76%,Eastern Standard Time,89,42,47,71,27,54%,53%,42,62,94,55%,62%,50%,50.79,15.97,11.22,36.27%,35.49%,38.0%,25.2,10,7.4,28.3,60,81,3.8,1.5,NJ-74270,39.7666176,-75.0612451
Victory Lakes,New Jersey,1403,580,Philadelphia-Camden-Wilmington,6215222,$97273,27.85%,46,$250000,2604,$96,48,94.67%,N/A,63.25%,N/A,N/A,11.91%,8.3%,67.62%,Gloucester County,47.30%,47.80%,0.07%,5.2%,91.16%,3.56%,0.0%,Eastern Standard Time,88,43,45,68,24,54%,53%,42,62,92,55%,62%,50%,49.69,15.14,11.23,32.47%,31.32%,34.11%,28.1,6,7.4,28.3,71,129,3.8,2.42,NJ-75920,39.6304617,-74.9662905
Washington township (Gloucester Cnty),New Jersey,48119,24426,Philadelphia-Camden-Wilmington,6215222,N/A,N/A,N/A,$270000,1385,$195,N/A,N/A,N/A,N/A,123,681,N/A,N/A,N/A,Gloucester County,47.30%,47.80%,N/A,N/A,N/A,N/A,N/A,Eastern Standard Time,89,42,47,71,27,54%,53%,42,62,94,55%,62%,50%,50.79,15.97,11.22,36.27%,35.49%,38.0%,25.2,10,7.4,28.3,61,81,3.8,1.97,NJ-77180,39.7469664,-75.0723401
Wenonah,New Jersey,2248,2248,Philadelphia-Camden-Wilmington,6215222,$130473,55.4%,41,$325000,1693,$192,73,96.22%,$1156,38.3%,45,1451,2.07%,4.83%,67.13%,Gloucester County,47.30%,47.80%,0.98%,0.04%,90.61%,1.38%,2.8%,Eastern Standard Time,89,42,47,71,27,54%,53%,42,62,94,55%,62%,50%,50.79,15.97,11.22,36.27%,35.49%,38.0%,25.2,10,7.4,28.3,60,81,3.8,1.0,NJ-78110,39.7913268,-75.1485646
West Deptford,New Jersey,21348,1385,Philadelphia-Camden-Wilmington,6215222,N/A,N/A,N/A,N/A,N/A,N/A,N/A,N/A,N/A,N/A,76,1167,N/A,N/A,N/A,Gloucester County,47.30%,47.80%,N/A,N/A,N/A,N/A,N/A,Eastern Standard Time,89,42,47,71,27,54%,53%,42,62,94,55%,62%,50%,47.62,14.67,10.58,33.42%,33.3%,36.56%,25.2,10,7.4,28.3,49,9,3.8,15.41,NJ-78800,39.843013,-75.1851811
Westville,New Jersey,4285,4201,Philadelphia-Camden-Wilmington,6215222,$78333,20.14%,43,$185000,1088,$170,67,68.99%,$1096,55.83%,218,2906,17.01%,6.09%,71.01%,Gloucester County,47.30%,47.80%,3.78%,17.15%,66.81%,9.75%,6.63%,Eastern Standard Time,89,42,47,71,27,54%,53%,42,62,94,55%,62%,50%,50.57,14.56,11.76,36.27%,35.49%,38.0%,25.2,10,7.4,28.3,39,51,3.8,1.02,NJ-80120,39.8704403,-75.1301646
Williamstown,New Jersey,14855,2002,Philadelphia-Camden-Wilmington,6215222,$87021,27.52%,41,$300000,1685,$178,39,90.16%,$1262,53.66%,N/A,N/A,7.27%,5.65%,67.12%,Gloucester County,47.30%,47.80%,0.88%,9.58%,76.81%,7.47%,3.82%,Eastern Standard Time,88,43,45,68,24,54%,53%,42,62,92,55%,62%,50%,49.69,15.14,11.23,32.47%,31.32%,34.11%,28.1,6,7.4,28.3,65,129,3.8,7.42,NJ-81380,39.6873779,-74.9786204
Woodbury,New Jersey,9992,4947,Philadelphia-Camden-Wilmington,6215222,$74769,28.66%,39,$228000,1583,$144,73,66.19%,$957,64.15%,286,3061,13.88%,7.28%,66.38%,Gloucester County,47.30%,47.80%,1.57%,24.67%,51.28%,17.1%,7.84%,Eastern Standard Time,89,42,47,71,27,54%,53%,42,62,94,55%,62%,50%,47.62,14.67,10.58,33.42%,33.3%,36.56%,25.2,10,7.4,28.3,45,9,3.8,2.02,NJ-82120,39.8378815,-75.1524263
Woodbury Heights,New Jersey,3116,2493,Philadelphia-Camden-Wilmington,6215222,$130101,32.06%,43,$255000,1154,$221,57,92.32%,$1353,41.91%,33,1797,5.23%,1.94%,66.64%,Gloucester County,47.30%,47.80%,1.51%,1.25%,86.46%,7.19%,1.89%,Eastern Standard Time,89,42,47,71,27,54%,53%,42,62,94,55%,62%,50%,50.79,15.97,11.22,33.42%,33.3%,36.56%,25.2,10,7.4,28.3,50,81,3.8,1.25,NJ-82180,39.8159813,-75.151177
Woolwich,New Jersey,12172,582,Philadelphia-Camden-Wilmington,6215222,N/A,N/A,N/A,N/A,N/A,N/A,N/A,N/A,N/A,N/A,15,413,N/A,N/A,N/A,Gloucester County,47.30%,47.80%,N/A,N/A,N/A,N/A,N/A,Eastern Standard Time,85,38,47,68,25,55%,55%,43,63,87,55%,62%,50%,50.62,16.02,11.14,28.88%,29.01%,30.44%,25.2,10,7.4,29.3,66,42,3.8,20.91,NJ-82840,39.7297128,-75.3499622
