City,State,Population,People per sq mi,Metro Name,Metro population,Median household income,% with at least Bachelor's degree,Median age,Median home price,Median home sqft,Median home cost per sqft,Median home age,Homeownership Rate,Avg Apartment Monthly Rent,Single Population,Num Violent Crimes Per 100k residents,Num Property Crimes Per 100k residents,Poverty Rate,Unemployment rate,Labor Force Participation rate,County,% Democrat,% Republican,% Asian,% Black,% Non-Hispanic White,% Hispanic,Foreign Born %,Timezone,Hottest month's avg high (F),Coldest month's avg high (F),Hottest high minus coldest high,Annual rainfall (in),Annual days of precipitation,Annual snowfall (in),Average yearly windspeed (mph),Air quality Index,Elevation (ft),UV Index,Land Area (sq mi),Fips Code,Latitude,Longitude,Annual Sunshine - Percentage of Possible,Summer Sunshine - Percentage of Possible,Winter Sunshine - Percentage of Possible,Annual Relative Humidity (afternoon),Summer Relative Humidity (afternoon)
Alburgh,Vermont,1648,2575,Burlington-South Burlington,221160,$55733,19.72%,N/A,$329000,1828,$180,40,40.80%,N/A,N/A,N/A,N/A,10.8%,2.20%,N/A,Grand Isle County,51.00%,36.20%,0.7%,0.8%,96.5%,0.7%,0%,Eastern Standard Time,80,27,53,35,134,63,N/A,84,200,3.1,0.64,VT-00625,44.9767282,-73.3025697,49%,60%,42%,58%,54%
Alburgh village,Vermont,545,852,Burlington-South Burlington,221160,$42125,N/A,N/A,$329000,1828,$180,39,42.90%,N/A,N/A,N/A,N/A,N/A,2.20%,N/A,Grand Isle County,51.00%,36.20%,0.0%,2.4%,93.0%,2.2%,N/A,Eastern Standard Time,80,27,53,35,134,63,N/A,84,200,3.1,0.64,VT-00625,44.9767282,-73.3025697,49%,60%,42%,58%,54%
Grand Isle,Vermont,2229,136,Burlington-South Burlington,221160,$61286,44.55%,N/A,N/A,N/A,N/A,33,65.50%,N/A,39.90%,N/A,N/A,N/A,2.20%,N/A,Grand Isle County,51.00%,36.20%,0.1%,0.0%,90.6%,1.8%,N/A,Eastern Standard Time,80,27,53,34,133,62,N/A,84,200,3.1,16.39,VT-29275,44.7203507,-73.2989753,49%,60%,42%,58%,54%
Isle La Motte,Vermont,494,63,Burlington-South Burlington,221160,$52083,34.39%,N/A,N/A,N/A,N/A,40,38.20%,N/A,43.10%,N/A,N/A,N/A,2.20%,N/A,Grand Isle County,51.00%,36.20%,0.6%,0.0%,96.4%,1.0%,N/A,Eastern Standard Time,80,27,53,34,134,63,7,84,200,3.1,7.84,VT-35875,44.863036,-73.3424544,49%,60%,42%,58%,54%
North Hero,Vermont,968,72,Burlington-South Burlington,221160,$68750,45.30%,N/A,N/A,N/A,N/A,41,35.20%,N/A,32.50%,N/A,N/A,N/A,2.20%,N/A,Grand Isle County,51.00%,36.20%,0.1%,0.0%,92.0%,4.0%,N/A,Eastern Standard Time,80,27,53,34,134,63,7,84,200,3.1,13.44,VT-50650,44.8370665,-73.2653266,49%,60%,42%,58%,54%
South Hero,Vermont,150,139,Burlington-South Burlington,221160,$83864,18.95%,38,$341000,1056,$323,45,66.67%,N/A,65.65%,N/A,N/A,5.33%,0.0%,69.53%,Grand Isle County,51.00%,36.20%,1.33%,24.0%,74.67%,0.0%,1.33%,Eastern Standard Time,80,27,53,32,138,62,6,84,200,3.1,1.08,VT-66925,44.6478584,-73.3017161,49%,60%,42%,58%,54%
