City,State,Population,People per sq mi,Metro Name,Metro population,Median household income,% with at least Bachelor's degree,Median age,Median home price,Median home sqft,Median home cost per sqft,Median home age,Homeownership Rate,Avg Apartment Monthly Rent,Single Population,Num Violent Crimes Per 100k residents,Num Property Crimes Per 100k residents,Poverty Rate,Unemployment rate,Labor Force Participation rate,County,% Democrat,% Republican,% Asian,% Black,% Non-Hispanic White,% Hispanic,Foreign Born %,Timezone,Hottest month's avg high (F),Coldest month's avg high (F),Hottest high minus coldest high,Annual rainfall (in),Annual days of precipitation,Annual days of sunshine,Annual snowfall (in),Avg Summer Dew Point,Avg Annual Dew Point,Average yearly windspeed (mph),Air quality Index,Elevation (ft),UV Index,Land Area (sq mi),Fips Code,Latitude,Longitude,Annual Sunshine - Percentage of Possible,Summer Sunshine - Percentage of Possible,Winter Sunshine - Percentage of Possible
Clarksville City,Texas,878,138,Longview,287105,$52431,17.24%,39,N/A,N/A,N/A,41,71.72%,$933,45.33%,N/A,N/A,8.91%,5.14%,57.12%,Gregg County,28.00%,68.90%,0.0%,5.13%,74.6%,18.11%,5.24%,Central Standard Time,94,57,37,48,91,215,1,68.7,54.6,6,43,259,5.5,6.37,TX-15172,32.5329298,-94.8945582,58%,69%,50%
Easton,Texas,424,174,Longview,287105,$29844,9.9%,49,N/A,N/A,N/A,33,68.87%,$646,51.88%,N/A,N/A,22.64%,0.0%,43.1%,Gregg County,28.00%,68.90%,0.0%,54.01%,16.98%,29.72%,14.15%,Central Standard Time,94,57,37,48,93,214,1,68.7,54.5,6,44,259,5.5,2.44,TX-22192,32.3819296,-94.5912429,58%,69%,50%
Gladewater,Texas,5960,515,Longview,287105,$40000,13.72%,36,$289000,1993,$145,46,59.46%,$826,66.59%,220,2835,30.56%,4.91%,61.19%,Gregg County,28.00%,68.90%,1.16%,14.48%,65.2%,14.8%,3.04%,Central Standard Time,94,57,37,48,91,212,1,68.7,54.4,6,45,259,5.5,11.57,TX-29660,32.542605,-94.9465318,58%,69%,50%
Kilgore,Texas,14824,797,Longview,287105,$55810,20.09%,36,N/A,N/A,N/A,54,65.78%,$855,49.88%,305,2100,16.28%,7.08%,60.78%,Gregg County,28.00%,68.90%,1.27%,10.59%,60.85%,23.62%,8.8%,Central Standard Time,94,57,37,48,92,215,1,68.7,54.7,6,45,259,5.5,18.61,TX-39124,32.3979343,-94.8602167,58%,69%,50%
Lakeport,Texas,1247,784,Longview,287105,$61500,14.97%,32,N/A,N/A,N/A,31,83.56%,$1032,50.05%,N/A,N/A,9.54%,1.76%,67.68%,Gregg County,28.00%,68.90%,0.08%,55.01%,12.51%,28.15%,6.66%,Central Standard Time,94,57,37,48,93,216,1,68.7,54.6,6,43,259,5.5,1.59,TX-40696,32.4050535,-94.7101707,58%,69%,50%
Liberty City,Texas,2092,344,Longview,287105,$70192,26.05%,36,$255000,1723,$148,41,77.15%,$984,31.46%,N/A,N/A,4.11%,3.42%,62.11%,Gregg County,28.00%,68.90%,1.0%,3.68%,79.92%,10.47%,2.96%,Central Standard Time,94,57,37,48,92,218,1,68.7,54.6,6,46,259,5.5,6.09,TX-42616,32.4502078,-94.9438326,58%,69%,50%
Longview,Texas,82183,1472,Longview,287105,$50019,20.38%,35,$500000,2809,$178,43,58.4%,$855,53.54%,N/A,N/A,18.64%,4.07%,60.37%,Gregg County,28.00%,68.90%,1.44%,22.57%,52.68%,20.34%,9.92%,Central Standard Time,95,57,38,49,93,211,1,68.7,54.6,6,36,259,5.5,55.83,TX-43888,32.5192879,-94.7621146,58%,69%,50%
Warren City,Texas,317,181,Longview,287105,$61250,16.07%,37,N/A,N/A,N/A,45,58.92%,$1548,28.21%,N/A,N/A,17.03%,3.13%,68.38%,Gregg County,28.00%,68.90%,0.0%,17.03%,65.62%,13.56%,2.52%,Central Standard Time,94,57,37,48,91,212,1,68.7,54.6,N/A,43,259,5.5,1.75,TX-76576,32.5530139,-94.9056102,58%,69%,50%
White Oak,Texas,6301,693,Longview,287105,$66537,18.8%,35,N/A,N/A,N/A,39,67.57%,$1061,37.64%,N/A,N/A,11.51%,3.17%,70.6%,Gregg County,28.00%,68.90%,0.0%,2.19%,74.26%,13.38%,7.19%,Central Standard Time,95,57,38,49,90,215,1,68.7,54.5,6,38,259,5.5,9.09,TX-78436,32.5312315,-94.8563908,58%,69%,50%
