City,State,Population,People per sq mi,Metro Name,Metro population,Median household income,% with at least Bachelor's degree,Median age,Median home price,Median home sqft,Median home cost per sqft,Median home age,Homeownership Rate,Avg Apartment Monthly Rent,Single Population,Num Violent Crimes Per 100k residents,Num Property Crimes Per 100k residents,Poverty Rate,Unemployment rate,Labor Force Participation rate,County,% Democrat,% Republican,% Asian,% Black,% Non-Hispanic White,% Hispanic,Foreign Born %,Timezone,Hottest month's avg high (F),Coldest month's avg high (F),Hottest high minus coldest high,Annual rainfall (in),Annual days of precipitation,Annual snowfall (in),Average yearly windspeed (mph),Air quality Index,Elevation (ft),UV Index,Land Area (sq mi),Fips Code,Latitude,Longitude,Annual Sunshine - Percentage of Possible,Summer Sunshine - Percentage of Possible,Winter Sunshine - Percentage of Possible,Annual Relative Humidity (afternoon),Summer Relative Humidity (afternoon),Number of days with thunder per year,Annual dew point (F),Average summer dew point (F),Hottest month's avg low (F),Coldest month's avg low (F),Summer rainfall (in),Winter rainfall (in),Percent of days that include precipitation,Percent of Summer days that include precipitation,Percent of Winter days that include precipitation,Days of snow per year
Blue River township (Harrison Cnty),Indiana,2427,63,Louisville,1268993,$53702,N/A,N/A,N/A,N/A,N/A,42,79.40%,N/A,43.00%,N/A,N/A,N/A,3.50%,N/A,Harrison County,25.80%,69.70%,0.0%,0.0%,96.6%,2.8%,N/A,Eastern Standard Time,N/A,N/A,N/A,N/A,107,N/A,7.8,72,488,3.9,38.52,IN-06058,38.3767847,-86.2017165,55%,65%,46%,56%,55%,45.1,45,65,N/A,N/A,N/A,N/A,N/A,N/A,N/A,9
Boone township (Harrison Cnty),Indiana,1422,30,Louisville,1268993,$54766,N/A,N/A,N/A,N/A,N/A,34,66.60%,N/A,33.60%,N/A,N/A,N/A,3.50%,N/A,Harrison County,25.80%,69.70%,0.0%,0.0%,87.3%,2.0%,N/A,Eastern Standard Time,N/A,N/A,N/A,N/A,108,N/A,7.8,66,488,3.9,47.4,IN-06544,38.0455543,-86.0698134,55%,65%,46%,56%,55%,45.1,45,65,N/A,N/A,N/A,N/A,N/A,N/A,N/A,9
Corydon,Indiana,3154,1923,Louisville,1268993,$41755,20.86%,44,$190000,1450,$131,70,74.99%,$820,60.79%,N/A,N/A,11.01%,5.24%,54.42%,Harrison County,25.80%,69.70%,0.0%,1.55%,93.5%,4.95%,0.06%,Eastern Standard Time,N/A,N/A,N/A,N/A,109,N/A,7.8,63,488,3.9,1.64,IN-15256,38.2128657,-86.1255646,55%,65%,46%,56%,55%,45.1,45,65,N/A,N/A,N/A,N/A,N/A,N/A,N/A,9
Crandall,Indiana,233,2330,Louisville,1268993,$39583,6.87%,30,$264000,2296,$115,78,47.21%,$683,58.85%,N/A,N/A,24.89%,4.44%,51.72%,Harrison County,25.80%,69.70%,0.0%,0.0%,100.0%,0.0%,0.0%,Eastern Standard Time,N/A,N/A,N/A,N/A,108,N/A,7.8,69,488,3.9,0.1,IN-15634,38.2880975,-86.0659478,55%,65%,46%,56%,55%,45.1,45,65,N/A,N/A,N/A,N/A,N/A,N/A,N/A,9
Elizabeth,Indiana,121,465,Louisville,1268993,$57500,22.62%,39,$177000,1863,$95,72,71.07%,$875,41.75%,N/A,N/A,11.57%,0.0%,58.25%,Harrison County,25.80%,69.70%,0.0%,0.0%,100.0%,0.0%,0.0%,Eastern Standard Time,N/A,N/A,N/A,N/A,110,N/A,7.8,66,488,3.9,0.26,IN-20674,38.1240588,-85.9738551,55%,65%,46%,56%,55%,45.1,45,65,N/A,N/A,N/A,N/A,N/A,N/A,N/A,9
Franklin township (Harrison Cnty),Indiana,4116,293,Louisville,1268993,$67591,N/A,N/A,$237000,1549,$153,37,82.60%,N/A,39.60%,N/A,N/A,N/A,3.50%,N/A,Harrison County,25.80%,69.70%,1.6%,0.5%,93.8%,2.6%,N/A,Eastern Standard Time,N/A,N/A,N/A,N/A,109,N/A,7.8,68,488,3.9,14.04,IN-25396,38.2348797,-86.0064566,55%,65%,46%,56%,55%,45.1,45,65,N/A,N/A,N/A,N/A,N/A,N/A,N/A,9
Harrison township (Harrison Cnty),Indiana,12495,123,Louisville,1268993,$50179,N/A,N/A,N/A,N/A,N/A,34,61.90%,N/A,50.30%,N/A,N/A,N/A,3.50%,N/A,Harrison County,25.80%,69.70%,0.4%,0.2%,95.2%,2.7%,N/A,Eastern Standard Time,N/A,N/A,N/A,N/A,109,N/A,7.8,63,488,3.9,101.59,IN-31810,38.1924186,-86.1718979,55%,65%,46%,56%,55%,45.1,45,65,N/A,N/A,N/A,N/A,N/A,N/A,N/A,9
Heth,Indiana,1380,41,Louisville,1268993,$41603,N/A,N/A,N/A,N/A,N/A,31,88.40%,N/A,38.40%,N/A,N/A,N/A,3.50%,N/A,Harrison County,25.80%,69.70%,0.0%,0.0%,98.6%,0.0%,N/A,Eastern Standard Time,N/A,N/A,N/A,N/A,110,N/A,7.8,66,488,3.9,33.66,IN-33268,38.0619487,-86.1799126,55%,65%,46%,56%,55%,45.1,45,65,N/A,N/A,N/A,N/A,N/A,N/A,N/A,9
Jackson township (Harrison Cnty),Indiana,6068,168,Louisville,1268993,$57951,N/A,N/A,N/A,N/A,N/A,34,75.00%,N/A,39.40%,N/A,N/A,N/A,3.50%,N/A,Harrison County,25.80%,69.70%,0.0%,0.0%,97.8%,0.9%,N/A,Eastern Standard Time,N/A,N/A,N/A,N/A,108,N/A,7.8,69,488,3.9,36.12,IN-37080,38.2977885,-86.09411,55%,65%,46%,56%,55%,45.1,45,65,N/A,N/A,N/A,N/A,N/A,N/A,N/A,9
Laconia,Indiana,38,760,Louisville,1268993,$65694,9.68%,44,N/A,N/A,N/A,78,82.86%,N/A,57.14%,N/A,N/A,23.68%,0.0%,25.71%,Harrison County,25.80%,69.70%,0.0%,0.0%,97.37%,2.63%,2.63%,Eastern Standard Time,N/A,N/A,N/A,N/A,108,N/A,7.8,66,488,3.9,0.05,IN-40644,38.0318064,-86.0855225,55%,65%,46%,56%,55%,45.1,45,65,N/A,N/A,N/A,N/A,N/A,N/A,N/A,9
Lanesville,Indiana,745,793,Louisville,1268993,$82188,20.52%,43,N/A,N/A,N/A,45,81.21%,$747,38.61%,N/A,N/A,1.34%,0.0%,64.01%,Harrison County,25.80%,69.70%,0.13%,0.67%,98.39%,0.13%,0.13%,Eastern Standard Time,N/A,N/A,N/A,N/A,108,N/A,7.8,68,488,3.9,0.94,IN-42048,38.2394057,-85.9821005,55%,65%,46%,56%,55%,45.1,45,65,N/A,N/A,N/A,N/A,N/A,N/A,N/A,9
Mauckport,Indiana,32,160,Louisville,1268993,$31875,0.0%,51,$140000,1186,$118,78,75.0%,N/A,58.62%,N/A,N/A,35.48%,23.08%,44.83%,Harrison County,25.80%,69.70%,0.0%,0.0%,100.0%,0.0%,0.0%,Eastern Standard Time,N/A,N/A,N/A,N/A,110,N/A,7.8,66,488,3.9,0.2,IN-47628,38.0259463,-86.1997449,55%,65%,46%,56%,55%,45.1,45,65,N/A,N/A,N/A,N/A,N/A,N/A,N/A,9
Morgan township (Harrison Cnty),Indiana,4174,117,Louisville,1268993,$51982,N/A,N/A,N/A,N/A,N/A,36,62.00%,N/A,56.20%,N/A,N/A,N/A,3.50%,N/A,Harrison County,25.80%,69.70%,0.0%,0.8%,92.6%,1.3%,N/A,Eastern Standard Time,N/A,N/A,N/A,N/A,107,N/A,7.8,72,488,3.9,35.68,IN-51030,38.375086,-86.0874568,55%,65%,46%,56%,55%,45.1,45,65,N/A,N/A,N/A,N/A,N/A,N/A,N/A,9
New Amsterdam,Indiana,103,1288,Louisville,1268993,$90893,0.0%,50,N/A,N/A,N/A,11,100.0%,N/A,49.51%,N/A,N/A,0.0%,0.0%,88.35%,Harrison County,25.80%,69.70%,0.0%,0.0%,100.0%,0.0%,0.0%,Eastern Standard Time,N/A,N/A,N/A,N/A,110,N/A,7.8,66,488,3.9,0.08,IN-52398,38.1021761,-86.2760002,55%,65%,46%,56%,55%,45.1,45,65,N/A,N/A,N/A,N/A,N/A,N/A,N/A,9
New Middletown,Indiana,109,2725,Louisville,1268993,$56000,15.52%,27,N/A,N/A,N/A,78,85.32%,N/A,45.78%,N/A,N/A,3.0%,3.77%,63.86%,Harrison County,25.80%,69.70%,0.0%,5.5%,94.5%,0.0%,0.0%,Eastern Standard Time,N/A,N/A,N/A,N/A,110,N/A,7.8,68,488,3.9,0.04,IN-53298,38.1643988,-86.0506556,55%,65%,46%,56%,55%,45.1,45,65,N/A,N/A,N/A,N/A,N/A,N/A,N/A,9
New Salisbury,Indiana,613,310,Louisville,1268993,$31389,21.46%,47,$160000,1060,$151,46,90.54%,N/A,45.82%,N/A,N/A,54.81%,15.79%,56.72%,Harrison County,25.80%,69.70%,0.0%,0.0%,100.0%,0.0%,0.0%,Eastern Standard Time,N/A,N/A,N/A,N/A,107,N/A,7.8,69,488,3.9,1.98,IN-53586,38.3139668,-86.100055,55%,65%,46%,56%,55%,45.1,45,65,N/A,N/A,N/A,N/A,N/A,N/A,N/A,9
Palmyra,Indiana,1553,1294,Louisville,1268993,$33077,12.48%,36,$178000,1745,$102,51,68.71%,$633,57.77%,N/A,N/A,18.8%,0.0%,46.88%,Harrison County,25.80%,69.70%,0.0%,0.13%,98.78%,0.19%,0.0%,Eastern Standard Time,N/A,N/A,N/A,N/A,107,N/A,7.8,72,488,3.9,1.2,IN-57726,38.4082356,-86.1086257,55%,65%,46%,56%,55%,45.1,45,65,N/A,N/A,N/A,N/A,N/A,N/A,N/A,9
Posey township (Harrison Cnty),Indiana,2911,73,Louisville,1268993,$66389,N/A,N/A,N/A,N/A,N/A,37,72.10%,N/A,44.40%,N/A,N/A,N/A,3.50%,N/A,Harrison County,25.80%,69.70%,0.0%,0.0%,98.5%,1.2%,N/A,Eastern Standard Time,N/A,N/A,N/A,N/A,110,N/A,7.8,66,488,3.9,39.88,IN-61344,38.1328162,-85.957719,55%,65%,46%,56%,55%,45.1,45,65,N/A,N/A,N/A,N/A,N/A,N/A,N/A,9
Spencer township (Harrison Cnty),Indiana,1717,1080,Louisville,1268993,$54453,N/A,N/A,$205000,1530,$134,39,67.50%,N/A,44.50%,N/A,N/A,N/A,3.50%,N/A,Harrison County,25.80%,69.70%,1.5%,0.0%,95.9%,0.0%,N/A,Eastern Standard Time,N/A,N/A,N/A,N/A,107,N/A,7.8,69,488,3.9,1.59,IN-71936,38.2879675,-86.2221287,55%,65%,46%,56%,55%,45.1,45,65,N/A,N/A,N/A,N/A,N/A,N/A,N/A,9
Taylor township (Harrison Cnty),Indiana,586,21,Louisville,1268993,$46750,N/A,N/A,N/A,N/A,N/A,61,91.40%,N/A,41.60%,N/A,N/A,N/A,3.50%,N/A,Harrison County,25.80%,69.70%,0.0%,0.0%,100.0%,0.0%,N/A,Eastern Standard Time,N/A,N/A,N/A,N/A,110,N/A,7.8,66,488,3.9,27.9,IN-75014,38.0440028,-85.967943,55%,65%,46%,56%,55%,45.1,45,65,N/A,N/A,N/A,N/A,N/A,N/A,N/A,9
Washington township (Harrison Cnty),Indiana,499,75,Louisville,1268993,$34681,N/A,N/A,$145000,1160,$125,23,63.50%,N/A,41.10%,N/A,N/A,N/A,3.50%,N/A,Harrison County,25.80%,69.70%,0.0%,0.0%,99.6%,0.0%,N/A,Eastern Standard Time,N/A,N/A,N/A,N/A,110,N/A,7.8,66,488,3.9,6.63,IN-80684,38.1056636,-86.2403879,55%,65%,46%,56%,55%,45.1,45,65,N/A,N/A,N/A,N/A,N/A,N/A,N/A,9
Webster township (Harrison Cnty),Indiana,1655,55,Louisville,1268993,$48750,N/A,N/A,N/A,N/A,N/A,35,78.40%,N/A,43.20%,N/A,N/A,N/A,3.50%,N/A,Harrison County,25.80%,69.70%,0.0%,0.6%,99.4%,0.0%,N/A,Eastern Standard Time,N/A,N/A,N/A,N/A,109,N/A,7.8,68,488,3.9,30.09,IN-82106,38.1413116,-86.0537646,55%,65%,46%,56%,55%,45.1,45,65,N/A,N/A,N/A,N/A,N/A,N/A,N/A,9
