City,State,Population,People per sq mi,Metro Name,Metro population,Median household income,% with at least Bachelor's degree,Median age,Median home price,Median home sqft,Median home cost per sqft,Median home age,Homeownership Rate,Avg Apartment Monthly Rent,Single Population,Num Violent Crimes Per 100k residents,Num Property Crimes Per 100k residents,Poverty Rate,Unemployment rate,Labor Force Participation rate,County,% Democrat,% Republican,% Asian,% Black,% Non-Hispanic White,% Hispanic,Foreign Born %,Timezone,Hottest month's avg high (F),Coldest month's avg high (F),Hottest high minus coldest high,Hottest month's avg low (F),Coldest month's avg low (F),Annual Relative Humidity (afternoon),Summer Relative Humidity (afternoon),Annual dew point (F),Average summer dew point (F),Hottest month's avg heat index high (F),Annual Sunshine - Percentage of Possible,Summer Sunshine - Percentage of Possible,Winter Sunshine - Percentage of Possible,Annual rainfall (in),Summer rainfall (in),Winter rainfall (in),Percent of days that include precipitation,Percent of Summer days that include precipitation,Percent of Winter days that include precipitation,Annual snowfall (in),Days of snow per year,Average yearly windspeed (mph),Number of days with thunder per year,Air quality Index,Elevation (ft),UV Index,Land Area (sq mi),Fips Code,Latitude,Longitude
Amo,Indiana,426,698,Indianapolis-Carmel-Anderson,2089990,$76250,15.55%,35,N/A,N/A,N/A,66,65.65%,$1083,47.79%,N/A,N/A,8.71%,2.55%,59.94%,Hendricks County,29.70%,63.40%,0.0%,0.0%,96.24%,2.58%,0.0%,Eastern Standard Time,83,34,49,63,18,60%,57%,42,63,85,51%,64%,41%,47.59,13.24,9.97,36.77%,34.84%,39.11%,24.3,19,7.8,41.0,78,816,3.7,0.61,IN-01450,39.6888782,-86.6126922
Avon,Indiana,22683,1207,Indianapolis-Carmel-Anderson,2089990,$97589,42.36%,37,$340000,2282,$149,17,84.82%,$1509,44.18%,N/A,N/A,6.03%,4.31%,75.15%,Hendricks County,29.70%,63.40%,4.12%,14.4%,69.08%,8.38%,8.26%,Eastern Standard Time,86,37,49,67,21,60%,57%,42,63,90,51%,64%,41%,47.54,13.9,10.03,36.77%,34.84%,39.11%,24.3,19,8.3,41.0,67,777,3.7,18.8,IN-02908,39.7600946,-86.391618
Brown township (Hendricks Cnty),Indiana,12359,491,Indianapolis-Carmel-Anderson,2089990,N/A,N/A,N/A,N/A,N/A,N/A,N/A,N/A,N/A,N/A,N/A,N/A,N/A,N/A,N/A,Hendricks County,29.70%,63.40%,N/A,N/A,N/A,N/A,N/A,Eastern Standard Time,86,37,49,67,21,60%,57%,42,63,90,51%,64%,41%,42.07,12.48,8.2,35.73%,34.62%,36.89%,21.8,7,8.3,41.0,71,753,3.7,25.17,IN-08308,39.8908521,-86.3791007
Brownsburg,Indiana,30310,1863,Indianapolis-Carmel-Anderson,2089990,$105435,46.85%,36,$358000,2266,$158,20,79.65%,$1405,41.91%,148,944,6.38%,1.52%,73.5%,Hendricks County,29.70%,63.40%,0.99%,11.4%,81.5%,3.49%,6.59%,Eastern Standard Time,86,37,49,67,21,60%,57%,42,63,90,51%,64%,41%,47.26,13.86,9.76,35.73%,34.62%,36.89%,24.3,19,8.3,41.0,67,768,3.7,16.27,IN-08416,39.83359,-86.3830014
Center township (Hendricks Cnty),Indiana,12890,280,Indianapolis-Carmel-Anderson,2089990,N/A,N/A,N/A,N/A,N/A,N/A,N/A,N/A,N/A,N/A,N/A,N/A,N/A,N/A,N/A,Hendricks County,29.70%,63.40%,N/A,N/A,N/A,N/A,N/A,Eastern Standard Time,83,34,49,63,18,60%,57%,42,63,85,51%,64%,41%,46.67,13.75,9.43,36.77%,34.84%,39.11%,24.3,19,7.8,41.0,76,873,3.7,46.04,IN-11386,39.7707108,-86.5208107
Clay township (Hendricks Cnty),Indiana,2465,4565,Indianapolis-Carmel-Anderson,2089990,N/A,N/A,N/A,N/A,N/A,N/A,N/A,N/A,N/A,N/A,N/A,N/A,N/A,N/A,N/A,Hendricks County,29.70%,63.40%,N/A,N/A,N/A,N/A,N/A,Eastern Standard Time,83,34,49,63,18,60%,57%,42,63,85,51%,64%,41%,47.59,13.24,9.97,36.77%,34.84%,39.11%,24.3,19,7.8,41.0,78,816,3.7,0.54,IN-13078,39.6948956,-86.6176281
Clayton,Indiana,874,1433,Indianapolis-Carmel-Anderson,2089990,$83500,20.74%,43,$280000,2692,$104,65,72.34%,$1125,39.81%,N/A,N/A,5.05%,3.23%,71.7%,Hendricks County,29.70%,63.40%,0.0%,1.49%,88.9%,7.44%,2.86%,Eastern Standard Time,85,36,49,67,20,60%,57%,42,63,89,51%,64%,41%,47.59,13.24,9.97,36.77%,34.84%,39.11%,24.3,19,7.8,41.0,73,816,3.7,0.61,IN-13366,39.6891887,-86.5233433
Coatesville,Indiana,570,877,Indianapolis-Carmel-Anderson,2089990,$76806,19.65%,33,$442000,2115,$209,64,76.47%,$1292,45.48%,N/A,N/A,9.12%,2.12%,73.51%,Hendricks County,29.70%,63.40%,0.0%,0.0%,91.4%,4.91%,0.0%,Eastern Standard Time,83,34,49,63,18,60%,57%,42,63,85,51%,64%,41%,47.59,13.24,9.97,36.77%,34.84%,39.11%,24.3,19,7.8,41.0,78,816,3.7,0.65,IN-14050,39.6881077,-86.6697762
Danville,Indiana,11049,1263,Indianapolis-Carmel-Anderson,2089990,$93080,34.94%,37,$320000,2065,$155,29,71.13%,$1118,40.99%,N/A,N/A,3.68%,1.64%,72.99%,Hendricks County,29.70%,63.40%,0.25%,3.09%,91.74%,2.62%,0.47%,Eastern Standard Time,86,37,49,67,21,60%,57%,42,63,90,51%,64%,41%,46.67,13.75,9.43,36.77%,34.84%,39.11%,24.3,19,7.8,41.0,75,873,3.7,8.75,IN-16804,39.7583118,-86.5019608
Eel River township (Hendricks Cnty),Indiana,1648,39,Indianapolis-Carmel-Anderson,2089990,N/A,N/A,N/A,N/A,N/A,N/A,N/A,N/A,N/A,N/A,N/A,N/A,N/A,N/A,N/A,Hendricks County,29.70%,63.40%,N/A,N/A,N/A,N/A,N/A,Eastern Standard Time,83,34,49,63,18,60%,57%,42,63,85,51%,64%,41%,45.06,14.02,8.43,35.92%,33.19%,38.78%,24.4,14,7.8,41.0,78,879,3.7,42.26,IN-20530,39.8715656,-86.6354929
Franklin township (Hendricks Cnty),Indiana,1234,88,Indianapolis-Carmel-Anderson,2089990,N/A,N/A,N/A,$270000,1765,$153,N/A,N/A,N/A,N/A,369,2028,N/A,N/A,N/A,Hendricks County,29.70%,63.40%,N/A,N/A,N/A,N/A,N/A,Eastern Standard Time,84,37,47,63,19,60%,57%,42,63,87,51%,64%,41%,47.59,13.24,9.97,36.77%,34.84%,39.11%,16.0,11,7.8,41.0,78,816,3.7,14.04,IN-25414,39.6369712,-86.6206873
Guilford,Indiana,30917,867,Indianapolis-Carmel-Anderson,2089990,N/A,N/A,N/A,N/A,N/A,N/A,N/A,N/A,N/A,N/A,N/A,N/A,N/A,N/A,N/A,Hendricks County,29.70%,63.40%,N/A,N/A,N/A,N/A,N/A,Eastern Standard Time,85,36,49,67,20,60%,57%,42,63,89,51%,64%,41%,48.02,14.29,9.82,36.77%,34.84%,39.11%,24.3,19,7.8,41.0,61,663,3.7,35.66,IN-30204,39.6750422,-86.3820355
Liberty township (Hendricks Cnty),Indiana,6023,7003,Indianapolis-Carmel-Anderson,2089990,N/A,N/A,N/A,N/A,N/A,N/A,N/A,N/A,N/A,N/A,N/A,N/A,N/A,N/A,N/A,Hendricks County,29.70%,63.40%,N/A,N/A,N/A,N/A,N/A,Eastern Standard Time,85,36,49,67,20,60%,57%,42,63,89,51%,64%,41%,47.59,13.24,9.97,36.77%,34.84%,39.11%,24.3,19,7.8,41.0,73,816,3.7,0.86,IN-43290,39.661688,-86.5015868
Lincoln township (Hendricks Cnty),Indiana,31392,1325,Indianapolis-Carmel-Anderson,2089990,N/A,N/A,N/A,N/A,N/A,N/A,N/A,N/A,N/A,N/A,N/A,N/A,N/A,N/A,N/A,Hendricks County,29.70%,63.40%,N/A,N/A,N/A,N/A,N/A,Eastern Standard Time,86,37,49,67,21,60%,57%,42,63,90,51%,64%,41%,47.26,13.86,9.76,35.73%,34.62%,36.89%,24.3,19,8.3,41.0,68,768,3.7,23.69,IN-43794,39.8289643,-86.3831938
Lizton,Indiana,620,939,Indianapolis-Carmel-Anderson,2089990,$105938,31.37%,29,$581000,3543,$164,64,82.67%,$1054,34.0%,N/A,N/A,3.06%,0.0%,79.32%,Hendricks County,29.70%,63.40%,0.0%,0.0%,98.06%,0.0%,0.0%,Eastern Standard Time,83,34,49,63,18,60%,57%,42,63,85,51%,64%,41%,45.06,14.02,8.43,25.81%,25.93%,25.89%,21.8,7,8.3,41.0,78,879,3.7,0.66,IN-44442,39.8837625,-86.541554
Marion township (Hendricks Cnty),Indiana,1226,78,Indianapolis-Carmel-Anderson,2089990,N/A,N/A,N/A,$105000,1479,$71,N/A,N/A,N/A,N/A,370,3126,N/A,N/A,N/A,Hendricks County,29.70%,63.40%,N/A,N/A,N/A,N/A,N/A,Eastern Standard Time,83,34,49,63,18,60%,57%,42,63,85,51%,64%,41%,46.67,13.75,9.43,36.77%,34.84%,39.11%,24.4,14,7.8,41.0,78,873,3.7,15.68,IN-46926,39.7715972,-86.6336865
Middle,Indiana,6614,213,Indianapolis-Carmel-Anderson,2089990,N/A,N/A,N/A,N/A,N/A,N/A,N/A,N/A,N/A,N/A,N/A,N/A,N/A,N/A,N/A,Hendricks County,29.70%,63.40%,N/A,N/A,N/A,N/A,N/A,Eastern Standard Time,83,34,49,63,18,60%,57%,42,63,85,51%,64%,41%,47.26,13.86,9.76,35.73%,34.62%,36.89%,21.8,7,8.3,41.0,75,768,3.7,31.05,IN-48852,39.8649734,-86.4697361
North Salem,Indiana,602,1771,Indianapolis-Carmel-Anderson,2089990,$61563,21.64%,31,$218000,1389,$157,82,78.38%,$1550,38.46%,N/A,N/A,2.84%,2.19%,65.87%,Hendricks County,29.70%,63.40%,0.0%,0.0%,90.2%,3.99%,1.99%,Eastern Standard Time,83,34,49,63,18,60%,57%,42,63,85,51%,64%,41%,45.06,14.02,8.43,35.92%,33.19%,38.78%,24.4,14,7.8,41.0,78,879,3.7,0.34,IN-55080,39.859956,-86.6437189
Pittsboro,Indiana,3988,1072,Indianapolis-Carmel-Anderson,2089990,$125133,48.03%,34,$307000,2060,$149,16,95.25%,N/A,25.94%,N/A,N/A,0.25%,1.98%,68.66%,Hendricks County,29.70%,63.40%,0.0%,2.81%,81.67%,6.85%,1.0%,Eastern Standard Time,83,34,49,63,18,60%,57%,42,63,85,51%,64%,41%,47.26,13.86,9.76,35.73%,34.62%,36.89%,21.8,7,8.3,41.0,75,768,3.7,3.72,IN-60192,39.8705137,-86.4654125
Plainfield,Indiana,35783,1390,Indianapolis-Carmel-Anderson,2089990,$85074,33.71%,38,$290000,1921,$151,22,68.71%,$1313,50.74%,141,1795,6.42%,3.02%,61.33%,Hendricks County,29.70%,63.40%,7.49%,8.68%,72.31%,6.58%,9.64%,Eastern Standard Time,85,36,49,67,20,60%,57%,42,63,89,51%,64%,41%,48.02,14.29,9.82,36.77%,34.84%,39.11%,24.3,19,8.3,41.0,60,663,3.7,25.75,IN-60246,39.6953696,-86.3715928
Stilesville,Indiana,267,722,Indianapolis-Carmel-Anderson,2089990,$60417,15.18%,52,$110000,1294,$85,68,91.92%,N/A,31.94%,N/A,N/A,1.12%,0.8%,58.69%,Hendricks County,29.70%,63.40%,0.0%,0.0%,91.01%,5.62%,0.0%,Eastern Standard Time,84,37,47,63,19,60%,57%,42,63,87,51%,64%,41%,47.59,13.24,9.97,36.77%,34.84%,39.11%,16.0,11,7.8,41.0,78,816,3.7,0.37,IN-73178,39.6370774,-86.6343463
Union township (Hendricks Cnty),Indiana,2197,972,Indianapolis-Carmel-Anderson,2089990,N/A,N/A,N/A,N/A,N/A,N/A,N/A,N/A,N/A,N/A,N/A,N/A,N/A,N/A,N/A,Hendricks County,29.70%,63.40%,N/A,N/A,N/A,N/A,N/A,Eastern Standard Time,83,34,49,63,18,60%,57%,42,63,85,51%,64%,41%,45.06,14.02,8.43,25.81%,25.93%,25.89%,21.8,7,8.3,41.0,78,879,3.7,2.26,IN-77318,39.8791429,-86.5427676
Washington township (Hendricks Cnty),Indiana,49205,7422,Indianapolis-Carmel-Anderson,2089990,N/A,N/A,N/A,$170000,1683,$101,N/A,N/A,N/A,N/A,N/A,N/A,N/A,N/A,N/A,Hendricks County,29.70%,63.40%,N/A,N/A,N/A,N/A,N/A,Eastern Standard Time,86,37,49,67,21,60%,57%,42,63,90,51%,64%,41%,47.54,13.9,10.03,36.77%,34.84%,39.11%,24.3,19,8.3,41.0,67,777,3.7,6.63,IN-80702,39.7592051,-86.3917939
