City,State,Population,People per sq mi,Metro Name,Metro population,Median household income,% with at least Bachelor's degree,Median age,Median home price,Median home sqft,Median home cost per sqft,Median home age,Homeownership Rate,Avg Apartment Monthly Rent,Single Population,Num Violent Crimes Per 100k residents,Num Property Crimes Per 100k residents,Poverty Rate,Unemployment rate,Labor Force Participation rate,County,% Democrat,% Republican,% Asian,% Black,% Non-Hispanic White,% Hispanic,Foreign Born %,Timezone,Hottest month's avg high (F),Coldest month's avg high (F),Hottest high minus coldest high,Annual rainfall (in),Annual days of precipitation,Annual days of sunshine,Annual snowfall (in),Avg Summer Dew Point,Avg Annual Dew Point,Average yearly windspeed (mph),Air quality Index,Elevation (ft),UV Index,Land Area (sq mi),Fips Code,Latitude,Longitude,Annual Sunshine - Percentage of Possible,Average Summer Sunshine - Percentage of Possible,Average Winter Sunshine - Percentage of Possible
Bolivar,West Virginia,1272,2958,Washington-Arlington-Alexandria,6324629,$77000,34.84%,39,N/A,N/A,N/A,52,64.39%,$1340,50.78%,N/A,N/A,8.77%,4.34%,75.35%,Jefferson County,38.80%,53.90%,0.79%,2.12%,86.95%,5.82%,1.97%,Eastern Standard Time,86,41,45,40,115,200,20,61.3,42.6,N/A,70,26,3.9,0.43,WV-08932,39.3242093,-77.7517258,55%,61%,52%
Charles Town,West Virginia,5985,1025,Washington-Arlington-Alexandria,6324629,$77552,33.71%,39,$310000,1902,$163,27,73.12%,$894,49.75%,145,1215,11.27%,9.04%,72.57%,Jefferson County,38.80%,53.90%,2.66%,11.96%,69.09%,10.84%,7.69%,Eastern Standard Time,86,41,45,40,117,197,20,61.2,42.6,6,63,26,3.9,5.84,WV-14610,39.2651918,-77.8584265,55%,61%,52%
Harpers Ferry,West Virginia,334,619,Washington-Arlington-Alexandria,6324629,$94914,66.79%,57,$341000,2105,$162,78,90.72%,$1313,24.74%,N/A,N/A,3.89%,5.24%,65.64%,Jefferson County,38.80%,53.90%,0.0%,0.6%,96.71%,1.2%,2.1%,Eastern Standard Time,86,41,45,40,115,201,20,61.3,42.6,6,70,26,3.9,0.54,WV-35284,39.3253293,-77.7410487,55%,61%,52%
Middleway,West Virginia,396,354,Washington-Arlington-Alexandria,6324629,$43250,32.92%,44,N/A,N/A,N/A,33,59.6%,N/A,46.77%,N/A,N/A,9.09%,0.0%,77.23%,Jefferson County,38.80%,53.90%,0.0%,0.0%,100.0%,0.0%,5.81%,Eastern Standard Time,86,41,45,40,117,197,20,61.2,42.5,6,75,26,3.9,1.12,WV-53692,39.303207,-77.9809298,55%,61%,52%
Ranson,West Virginia,5217,611,Washington-Arlington-Alexandria,6324629,$69544,19.88%,33,$175000,1483,$118,26,63.58%,$1128,50.36%,151,1437,15.25%,6.07%,70.9%,Jefferson County,38.80%,53.90%,1.92%,10.14%,76.54%,5.19%,6.67%,Eastern Standard Time,86,41,45,40,117,197,20,N/A,N/A,6,54,26,3.9,8.54,WV-66988,39.3009542,-77.8615235,55%,61%,52%
Shannondale,West Virginia,3364,399,Washington-Arlington-Alexandria,6324629,$71014,22.06%,43,$322000,1988,$162,29,86.41%,$1273,48.09%,N/A,N/A,12.93%,3.4%,66.15%,Jefferson County,38.80%,53.90%,0.83%,1.16%,85.55%,6.84%,4.01%,Eastern Standard Time,86,41,45,40,115,197,20,61.4,42.8,N/A,73,26,3.9,8.43,WV-73252,39.2122997,-77.810622,55%,61%,52%
Shenandoah Junction,West Virginia,1129,1118,Washington-Arlington-Alexandria,6324629,$48618,15.99%,32,N/A,N/A,N/A,34,79.1%,$1581,53.94%,N/A,N/A,7.79%,0.0%,87.88%,Jefferson County,38.80%,53.90%,0.0%,0.0%,85.3%,6.2%,1.24%,Eastern Standard Time,86,41,45,40,115,197,20,61.2,42.5,6,68,26,3.9,1.01,WV-73444,39.3530478,-77.8374704,55%,61%,52%
Shepherdstown,West Virginia,1657,4143,Washington-Arlington-Alexandria,6324629,$80610,46.04%,21,$575000,3639,$158,78,74.41%,$961,84.13%,N/A,N/A,7.52%,13.58%,64.76%,Jefferson County,38.80%,53.90%,0.0%,19.13%,76.83%,2.11%,6.22%,Eastern Standard Time,86,41,45,41,115,194,20,61.1,42.3,6,69,26,3.9,0.4,WV-73468,39.4319047,-77.8046511,55%,61%,52%
