City,State,Population,People per sq mi,Metro Name,Metro population,Median household income,% with at least Bachelor's degree,Median age,Median home price,Median home sqft,Median home cost per sqft,Median home age,Homeownership Rate,Avg Apartment Monthly Rent,Single Population,Num Violent Crimes Per 100k residents,Num Property Crimes Per 100k residents,Poverty Rate,Unemployment rate,Labor Force Participation rate,County,% Democrat,% Republican,% Asian,% Black,% Non-Hispanic White,% Hispanic,Foreign Born %,Timezone,Hottest month's avg high (F),Coldest month's avg high (F),Hottest high minus coldest high,Annual rainfall (in),Annual days of precipitation,Annual snowfall (in),Average yearly windspeed (mph),Air quality Index,Elevation (ft),UV Index,Land Area (sq mi),Fips Code,Latitude,Longitude,Annual Sunshine - Percentage of Possible,Summer Sunshine - Percentage of Possible,Winter Sunshine - Percentage of Possible,Annual Relative Humidity (afternoon),Summer Relative Humidity (afternoon),Number of days with thunder per year,Annual dew point (F),Average summer dew point (F),Hottest month's avg low (F),Coldest month's avg low (F)
Bayou Blue,Louisiana,13997,602,Houma-Thibodaux,207455,$60856,7.36%,36,N/A,N/A,N/A,30,84.93%,$841,42.25%,N/A,N/A,20.69%,6.84%,59.31%,Lafourche County,20.20%,76.70%,0.23%,4.57%,80.1%,7.31%,2.62%,Central Standard Time,92,63,29,66,113,0,8.0,59,30,5.8,23.27,LA-05175,29.6340799,-90.673168,58%,62%,51%,62%,64%,67.2,59,73,75,42
Bayou Country Club,Louisiana,1363,1747,Houma-Thibodaux,207455,$89555,36.02%,57,N/A,N/A,N/A,41,96.63%,N/A,36.91%,N/A,N/A,3.01%,0.0%,40.81%,Lafourche County,20.20%,76.70%,0.0%,0.0%,95.38%,1.17%,2.71%,Central Standard Time,92,63,29,66,112,0,8.0,54,30,5.8,0.78,LA-05260,29.7795506,-90.789251,58%,62%,51%,62%,64%,67.2,59,73,75,42
Chackbay,Louisiana,5108,184,Houma-Thibodaux,207455,$57738,17.78%,42,N/A,N/A,N/A,35,94.5%,$469,38.34%,N/A,N/A,16.4%,8.35%,65.16%,Lafourche County,20.20%,76.70%,0.0%,0.0%,96.26%,1.84%,1.25%,Central Standard Time,92,63,29,66,112,0,8.0,55,30,5.8,27.75,LA-14100,29.896958,-90.7622195,58%,62%,51%,62%,64%,67.2,59,73,75,42
Choctaw,Louisiana,938,150,Houma-Thibodaux,207455,$44914,1.36%,48,N/A,N/A,N/A,35,99.04%,N/A,44.23%,N/A,N/A,16.31%,5.68%,40.18%,Lafourche County,20.20%,76.70%,0.0%,0.0%,95.2%,3.3%,0.0%,Central Standard Time,92,63,29,66,112,0,8.0,55,30,5.8,6.25,LA-15150,29.8456809,-90.7238404,58%,62%,51%,62%,64%,67.2,59,73,75,42
Cut Off,Louisiana,5362,366,Houma-Thibodaux,207455,$66824,13.76%,40,N/A,N/A,N/A,46,77.33%,$787,35.73%,N/A,N/A,10.03%,3.24%,55.83%,Lafourche County,20.20%,76.70%,0.88%,2.13%,74.84%,13.95%,4.29%,Central Standard Time,90,63,27,65,106,0,8.0,75,30,5.8,14.64,LA-18930,29.5164025,-90.3290873,58%,62%,51%,62%,64%,67.2,59,73,76,45
Galliano,Louisiana,7514,675,Houma-Thibodaux,207455,$55565,10.19%,40,N/A,N/A,N/A,37,75.47%,$787,39.28%,N/A,N/A,22.11%,5.21%,57.89%,Lafourche County,20.20%,76.70%,0.0%,1.58%,75.92%,14.87%,5.38%,Central Standard Time,90,63,27,64,102,0,8.0,76,30,5.8,11.14,LA-28065,29.4470801,-90.3095963,58%,62%,51%,62%,64%,67.2,59,73,76,45
Golden Meadow,Louisiana,1918,783,Houma-Thibodaux,207455,$52563,11.58%,40,N/A,N/A,N/A,58,75.07%,$442,42.1%,N/A,N/A,16.68%,2.28%,54.91%,Lafourche County,20.20%,76.70%,2.66%,5.01%,82.69%,2.29%,4.95%,Central Standard Time,90,63,27,63,98,0,8.0,78,30,5.8,2.45,LA-29640,29.3876464,-90.2739125,58%,62%,51%,62%,64%,67.2,59,73,76,45
Kraemer,Louisiana,1041,198,Houma-Thibodaux,207455,$46250,2.46%,45,N/A,N/A,N/A,33,94.33%,N/A,47.19%,N/A,N/A,27.38%,13.35%,50.55%,Lafourche County,20.20%,76.70%,0.0%,0.0%,100.0%,0.0%,0.0%,Central Standard Time,92,63,29,66,112,0,8.0,55,30,5.8,5.25,LA-40210,29.860608,-90.6336651,58%,62%,51%,62%,64%,67.2,59,73,75,42
Lafourche Crossing,Louisiana,1982,471,Houma-Thibodaux,207455,$101786,25.02%,41,N/A,N/A,N/A,34,85.12%,N/A,41.72%,N/A,N/A,5.6%,1.5%,66.69%,Lafourche County,20.20%,76.70%,2.72%,7.16%,88.35%,1.77%,4.84%,Central Standard Time,92,63,29,66,112,0,8.0,55,30,5.8,4.21,LA-40878,29.767458,-90.7696849,58%,62%,51%,62%,64%,67.2,59,73,75,42
Larose,Louisiana,6463,595,Houma-Thibodaux,207455,$54318,13.48%,40,N/A,N/A,N/A,40,77.66%,$679,38.03%,N/A,N/A,18.5%,7.29%,62.8%,Lafourche County,20.20%,76.70%,2.1%,1.76%,84.53%,5.23%,6.56%,Central Standard Time,90,63,27,64,105,0,8.0,66,30,5.8,10.87,LA-42135,29.5669254,-90.3751446,58%,62%,51%,62%,64%,67.2,59,73,76,45
Lockport,Louisiana,3252,2878,Houma-Thibodaux,207455,$44167,6.8%,38,N/A,N/A,N/A,47,63.26%,$897,53.08%,N/A,N/A,16.99%,5.07%,50.55%,Lafourche County,20.20%,76.70%,0.0%,0.31%,92.56%,4.67%,1.97%,Central Standard Time,92,63,29,64,106,0,8.0,53,30,5.8,1.13,LA-44900,29.6442654,-90.5324272,58%,62%,51%,62%,64%,67.2,59,73,75,42
Lockport Heights,Louisiana,1706,1302,Houma-Thibodaux,207455,$84524,11.93%,36,N/A,N/A,N/A,45,80.72%,$751,46.74%,N/A,N/A,14.83%,5.95%,57.64%,Lafourche County,20.20%,76.70%,0.0%,0.47%,96.72%,0.0%,0.0%,Central Standard Time,92,63,29,65,108,0,8.0,55,30,5.8,1.31,LA-44970,29.6564505,-90.5486318,58%,62%,51%,62%,64%,67.2,59,73,75,42
Mathews,Louisiana,1830,460,Houma-Thibodaux,207455,$58929,16.97%,45,N/A,N/A,N/A,44,92.3%,$844,36.59%,N/A,N/A,12.68%,0.0%,55.48%,Lafourche County,20.20%,76.70%,3.01%,2.4%,90.87%,0.0%,3.01%,Central Standard Time,92,63,29,66,112,0,8.0,59,30,5.8,3.98,LA-49170,29.6821549,-90.5559008,58%,62%,51%,62%,64%,67.2,59,73,75,42
Raceland,Louisiana,10835,502,Houma-Thibodaux,207455,$38450,11.7%,46,N/A,N/A,N/A,43,71.66%,$499,54.32%,N/A,N/A,20.7%,11.82%,51.23%,Lafourche County,20.20%,76.70%,0.0%,32.82%,63.61%,1.94%,1.58%,Central Standard Time,92,63,29,66,112,0,8.0,57,30,5.8,21.57,LA-63155,29.7282073,-90.6362144,58%,62%,51%,62%,64%,67.2,59,73,75,42
Thibodaux,Louisiana,14565,2145,Houma-Thibodaux,207455,$38415,30.19%,31,N/A,N/A,N/A,47,49.62%,$832,62.7%,N/A,N/A,23.73%,9.06%,57.83%,Lafourche County,20.20%,76.70%,0.65%,37.05%,56.18%,2.16%,2.2%,Central Standard Time,92,63,29,66,112,0,8.0,44,30,5.8,6.79,LA-75425,29.7948762,-90.8145775,58%,62%,51%,62%,64%,67.2,59,73,75,42
