City,State,Population,People per sq mi,Metro Name,Metro population,Median household income,% with at least Bachelor's degree,Median age,Median home price,Median home sqft,Median home cost per sqft,Median home age,Homeownership Rate,Avg Apartment Monthly Rent,Single Population,Num Violent Crimes Per 100k residents,Num Property Crimes Per 100k residents,Poverty Rate,Unemployment rate,Labor Force Participation rate,County,% Democrat,% Republican,% Asian,% Black,% Non-Hispanic White,% Hispanic,Foreign Born %,Timezone,Hottest month's avg high (F),Coldest month's avg high (F),Hottest high minus coldest high,Annual rainfall (in),Annual days of precipitation,Annual snowfall (in),Average yearly windspeed (mph),Air quality Index,Elevation (ft),UV Index,Land Area (sq mi),Fips Code,Latitude,Longitude,Annual Sunshine - Percentage of Possible,Summer Sunshine - Percentage of Possible,Winter Sunshine - Percentage of Possible,Annual Relative Humidity (afternoon),Summer Relative Humidity (afternoon),Number of days with thunder per year,Annual dew point (F),Average summer dew point (F),Hottest month's avg low (F),Coldest month's avg low (F),Summer rainfall (in),Winter rainfall (in),Percent of days that include precipitation,Percent of Summer days that include precipitation,Percent of Winter days that include precipitation,Days of snow per year
Altoona,Florida,77,171,Orlando-Kissimmee-Sanford,2639374,$46713,71.19%,30,N/A,N/A,N/A,20,93.51%,N/A,18.64%,N/A,N/A,0.0%,0.0%,71.19%,Lake County,36.60%,59.50%,0.0%,0.0%,100.0%,0.0%,0.0%,Eastern Standard Time,N/A,N/A,N/A,N/A,119,N/A,7.0,65,106,6.3,0.45,FL-01050,28.9681169,-81.6480842,69%,67%,65%,60%,64%,73.4,61,71,N/A,N/A,N/A,N/A,N/A,N/A,N/A,0
Astatula,Florida,2266,724,Orlando-Kissimmee-Sanford,2639374,$49750,15.96%,35,N/A,N/A,N/A,29,73.52%,$868,56.82%,143,478,16.73%,10.88%,61.11%,Lake County,36.60%,59.50%,0.0%,3.13%,73.3%,23.61%,7.86%,Eastern Standard Time,N/A,N/A,N/A,N/A,112,N/A,7.7,69,106,6.3,3.13,FL-02250,28.7065256,-81.7345979,69%,67%,65%,55%,59%,81.8,61,72,N/A,N/A,N/A,N/A,N/A,N/A,N/A,0
Astor,Florida,1242,531,Orlando-Kissimmee-Sanford,2639374,$62321,20.8%,57,N/A,N/A,N/A,37,81.96%,N/A,54.96%,N/A,N/A,6.6%,9.85%,41.66%,Lake County,36.60%,59.50%,0.0%,0.0%,81.0%,9.9%,7.17%,Eastern Standard Time,N/A,N/A,N/A,N/A,114,N/A,7.0,65,106,6.3,2.34,FL-02275,29.1634597,-81.5349238,64%,65%,59%,60%,64%,73.4,61,71,N/A,N/A,N/A,N/A,N/A,N/A,N/A,0
Clermont,Florida,36757,2042,Orlando-Kissimmee-Sanford,2639374,$71726,33.99%,44,$430000,1903,$226,16,73.76%,$1460,43.8%,208,1792,8.03%,4.6%,57.43%,Lake County,36.60%,59.50%,6.01%,12.06%,55.16%,20.96%,18.28%,Eastern Standard Time,N/A,N/A,N/A,N/A,111,N/A,7.7,66,106,6.3,18.0,FL-12925,28.5325274,-81.7207543,69%,67%,65%,55%,59%,81.8,61,72,N/A,N/A,N/A,N/A,N/A,N/A,N/A,0
Eustis,Florida,21010,1924,Orlando-Kissimmee-Sanford,2639374,$52074,19.03%,41,$330000,1719,$192,35,63.61%,$797,45.7%,247,2500,15.98%,5.16%,61.37%,Lake County,36.60%,59.50%,0.55%,21.86%,57.5%,17.19%,12.21%,Eastern Standard Time,N/A,N/A,N/A,N/A,119,N/A,7.7,64,106,6.3,10.92,FL-21350,28.8563106,-81.6771844,69%,67%,65%,55%,59%,81.8,61,72,N/A,N/A,N/A,N/A,N/A,N/A,N/A,0
Ferndale,Florida,518,193,Orlando-Kissimmee-Sanford,2639374,$72122,41.24%,50,$901000,2496,$361,26,100.0%,$1558,31.25%,N/A,N/A,0.0%,0.0%,80.5%,Lake County,36.60%,59.50%,0.0%,0.0%,93.82%,3.67%,0.0%,Eastern Standard Time,N/A,N/A,N/A,N/A,111,N/A,7.7,66,106,6.3,2.68,FL-22225,28.6220133,-81.7013943,69%,67%,65%,55%,59%,81.8,61,72,N/A,N/A,N/A,N/A,N/A,N/A,N/A,0
Four Corners,Florida,45946,966,Orlando-Kissimmee-Sanford,2639374,$57980,30.47%,36,$436000,1991,$219,18,53.28%,$1487,50.03%,N/A,N/A,11.74%,5.55%,67.62%,Lake County,36.60%,59.50%,1.62%,10.11%,53.02%,34.82%,14.3%,Eastern Standard Time,N/A,N/A,N/A,N/A,111,N/A,7.7,62,106,6.3,47.54,FL-24581,28.3330247,-81.6472441,69%,67%,65%,55%,59%,81.8,61,72,N/A,N/A,N/A,N/A,N/A,N/A,N/A,0
Fruitland Park,Florida,9185,1320,Orlando-Kissimmee-Sanford,2639374,$58566,30.89%,56,$255000,1386,$184,35,75.95%,$973,48.83%,219,1042,13.57%,7.97%,43.6%,Lake County,36.60%,59.50%,0.34%,12.43%,80.85%,5.75%,4.52%,Eastern Standard Time,N/A,N/A,N/A,N/A,115,N/A,7.7,64,106,6.3,6.96,FL-24975,28.8565424,-81.9021625,69%,67%,65%,55%,59%,81.8,61,72,N/A,N/A,N/A,N/A,N/A,N/A,N/A,0
Groveland,Florida,15109,768,Orlando-Kissimmee-Sanford,2639374,$65482,33.4%,41,$378000,1862,$203,13,79.2%,$1517,48.68%,165,1499,11.64%,6.75%,57.6%,Lake County,36.60%,59.50%,5.49%,15.6%,50.12%,29.08%,12.48%,Eastern Standard Time,N/A,N/A,N/A,N/A,111,N/A,7.7,67,106,6.3,19.67,FL-27800,28.6098216,-81.8245332,69%,67%,65%,55%,59%,81.8,61,72,N/A,N/A,N/A,N/A,N/A,N/A,N/A,0
Howey-in-the-Hills,Florida,1837,581,Orlando-Kissimmee-Sanford,2639374,$67344,28.67%,52,$492000,2982,$165,41,81.22%,$1171,40.32%,253,1265,3.38%,3.93%,54.89%,Lake County,36.60%,59.50%,0.0%,1.8%,80.68%,15.62%,3.38%,Eastern Standard Time,N/A,N/A,N/A,N/A,112,N/A,7.7,68,106,6.3,3.16,FL-32775,28.7097699,-81.7798204,69%,67%,65%,55%,59%,81.8,61,72,N/A,N/A,N/A,N/A,N/A,N/A,N/A,0
Lady Lake,Florida,15695,1893,Orlando-Kissimmee-Sanford,2639374,$40322,20.67%,67,$320000,1649,$194,28,70.2%,$1056,42.88%,101,1774,13.23%,5.24%,35.63%,Lake County,36.60%,59.50%,2.74%,4.7%,84.7%,6.04%,4.29%,Eastern Standard Time,N/A,N/A,N/A,N/A,115,N/A,7.7,62,106,6.3,8.29,FL-37375,28.9240344,-81.9299488,69%,67%,65%,55%,59%,81.8,61,72,N/A,N/A,N/A,N/A,N/A,N/A,N/A,0
Lake Kathryn,Florida,737,263,Orlando-Kissimmee-Sanford,2639374,$38173,7.01%,42,$155000,1006,$154,48,63.77%,$1294,62.78%,N/A,N/A,26.73%,5.8%,60.35%,Lake County,36.60%,59.50%,1.36%,0.0%,98.64%,0.0%,1.36%,Eastern Standard Time,N/A,N/A,N/A,N/A,120,N/A,7.0,65,106,6.3,2.8,FL-38162,29.0072158,-81.4905871,64%,65%,59%,60%,64%,73.4,61,71,N/A,N/A,N/A,N/A,N/A,N/A,N/A,0
Lake Mack-Forest Hills,Florida,2425,501,Orlando-Kissimmee-Sanford,2639374,$22482,11.68%,40,N/A,N/A,N/A,36,49.32%,$580,85.37%,N/A,N/A,16.74%,30.47%,81.42%,Lake County,36.60%,59.50%,0.0%,0.0%,93.32%,6.68%,0.0%,Eastern Standard Time,N/A,N/A,N/A,N/A,120,N/A,7.0,65,106,6.3,4.84,FL-38332,29.0007238,-81.4239843,64%,65%,59%,60%,64%,73.4,61,71,N/A,N/A,N/A,N/A,N/A,N/A,N/A,0
Leesburg,Florida,23142,602,Orlando-Kissimmee-Sanford,2639374,$38026,14.66%,42,$311000,1646,$189,36,50.02%,$926,53.65%,731,5075,20.75%,8.92%,50.68%,Lake County,36.60%,59.50%,1.94%,22.86%,49.49%,25.28%,10.9%,Eastern Standard Time,N/A,N/A,N/A,N/A,111,N/A,7.7,61,106,6.3,38.45,FL-39875,28.7420022,-81.8628145,69%,67%,65%,55%,59%,81.8,61,72,N/A,N/A,N/A,N/A,N/A,N/A,N/A,0
Lisbon,Florida,479,272,Orlando-Kissimmee-Sanford,2639374,$74070,0.0%,55,N/A,N/A,N/A,32,78.29%,N/A,58.04%,N/A,N/A,12.73%,0.0%,38.41%,Lake County,36.60%,59.50%,0.0%,0.0%,84.97%,15.03%,0.0%,Eastern Standard Time,N/A,N/A,N/A,N/A,113,N/A,7.7,70,106,6.3,1.76,FL-40750,28.8823416,-81.7812585,69%,67%,65%,55%,59%,81.8,61,72,N/A,N/A,N/A,N/A,N/A,N/A,N/A,0
Mascotte,Florida,6031,487,Orlando-Kissimmee-Sanford,2639374,$56173,6.61%,33,$362000,2155,$168,23,73.88%,$965,54.36%,819,2158,15.1%,3.4%,64.39%,Lake County,36.60%,59.50%,0.0%,17.36%,49.74%,32.12%,10.78%,Eastern Standard Time,N/A,N/A,N/A,N/A,111,N/A,7.7,67,106,6.3,12.38,FL-43425,28.6110025,-81.9106617,69%,67%,65%,55%,59%,81.8,61,72,N/A,N/A,N/A,N/A,N/A,N/A,N/A,0
Minneola,Florida,12223,1098,Orlando-Kissimmee-Sanford,2639374,$72764,25.95%,38,$402000,2030,$198,17,63.71%,$1564,42.03%,119,863,6.07%,5.1%,65.89%,Lake County,36.60%,59.50%,5.51%,9.59%,58.13%,24.9%,16.64%,Eastern Standard Time,N/A,N/A,N/A,N/A,111,N/A,7.7,67,106,6.3,11.13,FL-45900,28.6067782,-81.7321948,69%,67%,65%,55%,59%,81.8,61,72,N/A,N/A,N/A,N/A,N/A,N/A,N/A,0
Montverde,Florida,1917,1148,Orlando-Kissimmee-Sanford,2639374,$96477,35.2%,38,$695000,2683,$259,20,84.3%,$1761,39.77%,N/A,N/A,1.15%,6.33%,64.64%,Lake County,36.60%,59.50%,0.47%,5.16%,78.87%,11.79%,6.62%,Eastern Standard Time,N/A,N/A,N/A,N/A,111,N/A,7.7,66,106,6.3,1.67,FL-46525,28.5971143,-81.678656,69%,67%,65%,55%,59%,81.8,61,72,N/A,N/A,N/A,N/A,N/A,N/A,N/A,0
Mount Dora,Florida,14201,1766,Orlando-Kissimmee-Sanford,2639374,$51964,34.26%,49,$404000,1757,$230,31,58.59%,$1079,48.76%,441,3919,14.6%,6.61%,52.49%,Lake County,36.60%,59.50%,0.46%,19.83%,61.4%,13.29%,7.7%,Eastern Standard Time,N/A,N/A,N/A,N/A,112,N/A,7.7,61,106,6.3,8.04,FL-47050,28.8142555,-81.6343521,69%,67%,65%,55%,59%,81.8,61,72,N/A,N/A,N/A,N/A,N/A,N/A,N/A,0
Mount Plymouth,Florida,4812,1665,Orlando-Kissimmee-Sanford,2639374,$66029,12.36%,40,$330000,1594,$207,31,77.56%,$1108,49.83%,N/A,N/A,6.82%,1.7%,69.18%,Lake County,36.60%,59.50%,0.0%,17.68%,70.78%,10.45%,2.31%,Eastern Standard Time,N/A,N/A,N/A,N/A,119,N/A,7.7,64,106,6.3,2.89,FL-47125,28.8024176,-81.5350476,69%,67%,65%,55%,59%,81.8,61,72,N/A,N/A,N/A,N/A,N/A,N/A,N/A,0
Okahumpka,Florida,143,572,Orlando-Kissimmee-Sanford,2639374,$0,9.79%,68,$380000,1184,$321,32,100.0%,N/A,38.46%,N/A,N/A,0.0%,0.0%,51.75%,Lake County,36.60%,59.50%,0.0%,0.0%,100.0%,0.0%,0.0%,Eastern Standard Time,N/A,N/A,N/A,N/A,110,N/A,7.7,67,106,6.3,0.25,FL-51150,28.7459198,-81.8961934,69%,67%,65%,55%,59%,81.8,61,72,N/A,N/A,N/A,N/A,N/A,N/A,N/A,0
Paisley,Florida,1301,414,Orlando-Kissimmee-Sanford,2639374,$60721,2.32%,35,$155000,1006,$154,33,89.58%,N/A,36.07%,N/A,N/A,7.72%,8.91%,58.99%,Lake County,36.60%,59.50%,0.0%,0.08%,82.32%,16.22%,3.46%,Eastern Standard Time,N/A,N/A,N/A,N/A,120,N/A,7.0,65,106,6.3,3.14,FL-53850,28.9850005,-81.5404461,69%,67%,65%,60%,64%,73.4,61,71,N/A,N/A,N/A,N/A,N/A,N/A,N/A,0
Pine Lakes,Florida,1127,704,Orlando-Kissimmee-Sanford,2639374,$56250,22.61%,25,N/A,N/A,N/A,34,26.89%,$952,32.9%,N/A,N/A,10.83%,23.43%,65.95%,Lake County,36.60%,59.50%,0.0%,0.0%,99.82%,0.0%,0.0%,Eastern Standard Time,N/A,N/A,N/A,N/A,119,N/A,7.0,64,106,6.3,1.6,FL-56865,28.9390302,-81.430842,69%,67%,65%,60%,64%,73.4,61,71,N/A,N/A,N/A,N/A,N/A,N/A,N/A,0
Pittman,Florida,249,198,Orlando-Kissimmee-Sanford,2639374,$52174,10.91%,60,N/A,N/A,N/A,27,69.48%,N/A,49.38%,N/A,N/A,38.15%,6.76%,32.17%,Lake County,36.60%,59.50%,2.01%,30.52%,67.47%,0.0%,2.01%,Eastern Standard Time,N/A,N/A,N/A,N/A,119,N/A,7.0,65,106,6.3,1.26,FL-57380,28.9967288,-81.6461769,69%,67%,65%,60%,64%,73.4,61,71,N/A,N/A,N/A,N/A,N/A,N/A,N/A,0
Silver Lake,Florida,2225,1190,Orlando-Kissimmee-Sanford,2639374,$71667,40.76%,44,$491000,2790,$176,32,90.92%,$871,37.7%,N/A,N/A,11.87%,9.41%,55.72%,Lake County,36.60%,59.50%,0.0%,3.91%,84.76%,9.21%,7.64%,Eastern Standard Time,N/A,N/A,N/A,N/A,113,N/A,7.7,67,106,6.3,1.87,FL-66062,28.8425589,-81.8009986,69%,67%,65%,55%,59%,81.8,61,72,N/A,N/A,N/A,N/A,N/A,N/A,N/A,0
Sorrento,Florida,140,113,Orlando-Kissimmee-Sanford,2639374,$49441,0.0%,36,$365000,1772,$206,34,15.71%,N/A,27.14%,N/A,N/A,0.0%,0.0%,100.0%,Lake County,36.60%,59.50%,0.0%,0.0%,30.71%,69.29%,76.43%,Eastern Standard Time,N/A,N/A,N/A,N/A,119,N/A,7.7,64,106,6.3,1.24,FL-66975,28.8087217,-81.5631657,69%,67%,65%,55%,59%,81.8,61,72,N/A,N/A,N/A,N/A,N/A,N/A,N/A,0
Tavares,Florida,17228,1414,Orlando-Kissimmee-Sanford,2639374,$43249,25.04%,54,$344000,1737,$198,29,66.97%,$996,49.63%,261,1519,8.89%,6.54%,42.46%,Lake County,36.60%,59.50%,1.44%,13.66%,71.52%,11.63%,7.88%,Eastern Standard Time,N/A,N/A,N/A,N/A,112,N/A,7.7,67,106,6.3,12.18,FL-71225,28.7497732,-81.7571918,69%,67%,65%,55%,59%,81.8,61,72,N/A,N/A,N/A,N/A,N/A,N/A,N/A,0
Umatilla,Florida,3814,1062,Orlando-Kissimmee-Sanford,2639374,$54534,20.52%,59,$289000,1762,$164,33,65.74%,$1057,44.89%,181,2388,11.88%,8.17%,42.15%,Lake County,36.60%,59.50%,0.0%,0.79%,89.22%,10.51%,6.69%,Eastern Standard Time,N/A,N/A,N/A,N/A,119,N/A,7.0,67,106,6.3,3.59,FL-73025,28.9272437,-81.6651005,69%,67%,65%,60%,64%,73.4,61,71,N/A,N/A,N/A,N/A,N/A,N/A,N/A,0
Yalaha,Florida,1547,273,Orlando-Kissimmee-Sanford,2639374,$87819,27.54%,66,$380000,1538,$247,34,91.08%,N/A,27.53%,N/A,N/A,9.11%,2.85%,32.59%,Lake County,36.60%,59.50%,1.03%,12.02%,83.32%,2.78%,2.71%,Eastern Standard Time,N/A,N/A,N/A,N/A,110,N/A,7.7,68,106,6.3,5.67,FL-78900,28.7509155,-81.8193946,69%,67%,65%,55%,59%,81.8,61,72,N/A,N/A,N/A,N/A,N/A,N/A,N/A,0
