City,State,Population,People per sq mi,Metro Name,Metro population,Median household income,% with at least Bachelor's degree,Median age,Median home price,Median home sqft,Median home cost per sqft,Median home age,Homeownership Rate,Avg Apartment Monthly Rent,Single Population,Num Violent Crimes Per 100k residents,Num Property Crimes Per 100k residents,Poverty Rate,Unemployment rate,Labor Force Participation rate,County,% Democrat,% Republican,% Asian,% Black,% Non-Hispanic White,% Hispanic,Foreign Born %,Timezone,Hottest month's avg high (F),Coldest month's avg high (F),Hottest high minus coldest high,Annual rainfall (in),Annual days of precipitation,Annual days of sunshine,Annual snowfall (in),Avg Summer Dew Point,Avg Annual Dew Point,Average yearly windspeed (mph),Air quality Index,Elevation (ft),UV Index,Land Area (sq mi),Fips Code,Latitude,Longitude
Courtland,Alabama,896,304,Decatur,152740,$35417,7.6%,35,N/A,N/A,N/A,40,73.66%,$450,58.63%,N/A,N/A,37.39%,11.34%,34.85%,Lawrence County,24.50%,73.10%,0.0%,49.11%,49.22%,0.78%,0.89%,Central Standard Time,89,50,39,56,118,200,2,67.1,50.8,6,59,590,5.2,2.95,AL-18040,34.6703781,-87.3263496
Hatton,Alabama,59,44,Decatur,152740,$75893,28.81%,66,N/A,N/A,N/A,46,100.0%,N/A,16.95%,N/A,N/A,0.0%,0.0%,33.9%,Lawrence County,24.50%,73.10%,0.0%,0.0%,100.0%,0.0%,0.0%,Central Standard Time,90,50,40,56,112,201,2,67.1,50.8,N/A,61,590,5.2,1.33,AL-33544,34.561067,-87.4135565
Hillsboro,Alabama,590,314,Decatur,152740,$51494,18.16%,51,N/A,N/A,N/A,34,79.32%,N/A,57.92%,N/A,N/A,4.99%,2.84%,67.18%,Lawrence County,24.50%,73.10%,0.0%,93.56%,4.41%,0.0%,0.0%,Central Standard Time,90,50,40,56,122,199,2,67.1,50.8,6,57,590,5.2,1.88,AL-34816,34.6407224,-87.1838174
Moulton,Alabama,3237,540,Decatur,152740,$34227,17.12%,48,$145000,1559,$93,44,60.17%,$482,55.9%,N/A,N/A,20.52%,5.52%,42.25%,Lawrence County,24.50%,73.10%,0.22%,16.81%,78.34%,0.0%,0.46%,Central Standard Time,89,50,39,56,111,199,2,67.1,50.8,6,59,590,5.2,5.99,AL-51600,34.4843697,-87.283125
North Courtland,Alabama,783,1186,Decatur,152740,$26217,3.16%,39,N/A,N/A,N/A,34,63.35%,$486,61.45%,N/A,N/A,22.48%,20.88%,44.03%,Lawrence County,24.50%,73.10%,0.0%,99.74%,0.26%,0.51%,0.0%,Central Standard Time,89,50,39,56,118,199,2,67.1,50.8,N/A,59,590,5.2,0.66,AL-55044,34.6787805,-87.3082515
Town Creek,Alabama,943,352,Decatur,152740,$42125,8.28%,34,$118000,2622,$45,41,58.75%,$522,48.38%,N/A,N/A,20.78%,2.82%,52.05%,Lawrence County,24.50%,73.10%,0.0%,28.21%,58.75%,0.85%,0.21%,Central Standard Time,90,50,40,56,112,204,2,67.1,50.8,6,59,590,5.2,2.68,AL-76584,34.6812012,-87.4061342
