City,State,Population,People per sq mi,Metro Name,Metro population,Median household income,% with at least Bachelor's degree,Median age,Median home price,Median home sqft,Median home cost per sqft,Median home age,Homeownership Rate,Avg Apartment Monthly Rent,Single Population,Num Violent Crimes Per 100k residents,Num Property Crimes Per 100k residents,Poverty Rate,Unemployment rate,Labor Force Participation rate,County,% Democrat,% Republican,% Asian,% Black,% Non-Hispanic White,% Hispanic,Foreign Born %,Timezone,Hottest month's avg high (F),Coldest month's avg high (F),Hottest high minus coldest high,Hottest month's avg low (F),Coldest month's avg low (F),Annual Relative Humidity (afternoon),Summer Relative Humidity (afternoon),Annual dew point (F),Average summer dew point (F),Hottest month's avg heat index high (F),Annual Sunshine - Percentage of Possible,Summer Sunshine - Percentage of Possible,Winter Sunshine - Percentage of Possible,Annual rainfall (in),Summer rainfall (in),Winter rainfall (in),Percent of days that include precipitation,Percent of Summer days that include precipitation,Percent of Winter days that include precipitation,Annual snowfall (in),Days of snow per year,Average yearly windspeed (mph),Number of days with thunder per year,Air quality Index,Elevation (ft),UV Index,Land Area (sq mi),Fips Code,Latitude,Longitude
Acton,California,7721,197,Los Angeles-Long Beach-Anaheim,13202558,$110000,29.26%,46,$835000,2500,$334,34,91.1%,$1755,42.06%,N/A,N/A,7.79%,1.71%,56.2%,Los Angeles County,71.80%,22.40%,2.18%,0.39%,57.79%,36.51%,14.12%,Pacific Standard Time,99,58,41,68,35,54%,59%,51,59,125,72%,77%,70%,6.32,0.29,3.69,6.08%,0.88%,13.11%,0.3,0,1.9,4.6,80,2388,6.2,39.26,CA-00212,34.4955892,-118.1857638
Agoura Hills,California,19881,2549,Los Angeles-Long Beach-Anaheim,13202558,$171944,66.5%,47,$1270000,2252,$564,40,80.05%,$3094,40.34%,102,1493,5.65%,5.45%,62.02%,Los Angeles County,71.80%,22.40%,7.87%,0.76%,68.71%,15.26%,17.37%,Pacific Standard Time,97,69,28,61,42,54%,59%,51,59,116,72%,77%,70%,12.62,0.1,7.74,8.82%,0.88%,19.11%,0.0,0,1.9,4.6,64,633,6.2,7.8,CA-00394,34.1510053,-118.7608815
Agua Dulce,California,2768,121,Los Angeles-Long Beach-Anaheim,13202558,$124268,25.33%,57,$950000,3626,$262,38,88.27%,$3406,40.29%,N/A,N/A,10.18%,4.05%,58.37%,Los Angeles County,71.80%,22.40%,3.18%,0.07%,61.02%,28.83%,14.96%,Pacific Standard Time,99,58,41,68,35,54%,59%,51,59,125,72%,77%,70%,11.73,0.13,6.9,12.52%,1.76%,23.78%,0.0,0,1.9,4.6,75,1479,6.2,22.85,CA-00450,34.5044235,-118.3159958
Alhambra,California,81483,10679,Los Angeles-Long Beach-Anaheim,13202558,$85189,39.26%,42,$793000,1317,$602,60,40.73%,$1852,51.51%,189,2061,12.26%,5.58%,63.29%,Los Angeles County,71.80%,22.40%,51.11%,2.52%,8.45%,35.06%,45.86%,Pacific Standard Time,92,68,24,63,45,55%,55%,51,58,101,72%,77%,70%,12.98,0.07,7.91,11.89%,2.97%,22.78%,0.0,0,5.6,4.9,36,333,6.2,7.63,CA-00884,34.0839736,-118.1355139
Alondra Park,California,8262,7443,Los Angeles-Long Beach-Anaheim,13202558,$86064,27.46%,40,$840000,1553,$541,64,53.63%,$1770,51.7%,N/A,N/A,10.02%,3.7%,63.14%,Los Angeles County,71.80%,22.40%,16.0%,2.86%,23.07%,54.35%,38.7%,Pacific Standard Time,80,67,13,65,49,55%,55%,51,58,81,72%,77%,70%,9.44,0.03,6.23,9.56%,0.55%,20.33%,0.0,0,5.6,4.9,51,57,6.2,1.11,CA-01150,33.8884423,-118.3349619
Altadena,California,41921,4949,Los Angeles-Long Beach-Anaheim,13202558,$129123,52.65%,46,$1370000,1663,$824,75,70.72%,$2250,49.07%,N/A,N/A,7.44%,7.34%,63.51%,Los Angeles County,71.80%,22.40%,5.65%,18.02%,41.7%,27.2%,21.05%,Pacific Standard Time,92,68,24,63,45,54%,59%,51,59,103,72%,77%,70%,16.89,0.19,10.39,10.44%,1.32%,20.33%,0.0,0,1.9,4.6,63,1209,6.2,8.47,CA-01290,34.1927258,-118.1345793
Arcadia,California,55550,5082,Los Angeles-Long Beach-Anaheim,13202558,$116142,57.8%,43,$1615000,2466,$655,55,61.84%,$2118,44.24%,142,2288,7.4%,5.5%,58.84%,Los Angeles County,71.80%,22.40%,57.43%,1.22%,19.72%,16.42%,44.01%,Pacific Standard Time,92,68,24,63,45,55%,55%,51,58,101,72%,77%,70%,15.27,0.12,9.56,11.89%,2.97%,22.78%,0.0,0,5.6,4.9,53,834,6.2,10.93,CA-02462,34.1341857,-118.0372976
Artesia,California,16044,9904,Los Angeles-Long Beach-Anaheim,13202558,$97712,31.78%,40,$570000,842,$677,55,52.43%,$2276,49.65%,429,1692,8.88%,9.41%,60.28%,Los Angeles County,71.80%,22.40%,43.33%,5.1%,14.06%,34.37%,49.38%,Pacific Standard Time,84,67,17,66,47,55%,55%,51,58,86,72%,77%,70%,10.34,0.07,7.01,9.42%,1.32%,18.22%,0.0,0,5.6,4.9,50,27,6.2,1.62,CA-02896,33.8675915,-118.0806341
Avalon,California,3373,1167,Los Angeles-Long Beach-Anaheim,13202558,$91713,16.77%,37,$850000,1095,$776,66,30.4%,$2087,49.4%,268,1074,8.04%,0.0%,74.56%,Los Angeles County,71.80%,22.40%,0.12%,0.15%,34.33%,65.4%,27.84%,Pacific Standard Time,79,61,18,63,49,55%,55%,51,58,80,72%,77%,70%,11.6,0.2,7.2,7.62%,1.43%,16.44%,0.0,0,5.6,4.9,88,1464,6.2,2.89,CA-03274,33.354039,-118.3153129
Avocado Heights,California,12934,5748,Los Angeles-Long Beach-Anaheim,13202558,$95000,23.78%,38,$722000,1394,$518,56,74.93%,$2002,50.57%,N/A,N/A,10.6%,8.26%,63.6%,Los Angeles County,71.80%,22.40%,11.04%,1.48%,4.95%,81.78%,29.2%,Pacific Standard Time,92,68,24,63,45,55%,55%,51,58,101,72%,77%,70%,12.06,0.05,7.89,7.59%,0.88%,15.56%,0.0,0,5.6,4.9,44,156,6.2,2.25,CA-03344,34.0391262,-117.9968571
Azusa,California,49318,5105,Los Angeles-Long Beach-Anaheim,13202558,$85727,26.88%,34,$677000,1635,$414,51,51.44%,$1831,59.38%,285,1902,12.57%,5.85%,66.36%,Los Angeles County,71.80%,22.40%,15.04%,2.87%,14.96%,64.9%,31.82%,Pacific Standard Time,92,68,24,63,45,55%,55%,51,58,101,72%,77%,70%,18.31,0.16,11.7,12.38%,2.42%,21.89%,0.0,0,5.6,4.9,57,681,6.2,9.66,CA-03386,34.138582,-117.9123773
Baldwin Park,California,70720,10667,Los Angeles-Long Beach-Anaheim,13202558,$79087,14.29%,37,$675000,1403,$481,57,57.69%,$1817,52.92%,247,1463,13.17%,6.34%,61.71%,Los Angeles County,71.80%,22.40%,22.21%,0.9%,3.04%,72.97%,43.84%,Pacific Standard Time,92,68,24,63,45,55%,55%,51,58,101,72%,77%,70%,13.59,0.12,8.68,12.38%,2.42%,21.89%,0.0,0,5.6,4.9,50,555,6.2,6.63,CA-03666,34.0828597,-117.972126
Bell,California,32830,13080,Los Angeles-Long Beach-Anaheim,13202558,$60641,8.74%,34,$716000,1326,$540,64,36.73%,$1538,62.3%,469,1233,22.83%,7.38%,60.35%,Los Angeles County,71.80%,22.40%,1.28%,2.1%,5.95%,90.04%,41.64%,Pacific Standard Time,85,68,17,66,48,55%,55%,51,58,87,72%,77%,70%,11.39,0.04,7.37,8.9%,0.88%,17.89%,0.0,0,5.6,4.9,32,210,6.2,2.51,CA-04870,33.9800751,-118.1797444
Bell Gardens,California,38661,15716,Los Angeles-Long Beach-Anaheim,13202558,$55372,6.94%,32,N/A,N/A,N/A,61,24.9%,$1658,64.44%,346,1487,21.83%,6.01%,60.24%,Los Angeles County,71.80%,22.40%,0.32%,1.38%,2.08%,96.01%,41.28%,Pacific Standard Time,85,68,17,66,48,55%,55%,51,58,87,72%,77%,70%,12.06,0.05,7.89,7.59%,0.88%,15.56%,0.0,0,5.6,4.9,38,156,6.2,2.46,CA-04996,33.9663212,-118.1550178
Bellflower,California,77396,12646,Los Angeles-Long Beach-Anaheim,13202558,$77602,20.06%,36,$700000,1074,$652,54,40.39%,$1771,57.2%,423,1950,13.18%,7.77%,65.81%,Los Angeles County,71.80%,22.40%,11.98%,11.54%,12.63%,60.79%,31.1%,Pacific Standard Time,84,67,17,66,47,55%,55%,51,58,86,72%,77%,70%,10.34,0.07,7.01,9.42%,1.32%,18.22%,0.0,0,5.6,4.9,47,27,6.2,6.12,CA-04982,33.8880368,-118.1271131
Beverly Hills,California,31955,5596,Los Angeles-Long Beach-Anaheim,13202558,$127979,69.39%,48,$1900000,1706,$1114,61,50.49%,$2805,47.08%,301,4381,9.03%,8.15%,60.77%,Los Angeles County,71.80%,22.40%,11.89%,1.93%,73.7%,6.23%,37.08%,Pacific Standard Time,80,67,13,63,52,54%,59%,51,59,81,72%,77%,70%,13.77,0.06,8.7,8.96%,1.65%,18.0%,0.0,0,1.9,4.6,21,393,6.2,5.71,CA-06308,34.0785624,-118.4021169
Bradbury,California,788,402,Los Angeles-Long Beach-Anaheim,13202558,$158750,60.0%,54,N/A,N/A,N/A,54,88.0%,$3501,30.64%,91,918,4.7%,6.77%,67.09%,Los Angeles County,71.80%,22.40%,35.66%,3.17%,44.92%,16.12%,33.38%,Pacific Standard Time,92,68,24,63,45,55%,55%,51,58,101,72%,77%,70%,18.31,0.16,11.7,12.38%,2.42%,21.89%,0.0,0,5.6,4.9,61,681,6.2,1.96,CA-07946,34.1535625,-117.968372
Burbank,California,105165,6072,Los Angeles-Long Beach-Anaheim,13202558,$95816,46.03%,40,$1170000,1527,$766,62,48.33%,$2089,51.94%,182,2522,10.73%,6.94%,66.47%,Los Angeles County,71.80%,22.40%,11.85%,3.41%,54.1%,24.58%,29.31%,Pacific Standard Time,89,69,20,63,42,54%,59%,51,59,96,72%,77%,70%,12.75,0.06,8.03,9.21%,0.88%,18.78%,0.0,0,1.9,4.6,43,600,6.2,17.32,CA-08954,34.1879101,-118.323487
Calabasas,California,22869,1668,Los Angeles-Long Beach-Anaheim,13202558,$157938,71.34%,43,$1435000,2289,$627,36,67.58%,$3070,42.35%,145,1378,9.24%,10.16%,64.64%,Los Angeles County,71.80%,22.40%,12.6%,2.52%,70.52%,9.0%,28.03%,Pacific Standard Time,97,69,28,61,42,54%,59%,51,59,116,72%,77%,70%,12.24,0.07,7.87,8.82%,0.88%,19.11%,0.0,0,1.9,4.6,63,723,6.2,13.71,CA-09598,34.1374917,-118.6688306
Carson,California,93523,4993,Los Angeles-Long Beach-Anaheim,13202558,$107391,29.09%,42,$710000,1507,$471,55,74.41%,$1914,54.28%,482,2179,9.01%,6.87%,61.17%,Los Angeles County,71.80%,22.40%,26.94%,22.47%,6.36%,38.93%,35.18%,Pacific Standard Time,78,66,12,63,46,55%,55%,51,58,78,72%,77%,70%,10.99,0.07,7.31,9.42%,1.32%,18.22%,0.0,0,5.6,4.9,50,81,6.2,18.73,CA-11530,33.8374063,-118.2559323
Castaic,California,18479,2545,Los Angeles-Long Beach-Anaheim,13202558,$132153,41.36%,37,$815000,2411,$338,30,85.22%,$1751,40.31%,N/A,N/A,4.04%,5.07%,68.59%,Los Angeles County,71.80%,22.40%,11.91%,1.49%,43.11%,36.2%,21.44%,Pacific Standard Time,89,51,38,66,37,54%,59%,51,59,96,72%,77%,70%,12.87,0.1,7.82,12.52%,1.76%,23.78%,0.0,0,1.9,4.6,67,651,6.2,7.26,CA-11796,34.4817802,-118.6316463
Cerritos,California,48340,5537,Los Angeles-Long Beach-Anaheim,13202558,$133953,57.12%,47,$981000,1643,$597,46,74.55%,$2909,40.65%,250,3226,5.87%,4.95%,58.47%,Los Angeles County,71.80%,22.40%,62.15%,6.78%,11.76%,14.9%,43.74%,Pacific Standard Time,88,69,19,67,46,55%,55%,51,58,93,72%,77%,70%,9.75,0.07,6.37,10.25%,1.1%,19.89%,0.0,0,5.6,4.9,50,87,6.2,8.73,CA-12552,33.8677425,-118.0686028
Charter Oak,California,9414,10123,Los Angeles-Long Beach-Anaheim,13202558,$84101,32.09%,39,$518000,1104,$469,49,60.91%,$1838,50.76%,N/A,N/A,10.44%,7.87%,68.82%,Los Angeles County,71.80%,22.40%,9.65%,9.07%,18.31%,60.06%,28.69%,Pacific Standard Time,95,67,28,66,44,55%,55%,51,58,108,72%,77%,70%,13.59,0.12,8.68,12.38%,2.42%,21.89%,0.0,0,5.6,4.9,56,555,6.2,0.93,CA-12734,34.1024913,-117.8562822
Citrus,California,10813,12288,Los Angeles-Long Beach-Anaheim,13202558,$101179,15.64%,36,$750000,1325,$566,63,67.76%,$2204,56.92%,N/A,N/A,9.32%,6.08%,66.06%,Los Angeles County,71.80%,22.40%,5.86%,0.5%,11.81%,78.86%,31.49%,Pacific Standard Time,92,68,24,63,45,55%,55%,51,58,101,72%,77%,70%,13.59,0.12,8.68,12.38%,2.42%,21.89%,0.0,0,5.6,4.9,57,555,6.2,0.88,CA-13560,34.1150059,-117.8939755
Claremont,California,36553,2740,Los Angeles-Long Beach-Anaheim,13202558,$122127,59.26%,40,$888000,1973,$450,54,70.85%,$2125,53.58%,139,2110,5.89%,5.77%,59.91%,Los Angeles County,71.80%,22.40%,14.61%,5.82%,46.32%,26.8%,15.56%,Pacific Standard Time,95,67,28,66,44,55%,55%,51,58,108,72%,77%,70%,16.98,0.15,10.85,10.0%,1.21%,19.56%,0.3,0,5.6,4.9,55,1626,6.2,13.34,CA-13756,34.1258931,-117.7153319
Commerce,California,12072,1849,Los Angeles-Long Beach-Anaheim,13202558,$71768,11.39%,36,$510000,1102,$463,62,59.33%,$1420,53.72%,1077,7841,13.65%,4.51%,56.9%,Los Angeles County,71.80%,22.40%,1.85%,0.82%,2.44%,94.42%,34.92%,Pacific Standard Time,85,68,17,66,48,55%,55%,51,58,87,72%,77%,70%,12.06,0.05,7.89,7.59%,0.88%,15.56%,0.0,0,5.6,4.9,23,156,6.2,6.53,CA-14974,33.9962918,-118.151882
Compton,California,93525,9325,Los Angeles-Long Beach-Anaheim,13202558,$74270,10.93%,34,$580000,1309,$443,63,56.36%,$1601,58.34%,1142,2427,17.07%,7.11%,63.58%,Los Angeles County,71.80%,22.40%,1.2%,25.27%,0.74%,71.19%,30.63%,Pacific Standard Time,80,67,13,65,49,55%,55%,51,58,81,72%,77%,70%,9.44,0.03,6.23,9.56%,0.55%,20.33%,0.0,0,5.6,4.9,44,57,6.2,10.03,CA-15044,33.8929626,-118.2275051
Covina,California,50143,7123,Los Angeles-Long Beach-Anaheim,13202558,$94792,27.44%,38,$760000,1508,$504,56,58.82%,$1839,53.59%,356,2477,8.94%,6.3%,68.84%,Los Angeles County,71.80%,22.40%,13.96%,3.77%,19.87%,59.12%,24.71%,Pacific Standard Time,92,68,24,63,45,55%,55%,51,58,101,72%,77%,70%,13.59,0.12,8.68,12.38%,2.42%,21.89%,0.0,0,5.6,4.9,53,555,6.2,7.04,CA-16742,34.0903005,-117.8818048
Cudahy,California,22325,18919,Los Angeles-Long Beach-Anaheim,13202558,$52748,6.21%,31,$470000,951,$494,52,15.35%,$1667,62.31%,373,898,27.9%,8.86%,62.12%,Los Angeles County,71.80%,22.40%,0.14%,0.64%,1.44%,97.73%,43.12%,Pacific Standard Time,85,68,17,66,48,55%,55%,51,58,87,72%,77%,70%,11.39,0.04,7.37,8.9%,0.88%,17.89%,0.0,0,5.6,4.9,32,210,6.2,1.18,CA-17498,33.96313,-118.1831273
Culver City,California,39993,7826,Los Angeles-Long Beach-Anaheim,13202558,$122312,64.91%,41,$1285000,1647,$780,58,57.57%,$2683,47.73%,463,4195,6.46%,5.63%,69.16%,Los Angeles County,71.80%,22.40%,19.33%,8.01%,45.92%,18.6%,22.88%,Pacific Standard Time,79,66,13,64,48,54%,59%,51,59,80,72%,77%,70%,11.64,0.04,7.14,9.64%,1.32%,18.78%,0.0,0,1.9,4.6,21,84,6.2,5.11,CA-17568,34.0057857,-118.3968285
Del Aire,California,11115,11005,Los Angeles-Long Beach-Anaheim,13202558,$142566,40.31%,37,$870000,1250,$696,65,73.87%,$2938,43.9%,N/A,N/A,8.41%,4.88%,66.24%,Los Angeles County,71.80%,22.40%,14.9%,5.43%,25.93%,46.93%,29.14%,Pacific Standard Time,77,66,11,65,50,55%,55%,51,58,77,72%,77%,70%,9.82,0.06,6.27,9.01%,1.1%,17.89%,0.0,0,5.6,4.9,24,90,6.2,1.01,CA-18352,33.9167384,-118.3692904
Desert View Highlands,California,3389,7702,Los Angeles-Long Beach-Anaheim,13202558,$68958,15.89%,35,$410000,1285,$319,48,50.78%,$1627,43.25%,N/A,N/A,1.83%,7.29%,61.66%,Los Angeles County,71.80%,22.40%,11.21%,13.22%,9.03%,63.85%,30.78%,Pacific Standard Time,99,58,41,68,35,54%,59%,51,59,125,72%,77%,70%,6.32,0.29,3.69,6.08%,0.88%,13.11%,0.3,0,1.9,4.6,75,2388,6.2,0.44,CA-19052,34.5902629,-118.1535367
Diamond Bar,California,53750,3615,Los Angeles-Long Beach-Anaheim,13202558,$106602,52.66%,46,$1000000,2053,$487,41,75.04%,$2422,41.91%,127,1610,9.11%,5.06%,62.32%,Los Angeles County,71.80%,22.40%,62.05%,3.05%,13.07%,16.97%,46.84%,Pacific Standard Time,89,70,19,67,48,55%,55%,51,58,95,72%,77%,70%,13.09,0.14,8.01,9.37%,2.42%,17.89%,0.0,0,5.6,4.9,50,855,6.2,14.87,CA-19192,33.9991622,-117.8161203
Downey,California,111793,9008,Los Angeles-Long Beach-Anaheim,13202558,$87400,25.59%,37,$770000,1464,$526,61,51.48%,$1892,54.6%,313,2201,9.14%,5.77%,65.7%,Los Angeles County,71.80%,22.40%,7.37%,3.7%,12.07%,75.26%,31.86%,Pacific Standard Time,84,67,17,66,47,55%,55%,51,58,86,72%,77%,70%,12.06,0.05,7.89,7.59%,0.88%,15.56%,0.0,0,5.6,4.9,40,156,6.2,12.41,CA-19766,33.937864,-118.1311448
Duarte,California,21921,3267,Los Angeles-Long Beach-Anaheim,13202558,$97952,33.15%,45,$727000,1308,$556,53,67.27%,$1991,51.33%,255,1415,7.84%,6.28%,62.8%,Los Angeles County,71.80%,22.40%,18.38%,4.92%,23.11%,50.59%,32.41%,Pacific Standard Time,92,68,24,63,45,55%,55%,51,58,101,72%,77%,70%,18.31,0.16,11.7,12.38%,2.42%,21.89%,0.0,0,5.6,4.9,58,681,6.2,6.71,CA-19990,34.1609713,-117.9504422
East Los Angeles,California,114617,15385,Los Angeles-Long Beach-Anaheim,13202558,$68378,10.62%,34,$644000,1484,$434,70,36.77%,$1431,60.01%,N/A,N/A,16.59%,5.98%,62.51%,Los Angeles County,71.80%,22.40%,1.48%,0.44%,2.09%,95.58%,39.36%,Pacific Standard Time,85,68,17,66,48,55%,55%,51,58,87,72%,77%,70%,11.39,0.04,7.37,8.9%,0.88%,17.89%,0.0,0,5.6,4.9,28,210,6.2,7.45,CA-20802,34.0326213,-118.16915
East Pasadena,California,5592,4236,Los Angeles-Long Beach-Anaheim,13202558,$105714,53.19%,44,$2980000,4730,$630,69,69.15%,$2038,47.13%,N/A,N/A,6.43%,2.17%,61.01%,Los Angeles County,71.80%,22.40%,34.03%,2.65%,26.36%,34.64%,38.54%,Pacific Standard Time,92,68,24,63,45,55%,55%,51,58,101,72%,77%,70%,14.75,0.11,9.36,11.89%,2.97%,22.78%,0.0,0,5.6,4.9,51,675,6.2,1.32,CA-20984,34.13776,-118.077541
East Rancho Dominguez,California,14219,17340,Los Angeles-Long Beach-Anaheim,13202558,$67645,7.41%,34,$644000,1610,$400,68,59.26%,$1593,61.13%,N/A,N/A,17.74%,5.63%,59.74%,Los Angeles County,71.80%,22.40%,0.65%,12.34%,0.45%,85.59%,40.83%,Pacific Standard Time,84,67,17,66,47,55%,55%,51,58,86,72%,77%,70%,10.34,0.07,7.01,9.42%,1.32%,18.22%,0.0,0,5.6,4.9,45,27,6.2,0.82,CA-21034,33.8948411,-118.1955858
East San Gabriel,California,23521,10789,Los Angeles-Long Beach-Anaheim,13202558,$107184,44.35%,41,$935000,1646,$568,59,60.43%,$1912,48.21%,N/A,N/A,10.59%,6.23%,64.52%,Los Angeles County,71.80%,22.40%,54.21%,1.25%,15.3%,27.07%,45.92%,Pacific Standard Time,92,68,24,63,45,55%,55%,51,58,101,72%,77%,70%,12.98,0.07,7.91,11.89%,2.97%,22.78%,0.0,0,5.6,4.9,49,333,6.2,2.18,CA-21096,34.11551,-118.0791501
East Whittier,California,10061,9230,Los Angeles-Long Beach-Anaheim,13202558,$105104,34.6%,40,$795000,1368,$581,56,64.79%,$1725,41.25%,N/A,N/A,4.31%,3.25%,63.51%,Los Angeles County,71.80%,22.40%,10.46%,2.8%,31.09%,51.96%,23.02%,Pacific Standard Time,88,69,19,67,46,55%,55%,51,58,93,72%,77%,70%,9.75,0.07,6.37,10.25%,1.1%,19.89%,0.0,0,5.6,4.9,46,87,6.2,1.09,CA-21292,33.9243761,-117.988732
El Monte,California,107066,11199,Los Angeles-Long Beach-Anaheim,13202558,$64484,14.68%,38,$640000,1416,$452,54,41.82%,$1677,56.27%,262,1542,17.24%,6.43%,60.78%,Los Angeles County,71.80%,22.40%,29.33%,0.63%,3.37%,65.09%,49.72%,Pacific Standard Time,92,68,24,63,45,55%,55%,51,58,101,72%,77%,70%,12.98,0.07,7.91,7.59%,0.88%,15.56%,0.0,0,5.6,4.9,45,333,6.2,9.56,CA-22230,34.0739197,-118.0290826
El Segundo,California,16863,3088,Los Angeles-Long Beach-Anaheim,13202558,$149149,62.55%,38,$1775000,1687,$1052,57,49.06%,$2547,49.94%,490,3736,4.36%,5.12%,74.25%,Los Angeles County,71.80%,22.40%,11.55%,2.8%,55.52%,20.76%,13.79%,Pacific Standard Time,77,66,11,65,50,55%,55%,51,58,77,72%,77%,70%,9.82,0.06,6.27,9.01%,1.1%,17.89%,0.0,0,5.6,4.9,19,90,6.2,5.46,CA-22412,33.9113131,-118.4309854
Elizabeth Lake,California,1677,270,Los Angeles-Long Beach-Anaheim,13202558,$102333,24.28%,36,$350000,1108,$316,37,79.72%,$1833,48.59%,N/A,N/A,5.25%,8.64%,64.28%,Los Angeles County,71.80%,22.40%,3.1%,2.62%,74.18%,15.32%,6.08%,Pacific Standard Time,93,55,38,70,38,54%,59%,51,59,107,72%,77%,70%,13.1,0.16,8.05,10.08%,1.43%,19.56%,0.3,0,1.9,4.6,79,2799,6.2,6.2,CA-21964,34.658949,-118.3785266
Florence-Graham,California,61723,17585,Los Angeles-Long Beach-Anaheim,13202558,$61216,7.49%,31,$600000,1460,$411,68,39.4%,$1475,61.24%,N/A,N/A,21.44%,9.83%,61.16%,Los Angeles County,71.80%,22.40%,0.34%,5.64%,0.67%,93.4%,40.68%,Pacific Standard Time,85,68,17,66,48,55%,55%,51,58,87,72%,77%,70%,11.39,0.04,7.37,8.9%,0.88%,17.89%,0.0,0,5.6,4.9,25,210,6.2,3.51,CA-24477,33.9681607,-118.2446675
Gardena,California,59765,10251,Los Angeles-Long Beach-Anaheim,13202558,$79291,27.96%,40,$764000,1513,$505,56,50.2%,$1761,55.09%,541,2008,11.05%,5.21%,65.4%,Los Angeles County,71.80%,22.40%,24.86%,18.86%,7.5%,43.89%,36.29%,Pacific Standard Time,80,67,13,65,49,55%,55%,51,58,81,72%,77%,70%,9.44,0.03,6.23,9.56%,0.55%,20.33%,0.0,0,5.6,4.9,44,57,6.2,5.83,CA-28168,33.8943381,-118.3072398
Glendale,California,192270,6308,Los Angeles-Long Beach-Anaheim,13202558,$84262,45.5%,41,$1070000,1531,$699,55,36.39%,$2095,49.92%,114,1631,13.44%,8.17%,62.33%,Los Angeles County,71.80%,22.40%,13.34%,1.66%,62.31%,18.47%,51.04%,Pacific Standard Time,89,69,20,63,42,54%,59%,51,59,96,72%,77%,70%,12.92,0.06,8.02,9.23%,1.21%,18.33%,0.0,0,1.9,4.6,43,468,6.2,30.48,CA-30000,34.181927,-118.2468017
Glendora,California,51350,2632,Los Angeles-Long Beach-Anaheim,13202558,$111915,39.3%,41,$900000,1751,$514,56,70.22%,$2218,46.68%,296,2874,7.36%,6.06%,62.45%,Los Angeles County,71.80%,22.40%,11.79%,2.7%,41.37%,39.67%,18.96%,Pacific Standard Time,95,67,28,66,44,55%,55%,51,58,108,72%,77%,70%,18.31,0.16,11.7,12.38%,2.42%,21.89%,0.3,0,5.6,4.9,60,681,6.2,19.51,CA-30014,34.1449286,-117.8467524
Green Valley (Los Angeles Cnty),California,808,63,Los Angeles-Long Beach-Anaheim,13202558,$85208,25.04%,51,$1139000,2693,$423,59,72.9%,$1766,58.05%,N/A,N/A,12.25%,15.86%,53.42%,Los Angeles County,71.80%,22.40%,0.5%,0.0%,86.76%,10.52%,2.1%,Pacific Standard Time,93,55,38,70,38,54%,59%,51,59,107,72%,77%,70%,15.22,0.15,8.84,12.52%,1.76%,23.78%,0.3,0,1.9,4.6,79,1911,6.2,12.81,CA-31092,34.6172217,-118.4058964
Hacienda Heights,California,54956,4929,Los Angeles-Long Beach-Anaheim,13202558,$106620,36.05%,44,$838000,1700,$493,52,76.51%,$2247,48.69%,N/A,N/A,11.1%,4.95%,59.87%,Los Angeles County,71.80%,22.40%,41.82%,0.94%,12.26%,42.94%,40.15%,Pacific Standard Time,88,69,19,67,46,55%,55%,51,58,93,72%,77%,70%,12.06,0.05,7.89,7.59%,0.88%,15.56%,0.0,0,5.6,4.9,47,156,6.2,11.15,CA-31596,33.9969856,-117.9727582
Hasley Canyon,California,1254,218,Los Angeles-Long Beach-Anaheim,13202558,$120714,41.61%,40,N/A,N/A,N/A,30,91.21%,N/A,35.73%,N/A,N/A,9.41%,20.81%,64.73%,Los Angeles County,71.80%,22.40%,2.39%,0.0%,64.67%,26.4%,7.74%,Pacific Standard Time,89,51,38,66,37,54%,59%,51,59,96,72%,77%,70%,12.87,0.1,7.82,12.52%,1.76%,23.78%,0.0,0,1.9,4.6,70,651,6.2,5.74,CA-32385,34.4817765,-118.666579
Hawthorne,California,85933,14111,Los Angeles-Long Beach-Anaheim,13202558,$72719,24.96%,34,$785000,1258,$624,48,29.78%,$1723,58.55%,728,1700,16.35%,7.83%,68.9%,Los Angeles County,71.80%,22.40%,6.35%,25.2%,9.52%,55.8%,33.77%,Pacific Standard Time,80,67,13,65,49,55%,55%,51,58,81,72%,77%,70%,9.44,0.03,6.23,9.56%,0.55%,20.33%,0.0,0,5.6,4.9,29,57,6.2,6.09,CA-32548,33.9146681,-118.3476894
Hermosa Beach,California,19248,13460,Los Angeles-Long Beach-Anaheim,13202558,$152019,76.5%,42,$2099000,1853,$1133,52,54.23%,$2812,50.07%,262,2307,5.32%,5.62%,70.48%,Los Angeles County,71.80%,22.40%,7.42%,0.59%,72.83%,9.86%,12.19%,Pacific Standard Time,77,66,11,63,48,55%,55%,51,58,77,72%,77%,70%,11.18,0.08,7.15,7.62%,1.43%,16.44%,0.0,0,5.6,4.9,52,129,6.2,1.43,CA-33364,33.8589695,-118.4195358
Hidden Hills,California,2079,1230,Los Angeles-Long Beach-Anaheim,13202558,$250001,72.97%,47,$10500000,7327,$1433,47,88.05%,$3501,34.95%,52,945,11.45%,4.65%,56.12%,Los Angeles County,71.80%,22.40%,1.73%,1.01%,88.46%,5.39%,11.98%,Pacific Standard Time,97,69,28,61,42,54%,59%,51,59,116,72%,77%,70%,12.24,0.07,7.87,8.82%,0.88%,19.11%,0.0,0,1.9,4.6,65,723,6.2,1.69,CA-33518,34.1637444,-118.6612099
Huntington Park,California,53658,17827,Los Angeles-Long Beach-Anaheim,13202558,$56952,8.66%,34,$690000,1453,$475,65,29.77%,$1440,60.29%,787,2741,17.62%,9.57%,64.54%,Los Angeles County,71.80%,22.40%,0.68%,0.8%,1.54%,96.57%,47.06%,Pacific Standard Time,85,68,17,66,48,55%,55%,51,58,87,72%,77%,70%,11.39,0.04,7.37,8.9%,0.88%,17.89%,0.0,0,5.6,4.9,23,210,6.2,3.01,CA-36056,33.9799943,-118.2166825
Industry,California,181,15,Los Angeles-Long Beach-Anaheim,13202558,$62500,14.79%,38,N/A,N/A,N/A,64,10.44%,$1250,70.14%,35820,587064,16.81%,11.67%,41.67%,Los Angeles County,71.80%,22.40%,23.2%,0.0%,25.97%,51.93%,23.76%,Pacific Standard Time,88,69,19,67,46,55%,55%,51,58,93,72%,77%,70%,13.59,0.12,8.68,7.59%,0.88%,15.56%,0.0,0,5.6,4.9,46,555,6.2,11.78,CA-36490,34.0053371,-117.938852
Inglewood,California,105575,11640,Los Angeles-Long Beach-Anaheim,13202558,$71029,24.2%,38,$710000,1296,$548,60,38.43%,$1725,61.84%,613,2121,14.86%,7.94%,67.25%,Los Angeles County,71.80%,22.40%,2.4%,39.94%,5.61%,48.95%,28.9%,Pacific Standard Time,80,67,13,65,49,55%,55%,51,58,81,72%,77%,70%,9.44,0.03,6.23,9.56%,0.55%,20.33%,0.0,0,5.6,4.9,17,57,6.2,9.07,CA-36546,33.9565752,-118.3444443
Irwindale,California,1352,153,Los Angeles-Long Beach-Anaheim,13202558,$113250,21.95%,34,N/A,N/A,N/A,33,80.88%,$2083,54.61%,1769,16337,6.32%,4.53%,67.69%,Los Angeles County,71.80%,22.40%,0.81%,0.0%,5.47%,92.31%,19.53%,Pacific Standard Time,92,68,24,63,45,55%,55%,51,58,101,72%,77%,70%,18.31,0.16,11.7,12.38%,2.42%,21.89%,0.0,0,5.6,4.9,55,681,6.2,8.82,CA-36826,34.1121061,-117.9636852
La Canada Flintridge,California,20474,2375,Los Angeles-Long Beach-Anaheim,13202558,N/A,N/A,N/A,N/A,N/A,N/A,N/A,N/A,N/A,N/A,74,1597,N/A,N/A,N/A,Los Angeles County,71.80%,22.40%,N/A,N/A,N/A,N/A,N/A,Pacific Standard Time,N/A,N/A,N/A,N/A,N/A,N/A,N/A,N/A,N/A,N/A,N/A,N/A,N/A,N/A,N/A,N/A,N/A,N/A,N/A,N/A,N/A,N/A,N/A,64,N/A,6.2,8.62,N/A,N/A,N/A
La Crescenta-Montrose,California,19940,5813,Los Angeles-Long Beach-Anaheim,13202558,$119775,56.48%,42,$1325000,1746,$759,62,68.15%,$2231,43.46%,N/A,N/A,5.84%,7.8%,67.1%,Los Angeles County,71.80%,22.40%,27.47%,0.49%,46.96%,15.52%,28.47%,Pacific Standard Time,89,69,20,63,42,54%,59%,51,59,96,72%,77%,70%,19.93,0.23,12.11,9.75%,1.32%,19.67%,0.0,0,1.9,4.6,62,2127,6.2,3.43,CA-39045,34.232157,-118.235264
La Habra Heights,California,5546,900,Los Angeles-Long Beach-Anaheim,13202558,$186837,54.35%,48,$1275000,3007,$424,55,88.12%,$1186,37.94%,74,1474,3.63%,1.0%,61.6%,Los Angeles County,71.80%,22.40%,17.4%,0.99%,54.51%,15.4%,24.32%,Pacific Standard Time,88,69,19,67,46,55%,55%,51,58,93,72%,77%,70%,9.75,0.07,6.37,10.25%,1.1%,19.89%,0.0,0,5.6,4.9,51,87,6.2,6.16,CA-39304,33.9602467,-117.9509868
La Mirada,California,46945,6003,Los Angeles-Long Beach-Anaheim,13202558,$110177,39.72%,42,$735000,1392,$528,60,79.73%,$2052,48.21%,176,1439,6.53%,4.3%,60.75%,Los Angeles County,71.80%,22.40%,23.12%,2.14%,26.37%,44.74%,26.65%,Pacific Standard Time,88,69,19,67,46,55%,55%,51,58,93,72%,77%,70%,9.75,0.07,6.37,10.25%,1.1%,19.89%,0.0,0,5.6,4.9,46,87,6.2,7.82,CA-40032,33.9025061,-118.009296
La Puente,California,37404,10748,Los Angeles-Long Beach-Anaheim,13202558,$84811,12.48%,37,$630000,1283,$491,62,59.29%,$1788,52.66%,378,1124,9.9%,6.2%,63.82%,Los Angeles County,71.80%,22.40%,14.3%,1.41%,2.53%,79.64%,39.7%,Pacific Standard Time,88,69,19,67,46,55%,55%,51,58,93,72%,77%,70%,13.59,0.12,8.68,7.59%,0.88%,15.56%,0.0,0,5.6,4.9,46,555,6.2,3.48,CA-40340,34.0323002,-117.9533657
La Verne,California,30804,3658,Los Angeles-Long Beach-Anaheim,13202558,$104565,41.39%,47,$900000,1676,$537,44,76.82%,$2204,46.89%,157,1938,8.18%,6.94%,58.99%,Los Angeles County,71.80%,22.40%,10.56%,3.36%,44.1%,36.02%,17.59%,Pacific Standard Time,95,67,28,66,44,55%,55%,51,58,108,72%,77%,70%,13.59,0.12,8.68,12.38%,2.42%,21.89%,0.3,0,5.6,4.9,58,555,6.2,8.42,CA-40830,34.1206912,-117.7703214
Ladera Heights,California,7249,2441,Los Angeles-Long Beach-Anaheim,13202558,$153403,55.42%,41,$1150000,2043,$563,58,79.89%,$3089,52.63%,N/A,N/A,9.32%,4.58%,68.83%,Los Angeles County,71.80%,22.40%,3.93%,61.06%,14.35%,13.7%,11.17%,Pacific Standard Time,79,66,13,64,48,54%,59%,51,59,80,72%,77%,70%,11.64,0.04,7.14,9.01%,1.1%,17.89%,0.0,0,1.9,4.6,23,84,6.2,2.97,CA-39108,33.9971819,-118.374004
Lake Hughes,California,875,82,Los Angeles-Long Beach-Anaheim,13202558,$110438,19.65%,42,$823000,2604,$316,48,85.61%,$2031,56.21%,N/A,N/A,10.74%,22.48%,62.24%,Los Angeles County,71.80%,22.40%,0.0%,0.0%,78.63%,21.37%,30.74%,Pacific Standard Time,93,55,38,70,38,54%,59%,51,59,107,72%,77%,70%,13.1,0.16,8.05,10.08%,1.43%,19.56%,0.3,0,1.9,4.6,75,2799,6.2,10.62,CA-39556,34.6832395,-118.4588776
Lake Los Angeles,California,13479,1384,Los Angeles-Long Beach-Anaheim,13202558,$60999,11.81%,31,$370000,1360,$272,37,65.75%,$1351,57.34%,N/A,N/A,13.69%,8.1%,47.93%,Los Angeles County,71.80%,22.40%,1.68%,7.18%,23.35%,64.57%,11.69%,Pacific Standard Time,98,57,41,69,37,54%,59%,51,59,122,72%,77%,70%,5.88,0.36,3.11,6.19%,1.98%,13.44%,0.3,0,1.9,4.6,82,2835,6.2,9.74,CA-39612,34.6096661,-117.8339099
Lakewood,California,80510,8565,Los Angeles-Long Beach-Anaheim,13202558,$116794,32.64%,39,$820000,1380,$594,63,73.95%,$2324,48.22%,276,2303,5.89%,5.51%,67.32%,Los Angeles County,71.80%,22.40%,17.8%,7.97%,31.96%,36.15%,20.97%,Pacific Standard Time,84,67,17,66,47,55%,55%,51,58,86,72%,77%,70%,10.34,0.07,7.01,9.42%,1.32%,18.22%,0.0,0,5.6,4.9,53,27,6.2,9.4,CA-39892,33.8470701,-118.1221752
Lancaster,California,170013,1803,Los Angeles-Long Beach-Anaheim,13202558,$76083,20.09%,34,$435000,1648,$264,34,54.83%,$1696,57.48%,852,2099,15.46%,7.15%,54.95%,Los Angeles County,71.80%,22.40%,4.04%,21.38%,24.39%,45.89%,13.9%,Pacific Standard Time,99,58,41,68,30,54%,59%,51,59,125,72%,77%,70%,5.41,0.19,3.29,7.01%,1.21%,14.78%,0.3,0,1.9,4.6,70,2139,6.2,94.27,CA-40130,34.6934401,-118.1753093
Lawndale,California,31113,15793,Los Angeles-Long Beach-Anaheim,13202558,$83538,21.95%,36,$807000,1706,$473,55,40.47%,$1847,57.7%,381,1254,12.28%,8.93%,72.7%,Los Angeles County,71.80%,22.40%,9.53%,6.22%,14.11%,67.48%,37.3%,Pacific Standard Time,80,67,13,65,49,55%,55%,51,58,81,72%,77%,70%,9.44,0.03,6.23,9.56%,0.55%,20.33%,0.0,0,5.6,4.9,47,57,6.2,1.97,CA-40886,33.8884354,-118.3531433
Lennox,California,20289,18614,Los Angeles-Long Beach-Anaheim,13202558,$60307,11.93%,35,$508000,790,$643,62,31.25%,$1455,53.19%,N/A,N/A,14.84%,5.91%,69.73%,Los Angeles County,71.80%,22.40%,2.46%,3.3%,1.82%,89.21%,47.21%,Pacific Standard Time,77,66,11,65,50,55%,55%,51,58,77,72%,77%,70%,9.82,0.06,6.27,9.01%,1.1%,17.89%,0.0,0,5.6,4.9,13,90,6.2,1.09,CA-41180,33.9380681,-118.3585399
Littlerock,California,1277,694,Los Angeles-Long Beach-Anaheim,13202558,N/A,7.82%,33,$439000,1247,$352,37,52.22%,$1796,49.29%,N/A,N/A,4.54%,3.34%,58.78%,Los Angeles County,71.80%,22.40%,0.0%,0.0%,20.44%,79.56%,20.75%,Pacific Standard Time,98,57,41,69,37,54%,59%,51,59,122,72%,77%,70%,5.88,0.36,3.11,6.19%,1.98%,13.44%,0.3,0,1.9,4.6,86,2835,6.2,1.84,CA-41880,34.5231755,-117.9808429
Lomita,California,20409,10685,Los Angeles-Long Beach-Anaheim,13202558,$92920,38.08%,39,$890000,1275,$698,56,45.54%,$1918,51.48%,325,1235,12.21%,3.36%,66.04%,Los Angeles County,71.80%,22.40%,14.82%,4.04%,37.86%,34.19%,27.02%,Pacific Standard Time,78,66,12,63,46,55%,55%,51,58,78,72%,77%,70%,11.92,0.08,7.81,7.62%,1.43%,16.44%,0.0,0,5.6,4.9,59,183,6.2,1.91,CA-42468,33.7933065,-118.317455
Long Beach,California,458491,9041,Los Angeles-Long Beach-Anaheim,13202558,$83969,34.84%,37,$790000,1355,$583,62,42.0%,$1803,59.36%,506,2414,14.96%,6.45%,66.57%,Los Angeles County,71.80%,22.40%,12.79%,11.93%,27.24%,43.42%,24.69%,Pacific Standard Time,84,67,17,66,47,55%,55%,51,58,86,72%,77%,70%,10.34,0.07,7.01,9.42%,1.32%,18.22%,0.0,0,5.6,4.9,51,27,6.2,50.71,CA-43000,33.7796205,-118.1681705
Los Angeles,California,3857897,8217,Los Angeles-Long Beach-Anaheim,13202558,$80366,37.82%,37,$930000,1507,$617,56,40.6%,$1879,59.04%,732,2383,16.55%,7.93%,66.59%,Los Angeles County,71.80%,22.40%,12.03%,8.51%,28.32%,47.23%,35.81%,Pacific Standard Time,97,69,28,61,42,54%,59%,51,59,116,72%,77%,70%,12.24,0.07,7.87,8.82%,0.88%,19.11%,0.0,0,1.9,4.6,36,723,6.2,469.49,CA-44000,34.1613851,-118.5399543
Lynwood,California,65291,13490,Los Angeles-Long Beach-Anaheim,13202558,$70236,10.36%,33,$650000,1064,$611,67,51.51%,$1625,58.79%,642,2009,17.36%,9.75%,62.03%,Los Angeles County,71.80%,22.40%,0.72%,8.49%,2.17%,88.01%,38.27%,Pacific Standard Time,80,67,13,65,49,55%,55%,51,58,81,72%,77%,70%,9.44,0.03,6.23,9.56%,0.55%,20.33%,0.0,0,5.6,4.9,33,57,6.2,4.84,CA-44574,33.9239591,-118.2016561
Malibu,California,10516,530,Los Angeles-Long Beach-Anaheim,13202558,$192159,71.61%,51,$3695000,2360,$1566,45,80.43%,$3501,49.59%,343,3251,12.53%,7.42%,53.35%,Los Angeles County,71.80%,22.40%,3.0%,0.95%,79.53%,9.27%,13.76%,Pacific Standard Time,97,69,28,61,42,54%,59%,51,59,116,72%,77%,70%,12.62,0.1,7.74,8.82%,0.88%,19.11%,0.0,0,1.9,4.6,72,633,6.2,19.85,CA-45246,34.008792,-118.7621425
Manhattan Beach,California,34584,8800,Los Angeles-Long Beach-Anaheim,13202558,$193904,78.98%,43,$3850000,2772,$1389,50,73.43%,$3492,37.62%,154,2391,3.64%,4.32%,62.54%,Los Angeles County,71.80%,22.40%,13.75%,0.67%,72.01%,7.63%,13.43%,Pacific Standard Time,77,66,11,65,50,55%,55%,51,58,77,72%,77%,70%,9.82,0.06,6.27,9.01%,1.1%,17.89%,0.0,0,5.6,4.9,50,90,6.2,3.93,CA-45400,33.8853454,-118.4241143
Marina del Rey,California,8844,10284,Los Angeles-Long Beach-Anaheim,13202558,$142440,76.66%,38,$1213000,1512,$802,41,3.6%,$3501,60.97%,N/A,N/A,0.81%,11.32%,90.96%,Los Angeles County,71.80%,22.40%,9.81%,4.49%,63.98%,10.17%,23.53%,Pacific Standard Time,77,66,11,64,49,54%,59%,51,59,77,72%,77%,70%,10.88,0.04,6.97,9.64%,1.32%,18.78%,0.0,0,1.9,4.6,53,159,6.2,0.86,CA-45806,33.9764927,-118.4485979
Mayflower Village,California,5303,7686,Los Angeles-Long Beach-Anaheim,13202558,$95521,38.57%,49,$860000,1403,$613,62,74.02%,$1886,47.5%,N/A,N/A,8.5%,3.28%,61.96%,Los Angeles County,71.80%,22.40%,34.23%,0.49%,22.38%,36.68%,37.45%,Pacific Standard Time,92,68,24,63,45,55%,55%,51,58,101,72%,77%,70%,12.98,0.07,7.91,12.38%,2.42%,21.89%,0.0,0,5.6,4.9,53,333,6.2,0.69,CA-46436,34.1159323,-118.0095809
Monrovia,California,37553,2755,Los Angeles-Long Beach-Anaheim,13202558,$97083,43.76%,38,$930000,1486,$626,58,45.31%,$2009,54.04%,117,2300,10.52%,5.21%,66.89%,Los Angeles County,71.80%,22.40%,15.71%,6.23%,30.03%,43.1%,24.55%,Pacific Standard Time,92,68,24,63,45,55%,55%,51,58,101,72%,77%,70%,18.31,0.16,11.7,12.38%,2.42%,21.89%,0.0,0,5.6,4.9,55,681,6.2,13.63,CA-48648,34.1651121,-117.9921096
Montebello,California,61376,7368,Los Angeles-Long Beach-Anaheim,13202558,$74955,21.98%,39,$783000,1721,$455,57,43.33%,$1771,56.9%,284,2311,12.82%,6.9%,62.9%,Los Angeles County,71.80%,22.40%,13.72%,0.59%,6.28%,78.82%,36.52%,Pacific Standard Time,85,68,17,66,48,55%,55%,51,58,87,72%,77%,70%,12.06,0.05,7.89,7.59%,0.88%,15.56%,0.0,0,5.6,4.9,30,156,6.2,8.33,CA-48816,34.0154433,-118.1107969
Monterey Park,California,59639,7776,Los Angeles-Long Beach-Anaheim,13202558,$77605,34.92%,46,$835000,1465,$570,57,50.29%,$1845,49.44%,208,2242,13.18%,5.65%,57.77%,Los Angeles County,71.80%,22.40%,64.71%,1.01%,5.57%,26.73%,51.55%,Pacific Standard Time,85,68,17,66,48,55%,55%,51,58,87,72%,77%,70%,12.98,0.07,7.91,7.59%,0.88%,15.56%,0.0,0,5.6,4.9,39,333,6.2,7.67,CA-48914,34.0497111,-118.132539
North El Monte,California,4115,9570,Los Angeles-Long Beach-Anaheim,13202558,$105590,38.49%,48,$815000,998,$817,63,66.09%,$2356,49.89%,N/A,N/A,8.18%,2.19%,66.11%,Los Angeles County,71.80%,22.40%,46.42%,1.77%,18.74%,30.86%,45.81%,Pacific Standard Time,92,68,24,63,45,55%,55%,51,58,101,72%,77%,70%,12.98,0.07,7.91,12.38%,2.42%,21.89%,0.0,0,5.6,4.9,52,333,6.2,0.43,CA-51820,34.1029267,-118.0238623
Norwalk,California,100713,10372,Los Angeles-Long Beach-Anaheim,13202558,$98709,21.33%,37,$690000,1124,$614,63,67.58%,$2014,54.41%,411,1495,9.73%,5.57%,63.62%,Los Angeles County,71.80%,22.40%,13.78%,4.16%,11.06%,69.48%,32.56%,Pacific Standard Time,88,69,19,67,46,55%,55%,51,58,93,72%,77%,70%,12.06,0.05,7.89,7.59%,0.88%,15.56%,0.0,0,5.6,4.9,44,156,6.2,9.71,CA-52526,33.906875,-118.0829154
Palmdale,California,165487,1560,Los Angeles-Long Beach-Anaheim,13202558,$81151,16.6%,33,$470000,1767,$266,31,64.47%,$1736,50.97%,418,1419,14.58%,7.4%,61.56%,Los Angeles County,71.80%,22.40%,4.46%,13.67%,16.97%,62.76%,24.92%,Pacific Standard Time,99,58,41,68,35,54%,59%,51,59,125,72%,77%,70%,6.32,0.29,3.69,6.08%,0.88%,13.11%,0.3,0,1.9,4.6,75,2388,6.2,106.06,CA-55156,34.5944333,-118.1057041
Palos Verdes Estates,California,13047,2729,Los Angeles-Long Beach-Anaheim,13202558,$247500,78.46%,53,$2405000,2202,$1092,57,88.28%,$3331,34.81%,29,656,2.59%,3.97%,53.62%,Los Angeles County,71.80%,22.40%,24.43%,3.48%,61.95%,4.81%,21.07%,Pacific Standard Time,77,66,11,63,48,55%,55%,51,58,77,72%,77%,70%,10.15,0.09,6.77,7.62%,1.43%,16.44%,0.0,0,5.6,4.9,73,201,6.2,4.78,CA-55380,33.7835702,-118.4372272
Paramount,California,52546,11109,Los Angeles-Long Beach-Anaheim,13202558,$70912,13.13%,33,$515000,1006,$512,50,43.05%,$1772,57.63%,637,2289,13.3%,5.58%,65.53%,Los Angeles County,71.80%,22.40%,3.12%,8.73%,4.46%,82.32%,36.3%,Pacific Standard Time,84,67,17,66,47,55%,55%,51,58,86,72%,77%,70%,10.34,0.07,7.01,9.42%,1.32%,18.22%,0.0,0,5.6,4.9,44,27,6.2,4.73,CA-55618,33.8976307,-118.1651179
Pasadena,California,136462,5943,Los Angeles-Long Beach-Anaheim,13202558,$103778,56.05%,40,$1053000,1565,$673,60,43.53%,$2218,56.3%,431,2019,13.21%,5.35%,67.3%,Los Angeles County,71.80%,22.40%,17.76%,7.7%,35.24%,34.12%,29.2%,Pacific Standard Time,92,68,24,63,45,54%,59%,51,59,103,72%,77%,70%,16.82,0.1,10.96,11.89%,2.97%,22.78%,0.0,0,1.9,4.6,49,789,6.2,22.96,CA-56000,34.1596806,-118.138873
Pico Rivera,California,60821,7310,Los Angeles-Long Beach-Anaheim,13202558,$86956,15.75%,39,$650000,1363,$477,63,73.03%,$1775,55.7%,372,1673,9.61%,4.85%,61.85%,Los Angeles County,71.80%,22.40%,3.46%,1.88%,3.78%,90.53%,30.11%,Pacific Standard Time,85,68,17,66,48,55%,55%,51,58,87,72%,77%,70%,12.06,0.05,7.89,7.59%,0.88%,15.56%,0.0,0,5.6,4.9,35,156,6.2,8.32,CA-56924,33.990139,-118.0887205
Pomona,California,148391,6455,Los Angeles-Long Beach-Anaheim,13202558,$78869,19.5%,35,$603000,1364,$442,54,53.51%,$1738,55.72%,615,2754,14.16%,6.31%,63.24%,Los Angeles County,71.80%,22.40%,11.13%,5.29%,10.04%,71.45%,32.68%,Pacific Standard Time,97,69,28,63,41,55%,55%,51,58,114,72%,77%,70%,13.09,0.14,8.01,8.36%,0.66%,17.0%,0.0,0,5.6,4.9,52,855,6.2,22.99,CA-58072,34.0584825,-117.7626089
Quartz Hill,California,10968,2917,Los Angeles-Long Beach-Anaheim,13202558,$104017,19.3%,38,$502000,1992,$252,44,68.41%,$1469,52.51%,N/A,N/A,10.86%,6.55%,58.18%,Los Angeles County,71.80%,22.40%,1.91%,7.99%,49.32%,35.73%,11.24%,Pacific Standard Time,99,58,41,68,30,54%,59%,51,59,125,72%,77%,70%,5.41,0.19,3.29,7.01%,1.21%,14.78%,0.3,0,1.9,4.6,73,2139,6.2,3.76,CA-59052,34.6526808,-118.2163282
Redondo Beach,California,69814,11242,Los Angeles-Long Beach-Anaheim,13202558,$144588,66.38%,41,$1532000,2029,$755,48,56.66%,$2562,47.79%,237,2030,5.0%,5.47%,71.87%,Los Angeles County,71.80%,22.40%,17.98%,2.41%,56.22%,13.93%,19.47%,Pacific Standard Time,77,66,11,63,48,55%,55%,51,58,77,72%,77%,70%,11.18,0.08,7.15,7.62%,1.43%,16.44%,0.0,0,5.6,4.9,55,129,6.2,6.21,CA-60018,33.8574688,-118.3766273
Rolling Hills,California,8158,2728,Los Angeles-Long Beach-Anaheim,13202558,$187500,72.17%,47,$3700000,2941,$1258,50,93.25%,$3501,39.53%,122,1545,3.55%,6.35%,53.73%,Los Angeles County,71.80%,22.40%,26.64%,1.89%,58.0%,6.21%,25.26%,Pacific Standard Time,78,66,12,63,46,55%,55%,51,58,78,72%,77%,70%,11.92,0.08,7.81,7.62%,1.43%,16.44%,0.0,0,5.6,4.9,76,183,6.2,2.99,CA-62644,33.7893346,-118.354258
Rolling Hills Estates,California,8158,2279,Los Angeles-Long Beach-Anaheim,13202558,$187500,72.17%,47,$3700000,2941,$1258,50,93.25%,$3501,39.53%,122,1545,3.55%,6.35%,53.73%,Los Angeles County,71.80%,22.40%,26.64%,1.89%,58.0%,6.21%,25.26%,Pacific Standard Time,78,66,12,63,46,55%,55%,51,58,78,72%,77%,70%,11.92,0.08,7.81,7.62%,1.43%,16.44%,0.0,0,5.6,4.9,71,183,6.2,3.58,CA-62644,33.7893346,-118.354258
Rose Hills,California,2485,5648,Los Angeles-Long Beach-Anaheim,13202558,$123220,41.89%,54,$685000,1529,$448,42,95.84%,$1800,34.19%,N/A,N/A,4.55%,2.62%,65.72%,Los Angeles County,71.80%,22.40%,14.29%,5.79%,22.49%,58.31%,18.43%,Pacific Standard Time,88,69,19,67,46,55%,55%,51,58,93,72%,77%,70%,12.06,0.05,7.89,7.59%,0.88%,15.56%,0.0,0,5.6,4.9,46,156,6.2,0.44,CA-62860,34.0090125,-118.041909
Rosemead,California,50340,9756,Los Angeles-Long Beach-Anaheim,13202558,$72248,21.94%,45,$810000,1454,$557,61,48.64%,$1728,49.73%,321,1728,14.05%,4.99%,57.87%,Los Angeles County,71.80%,22.40%,64.9%,0.56%,3.66%,29.43%,58.6%,Pacific Standard Time,92,68,24,63,45,55%,55%,51,58,101,72%,77%,70%,12.98,0.07,7.91,7.59%,0.88%,15.56%,0.0,0,5.6,4.9,41,333,6.2,5.16,CA-62896,34.068848,-118.0823108
Rowland Heights,California,46787,3577,Los Angeles-Long Beach-Anaheim,13202558,$85202,36.29%,45,$853000,1796,$475,44,66.17%,$1929,43.58%,N/A,N/A,11.34%,6.85%,60.93%,Los Angeles County,71.80%,22.40%,60.38%,1.61%,6.38%,30.38%,55.33%,Pacific Standard Time,89,70,19,67,48,55%,55%,51,58,95,72%,77%,70%,13.09,0.14,8.01,9.37%,2.42%,17.89%,0.0,0,5.6,4.9,46,855,6.2,13.08,CA-63218,33.9716038,-117.8911809
San Dimas,California,34099,2269,Los Angeles-Long Beach-Anaheim,13202558,$105833,40.29%,43,$750000,1515,$495,44,71.7%,$2232,47.47%,229,2445,9.19%,4.94%,62.85%,Los Angeles County,71.80%,22.40%,17.59%,3.43%,37.82%,37.09%,22.22%,Pacific Standard Time,95,67,28,66,44,55%,55%,51,58,108,72%,77%,70%,13.59,0.12,8.68,12.38%,2.42%,21.89%,0.3,0,5.6,4.9,56,555,6.2,15.03,CA-66070,34.108187,-117.8089875
San Fernando,California,23716,10007,Los Angeles-Long Beach-Anaheim,13202558,$79694,16.12%,36,$730000,2028,$360,64,57.77%,$1690,53.84%,324,986,10.55%,7.05%,66.64%,Los Angeles County,71.80%,22.40%,2.2%,0.94%,4.45%,92.14%,34.44%,Pacific Standard Time,94,68,26,65,45,54%,59%,51,59,108,72%,77%,70%,14.09,0.13,8.17,10.63%,1.32%,21.56%,0.0,0,1.9,4.6,53,1416,6.2,2.37,CA-66140,34.2886525,-118.4362423
San Gabriel,California,38764,9363,Los Angeles-Long Beach-Anaheim,13202558,$87592,34.72%,45,$1061000,1943,$546,64,48.65%,$1874,50.0%,242,1768,12.31%,6.26%,63.06%,Los Angeles County,71.80%,22.40%,59.26%,1.26%,9.83%,26.29%,52.03%,Pacific Standard Time,92,68,24,63,45,55%,55%,51,58,101,72%,77%,70%,12.98,0.07,7.91,11.89%,2.97%,22.78%,0.0,0,5.6,4.9,42,333,6.2,4.14,CA-67042,34.0948294,-118.0990777
San Marino,California,12279,3257,Los Angeles-Long Beach-Anaheim,13202558,$187633,80.21%,45,$2490000,2839,$877,77,78.38%,$3501,37.66%,106,1576,5.8%,4.07%,57.97%,Los Angeles County,71.80%,22.40%,68.91%,0.33%,20.03%,7.18%,46.63%,Pacific Standard Time,92,68,24,63,45,55%,55%,51,58,101,72%,77%,70%,14.75,0.11,9.36,11.89%,2.97%,22.78%,0.0,0,5.6,4.9,49,675,6.2,3.77,CA-68224,34.1223821,-118.1131723
San Pasqual,California,2014,7746,Los Angeles-Long Beach-Anaheim,13202558,$138542,71.01%,46,N/A,N/A,N/A,78,54.42%,$2127,44.29%,N/A,N/A,6.55%,3.53%,71.41%,Los Angeles County,71.80%,22.40%,30.54%,2.33%,42.35%,18.02%,27.36%,Pacific Standard Time,92,68,24,63,45,54%,59%,51,59,103,72%,77%,70%,14.75,0.11,9.36,11.89%,2.97%,22.78%,0.0,0,1.9,4.6,50,675,6.2,0.26,CA-68308,34.1392217,-118.102524
Santa Clarita,California,229021,3237,Los Angeles-Long Beach-Anaheim,13202558,$119926,39.29%,38,$730000,1742,$419,33,70.15%,$2486,44.5%,127,944,7.74%,5.33%,66.76%,Los Angeles County,71.80%,22.40%,11.4%,4.43%,43.27%,36.04%,21.62%,Pacific Standard Time,94,68,26,65,45,54%,59%,51,59,108,72%,77%,70%,11.73,0.13,6.9,10.63%,1.32%,21.56%,0.0,0,1.9,4.6,65,1479,6.2,70.75,CA-69088,34.4174933,-118.4963973
Santa Fe Springs,California,19310,2179,Los Angeles-Long Beach-Anaheim,13202558,$86857,23.36%,39,$760000,1805,$421,60,67.44%,$1965,55.89%,582,5736,11.09%,4.77%,61.03%,Los Angeles County,71.80%,22.40%,8.06%,3.65%,9.22%,75.17%,23.63%,Pacific Standard Time,88,69,19,67,46,55%,55%,51,58,93,72%,77%,70%,12.06,0.05,7.89,7.59%,0.88%,15.56%,0.0,0,5.6,4.9,39,156,6.2,8.86,CA-69154,33.9330072,-118.0625005
Santa Monica,California,91535,10884,Los Angeles-Long Beach-Anaheim,13202558,$109739,68.89%,43,$1758000,1503,$1170,53,33.48%,$2338,58.96%,724,4326,11.61%,6.07%,67.68%,Los Angeles County,71.80%,22.40%,9.75%,4.86%,61.84%,16.42%,23.17%,Pacific Standard Time,77,66,11,64,49,54%,59%,51,59,77,72%,77%,70%,10.88,0.04,6.97,9.64%,1.32%,18.78%,0.0,0,1.9,4.6,34,159,6.2,8.41,CA-70000,34.0090871,-118.5025971
Signal Hill,California,11563,5280,Los Angeles-Long Beach-Anaheim,13202558,$102303,38.04%,41,$628000,1303,$482,40,42.19%,$1817,55.97%,817,5832,9.09%,5.27%,69.96%,Los Angeles County,71.80%,22.40%,24.61%,7.39%,25.31%,37.83%,28.12%,Pacific Standard Time,84,67,17,66,47,55%,55%,51,58,86,72%,77%,70%,10.34,0.07,7.01,9.42%,1.32%,18.22%,0.0,0,5.6,4.9,53,27,6.2,2.19,CA-71876,33.8029383,-118.1681676
South El Monte,California,19413,6836,Los Angeles-Long Beach-Anaheim,13202558,$67153,10.15%,38,$717000,1545,$464,61,49.77%,$1708,55.09%,489,2397,23.75%,7.46%,58.75%,Los Angeles County,71.80%,22.40%,20.15%,0.97%,3.18%,74.86%,44.96%,Pacific Standard Time,92,68,24,63,45,55%,55%,51,58,101,72%,77%,70%,12.98,0.07,7.91,7.59%,0.88%,15.56%,0.0,0,5.6,4.9,40,333,6.2,2.84,CA-72996,34.049341,-118.0483186
South Gate,California,91836,12685,Los Angeles-Long Beach-Anaheim,13202558,$71315,11.5%,35,$570000,1058,$539,68,48.48%,$1471,55.99%,658,2915,13.23%,6.95%,64.76%,Los Angeles County,71.80%,22.40%,0.79%,1.02%,2.54%,94.95%,41.77%,Pacific Standard Time,85,68,17,66,48,55%,55%,51,58,87,72%,77%,70%,11.39,0.04,7.37,8.9%,0.88%,17.89%,0.0,0,5.6,4.9,29,210,6.2,7.24,CA-73080,33.944732,-118.1925478
South Monrovia Island,California,7072,12858,Los Angeles-Long Beach-Anaheim,13202558,$109730,27.25%,34,$848000,1402,$605,66,62.29%,$1985,50.35%,N/A,N/A,5.96%,5.41%,64.93%,Los Angeles County,71.80%,22.40%,8.36%,3.82%,11.51%,70.42%,29.84%,Pacific Standard Time,92,68,24,63,45,55%,55%,51,58,101,72%,77%,70%,18.31,0.16,11.7,12.38%,2.42%,21.89%,0.0,0,5.6,4.9,53,681,6.2,0.55,CA-73167,34.123421,-117.9958634
South Pasadena,California,26297,7712,Los Angeles-Long Beach-Anaheim,13202558,$128105,72.68%,40,$1576000,1818,$867,67,54.11%,$2218,46.71%,113,2209,5.12%,4.83%,72.25%,Los Angeles County,71.80%,22.40%,32.94%,3.54%,37.66%,20.56%,24.03%,Pacific Standard Time,92,68,24,63,45,54%,59%,51,59,103,72%,77%,70%,16.82,0.1,10.96,11.89%,2.97%,22.78%,0.0,0,1.9,4.6,42,789,6.2,3.41,CA-73220,34.1102662,-118.1573014
South San Gabriel,California,8084,9740,Los Angeles-Long Beach-Anaheim,13202558,$76921,28.99%,45,$615000,943,$652,55,68.28%,$2059,47.39%,N/A,N/A,5.42%,4.45%,59.09%,Los Angeles County,71.80%,22.40%,69.5%,0.41%,6.36%,22.3%,49.74%,Pacific Standard Time,92,68,24,63,45,55%,55%,51,58,101,72%,77%,70%,12.98,0.07,7.91,7.59%,0.88%,15.56%,0.0,0,5.6,4.9,41,333,6.2,0.83,CA-73276,34.0488951,-118.0961492
South San Jose Hills,California,17451,11634,Los Angeles-Long Beach-Anaheim,13202558,$94740,12.21%,35,$705000,1171,$602,57,72.84%,$1840,58.2%,N/A,N/A,12.76%,8.5%,64.36%,Los Angeles County,71.80%,22.40%,12.24%,1.23%,2.07%,84.7%,41.39%,Pacific Standard Time,88,69,19,67,46,55%,55%,51,58,93,72%,77%,70%,13.59,0.12,8.68,7.59%,0.88%,15.56%,0.0,0,5.6,4.9,46,555,6.2,1.5,CA-73290,34.0123321,-117.9043641
South Whittier,California,55201,10337,Los Angeles-Long Beach-Anaheim,13202558,$98974,17.71%,35,$740000,1338,$553,63,63.6%,$1823,53.25%,N/A,N/A,8.39%,4.86%,66.53%,Los Angeles County,71.80%,22.40%,6.51%,1.01%,12.28%,78.58%,24.09%,Pacific Standard Time,88,69,19,67,46,55%,55%,51,58,93,72%,77%,70%,12.06,0.05,7.89,7.59%,0.88%,15.56%,0.0,0,5.6,4.9,45,156,6.2,5.34,CA-73430,33.9336033,-118.0311497
Stevenson Ranch,California,21317,3326,Los Angeles-Long Beach-Anaheim,13202558,$146404,54.14%,42,$665000,1380,$482,21,71.63%,$2777,38.64%,N/A,N/A,4.78%,9.21%,64.75%,Los Angeles County,71.80%,22.40%,23.12%,5.9%,40.69%,21.51%,23.01%,Pacific Standard Time,94,68,26,65,45,54%,59%,51,59,108,72%,77%,70%,11.73,0.13,6.9,10.63%,1.32%,21.56%,0.0,0,1.9,4.6,69,1479,6.2,6.41,CA-74130,34.3893864,-118.5883407
Sun Village,California,11009,1019,Los Angeles-Long Beach-Anaheim,13202558,$68284,7.88%,36,$496000,1704,$291,37,62.85%,$1650,46.46%,N/A,N/A,16.07%,5.41%,55.0%,Los Angeles County,71.80%,22.40%,1.13%,1.44%,17.97%,77.31%,19.21%,Pacific Standard Time,98,57,41,69,37,54%,59%,51,59,122,72%,77%,70%,5.88,0.36,3.11,6.19%,1.98%,13.44%,0.3,0,1.9,4.6,84,2835,6.2,10.8,CA-77308,34.5596172,-117.9558561
Temple City,California,35749,8937,Los Angeles-Long Beach-Anaheim,13202558,$102449,42.51%,43,$1024000,1759,$582,62,62.22%,$2034,46.9%,176,914,9.46%,6.35%,63.09%,Los Angeles County,71.80%,22.40%,64.06%,0.55%,13.02%,19.17%,49.3%,Pacific Standard Time,92,68,24,63,45,55%,55%,51,58,101,72%,77%,70%,12.98,0.07,7.91,11.89%,2.97%,22.78%,0.0,0,5.6,4.9,49,333,6.2,4.0,CA-78148,34.1021584,-118.057968
Torrance,California,143499,6993,Los Angeles-Long Beach-Anaheim,13202558,$113105,52.95%,43,$1090000,1548,$704,57,56.32%,$2214,46.38%,192,1965,6.9%,5.51%,64.45%,Los Angeles County,71.80%,22.40%,38.67%,3.49%,32.23%,19.3%,31.01%,Pacific Standard Time,77,66,11,63,48,55%,55%,51,58,77,72%,77%,70%,11.18,0.08,7.15,7.62%,1.43%,16.44%,0.0,0,5.6,4.9,53,129,6.2,20.52,CA-80000,33.8306,-118.3572014
Val Verde,California,3074,1196,Los Angeles-Long Beach-Anaheim,13202558,$109543,19.32%,35,$335000,1269,$264,33,81.94%,$1661,45.5%,N/A,N/A,5.66%,6.03%,67.27%,Los Angeles County,71.80%,22.40%,4.94%,3.81%,28.14%,58.75%,27.78%,Pacific Standard Time,97,69,28,61,42,54%,59%,51,59,116,72%,77%,70%,12.87,0.1,7.82,12.52%,1.76%,23.78%,0.0,0,1.9,4.6,68,651,6.2,2.57,CA-81967,34.4504229,-118.6717844
Valinda,California,21626,10759,Los Angeles-Long Beach-Anaheim,13202558,$99979,15.97%,38,$736000,1556,$473,63,75.44%,$2051,54.56%,N/A,N/A,8.81%,4.91%,65.17%,Los Angeles County,71.80%,22.40%,16.85%,1.72%,7.26%,73.0%,37.98%,Pacific Standard Time,88,69,19,67,46,55%,55%,51,58,93,72%,77%,70%,13.59,0.12,8.68,12.38%,2.42%,21.89%,0.0,0,5.6,4.9,50,555,6.2,2.01,CA-81638,34.0400333,-117.9300572
Vernon,California,371,75,Los Angeles-Long Beach-Anaheim,13202558,$70833,13.4%,28,N/A,N/A,N/A,8,6.05%,$1325,63.6%,24107,433035,2.16%,8.0%,52.03%,Los Angeles County,71.80%,22.40%,2.96%,0.0%,5.66%,90.3%,27.49%,Pacific Standard Time,85,68,17,66,48,55%,55%,51,58,87,72%,77%,70%,11.39,0.04,7.37,8.9%,0.88%,17.89%,0.0,0,5.6,4.9,11,210,6.2,4.97,CA-82422,34.0018945,-118.2105734
View Park-Windsor Hills,California,11744,6383,Los Angeles-Long Beach-Anaheim,13202558,$120604,60.35%,51,$945000,2059,$459,73,77.56%,$1845,52.81%,N/A,N/A,9.25%,9.65%,64.0%,Los Angeles County,71.80%,22.40%,3.92%,72.87%,11.21%,6.68%,7.93%,Pacific Standard Time,79,66,13,64,48,54%,59%,51,59,80,72%,77%,70%,11.64,0.04,7.14,9.01%,1.1%,17.89%,0.0,0,1.9,4.6,25,84,6.2,1.84,CA-82667,33.9955086,-118.3483504
Vincent,California,15151,10307,Los Angeles-Long Beach-Anaheim,13202558,$99157,21.71%,38,$740000,1246,$594,63,81.15%,$2013,49.66%,N/A,N/A,5.87%,5.73%,67.99%,Los Angeles County,71.80%,22.40%,16.51%,3.02%,7.84%,69.9%,34.9%,Pacific Standard Time,92,68,24,63,45,55%,55%,51,58,101,72%,77%,70%,13.59,0.12,8.68,12.38%,2.42%,21.89%,0.0,0,5.6,4.9,52,555,6.2,1.47,CA-82815,34.0982683,-117.9238001
Walnut,California,27857,3099,Los Angeles-Long Beach-Anaheim,13202558,$133762,55.3%,46,$1050000,1989,$528,37,80.72%,$3120,37.52%,126,1282,8.56%,3.62%,58.03%,Los Angeles County,71.80%,22.40%,67.74%,2.52%,8.93%,18.28%,50.98%,Pacific Standard Time,89,70,19,67,48,55%,55%,51,58,95,72%,77%,70%,13.09,0.14,8.01,12.38%,2.42%,21.89%,0.0,0,5.6,4.9,52,855,6.2,8.99,CA-83332,34.0334291,-117.8593214
Walnut Park,California,15446,20595,Los Angeles-Long Beach-Anaheim,13202558,$79205,9.78%,37,$618000,1000,$618,82,59.14%,$1430,55.51%,N/A,N/A,14.84%,8.88%,62.14%,Los Angeles County,71.80%,22.40%,0.62%,0.03%,1.16%,98.03%,44.43%,Pacific Standard Time,85,68,17,66,48,55%,55%,51,58,87,72%,77%,70%,11.39,0.04,7.37,8.9%,0.88%,17.89%,0.0,0,5.6,4.9,25,210,6.2,0.75,CA-83402,33.9682327,-118.2219478
West Athens,California,9064,6764,Los Angeles-Long Beach-Anaheim,13202558,$77750,22.14%,34,$750000,1794,$418,61,64.67%,$1506,65.17%,N/A,N/A,10.75%,11.57%,60.89%,Los Angeles County,71.80%,22.40%,1.24%,51.72%,1.67%,42.74%,17.91%,Pacific Standard Time,80,67,13,65,49,55%,55%,51,58,81,72%,77%,70%,9.44,0.03,6.23,9.56%,0.55%,20.33%,0.0,0,5.6,4.9,26,57,6.2,1.34,CA-84116,33.923453,-118.3033011
West Carson,California,21909,9652,Los Angeles-Long Beach-Anaheim,13202558,$95385,36.56%,46,$620000,1069,$580,48,73.73%,$1833,51.13%,N/A,N/A,6.82%,5.09%,62.88%,Los Angeles County,71.80%,22.40%,35.12%,10.92%,14.18%,34.25%,35.77%,Pacific Standard Time,78,66,12,63,46,55%,55%,51,58,78,72%,77%,70%,10.99,0.07,7.31,7.62%,1.43%,16.44%,0.0,0,5.6,4.9,46,81,6.2,2.27,CA-84144,33.8229351,-118.2931269
West Covina,California,107436,6698,Los Angeles-Long Beach-Anaheim,13202558,$98570,29.82%,40,$785000,1741,$451,52,64.88%,$2153,53.32%,244,2227,9.73%,6.2%,63.62%,Los Angeles County,71.80%,22.40%,30.57%,4.07%,10.02%,53.19%,36.73%,Pacific Standard Time,88,69,19,67,46,55%,55%,51,58,93,72%,77%,70%,13.59,0.12,8.68,12.38%,2.42%,21.89%,0.0,0,5.6,4.9,49,555,6.2,16.04,CA-84200,34.0554375,-117.911287
West Hollywood,California,35090,18566,Los Angeles-Long Beach-Anaheim,13202558,$94844,62.89%,40,$1299000,1331,$976,55,20.06%,$2103,74.7%,790,5105,13.13%,7.95%,77.27%,Los Angeles County,71.80%,22.40%,5.49%,4.09%,69.48%,13.49%,23.61%,Pacific Standard Time,80,67,13,63,52,54%,59%,51,59,81,72%,77%,70%,13.77,0.06,8.7,8.96%,1.65%,18.0%,0.0,0,1.9,4.6,14,393,6.2,1.89,CA-84410,34.088267,-118.3718302
West Puente Valley,California,22198,11871,Los Angeles-Long Beach-Anaheim,13202558,$86692,14.7%,39,$672000,1336,$503,64,81.02%,$2250,51.51%,N/A,N/A,11.3%,6.42%,60.67%,Los Angeles County,71.80%,22.40%,14.47%,0.98%,2.86%,80.2%,38.78%,Pacific Standard Time,92,68,24,63,45,55%,55%,51,58,101,72%,77%,70%,13.59,0.12,8.68,7.59%,0.88%,15.56%,0.0,0,5.6,4.9,46,555,6.2,1.87,CA-84774,34.0511761,-117.9680258
West Rancho Dominguez,California,22560,5683,Los Angeles-Long Beach-Anaheim,13202558,$81585,15.16%,35,$622000,1259,$494,66,74.79%,$1575,61.03%,N/A,N/A,13.44%,8.84%,64.74%,Los Angeles County,71.80%,22.40%,0.96%,39.17%,1.83%,54.94%,19.96%,Pacific Standard Time,80,67,13,65,49,55%,55%,51,58,81,72%,77%,70%,9.44,0.03,6.23,9.56%,0.55%,20.33%,0.0,0,5.6,4.9,43,57,6.2,3.97,CA-84780,33.9056924,-118.2682778
West Whittier-Los Nietos,California,25459,10103,Los Angeles-Long Beach-Anaheim,13202558,$101138,16.03%,38,$698000,1293,$540,66,72.31%,$1939,53.64%,N/A,N/A,10.46%,3.84%,59.15%,Los Angeles County,71.80%,22.40%,3.16%,0.57%,7.79%,88.17%,22.7%,Pacific Standard Time,88,69,19,67,46,55%,55%,51,58,93,72%,77%,70%,12.06,0.05,7.89,7.59%,0.88%,15.56%,0.0,0,5.6,4.9,37,156,6.2,2.52,CA-84921,33.9759983,-118.0689291
Westlake Village,California,7829,1508,Los Angeles-Long Beach-Anaheim,13202558,$174069,66.39%,50,$1085000,1773,$612,46,81.96%,$3501,43.03%,155,2261,6.44%,3.39%,55.88%,Los Angeles County,71.80%,22.40%,5.8%,0.2%,76.42%,10.46%,14.86%,Pacific Standard Time,97,69,28,61,42,54%,59%,51,59,116,72%,77%,70%,12.62,0.1,7.74,8.82%,0.88%,19.11%,0.0,0,1.9,4.6,66,633,6.2,5.19,CA-84438,34.1369073,-118.822032
Westmont,California,34291,18536,Los Angeles-Long Beach-Anaheim,13202558,$47899,12.74%,33,$720000,2376,$303,62,31.93%,$1413,66.76%,N/A,N/A,24.39%,11.57%,60.18%,Los Angeles County,71.80%,22.40%,1.08%,35.41%,1.18%,59.22%,28.92%,Pacific Standard Time,80,67,13,65,49,55%,55%,51,58,81,72%,77%,70%,9.44,0.03,6.23,9.56%,0.55%,20.33%,0.0,0,5.6,4.9,23,57,6.2,1.85,CA-84592,33.9416821,-118.3018333
Whittier,California,85925,5865,Los Angeles-Long Beach-Anaheim,13202558,$92374,29.17%,38,$800000,1504,$532,64,60.53%,$1829,52.67%,247,2206,8.84%,5.39%,62.62%,Los Angeles County,71.80%,22.40%,4.91%,1.15%,23.13%,66.7%,17.35%,Pacific Standard Time,88,69,19,67,46,55%,55%,51,58,93,72%,77%,70%,12.06,0.05,7.89,7.59%,0.88%,15.56%,0.0,0,5.6,4.9,41,156,6.2,14.65,CA-85292,33.9678183,-118.0187936
Willowbrook,California,21642,12882,Los Angeles-Long Beach-Anaheim,13202558,$60386,13.33%,33,$543000,1160,$468,51,45.95%,$1549,59.52%,N/A,N/A,17.04%,13.12%,61.66%,Los Angeles County,71.80%,22.40%,2.07%,18.25%,1.03%,77.98%,34.57%,Pacific Standard Time,80,67,13,65,49,55%,55%,51,58,81,72%,77%,70%,9.44,0.03,6.23,9.56%,0.55%,20.33%,0.0,0,5.6,4.9,40,57,6.2,1.68,CA-85614,33.9208657,-118.2355441
