City,State,Population,People per sq mi,Metro Name,Metro population,Median household income,% with at least Bachelor's degree,Median age,Median home price,Median home sqft,Median home cost per sqft,Median home age,Homeownership Rate,Avg Apartment Monthly Rent,Single Population,Num Violent Crimes Per 100k residents,Num Property Crimes Per 100k residents,Poverty Rate,Unemployment rate,Labor Force Participation rate,County,% Democrat,% Republican,% Asian,% Black,% Non-Hispanic White,% Hispanic,Foreign Born %,Timezone,Hottest month's avg high (F),Coldest month's avg high (F),Hottest high minus coldest high,Annual rainfall (in),Annual days of precipitation,Annual snowfall (in),Average yearly windspeed (mph),Air quality Index,Elevation (ft),UV Index,Land Area (sq mi),Fips Code,Latitude,Longitude,Annual Sunshine - Percentage of Possible,Summer Sunshine - Percentage of Possible,Winter Sunshine - Percentage of Possible,Annual Relative Humidity (afternoon),Summer Relative Humidity (afternoon),Number of days with thunder per year,Annual dew point (F),Average summer dew point (F),Hottest month's avg low (F),Coldest month's avg low (F),Summer rainfall (in),Winter rainfall (in)
Aguila,Arizona,753,480,Phoenix-Mesa-Scottsdale,5059909,$22833,2.26%,33,N/A,N/A,N/A,25,66.91%,N/A,45.95%,N/A,N/A,40.37%,6.21%,57.09%,Maricopa County,44.80%,47.70%,0.0%,0.0%,10.23%,88.05%,40.64%,Mountain Standard Time,N/A,N/A,N/A,N/A,35,3.4,6.1,77,1107,6.4,1.57,AZ-00730,33.9375159,-113.1664832,85%,89%,80%,23%,19%,25.0,40,51,N/A,N/A,N/A,N/A
Anthem,Arizona,23508,2976,Phoenix-Mesa-Scottsdale,5059909,$102200,46.79%,43,$565000,2055,$275,16,75.77%,$1675,38.27%,N/A,N/A,4.22%,4.34%,62.92%,Maricopa County,44.80%,47.70%,1.65%,1.44%,84.95%,7.55%,4.71%,Mountain Standard Time,N/A,N/A,N/A,N/A,38,1.3,6.1,65,1107,6.4,7.9,AZ-02430,33.8560099,-112.116732,85%,89%,80%,23%,19%,25.0,40,51,N/A,N/A,N/A,N/A
Arlington,Arizona,108,47,Phoenix-Mesa-Scottsdale,5059909,$33438,0.0%,60,N/A,N/A,N/A,31,88.89%,N/A,37.04%,N/A,N/A,35.19%,0.0%,43.52%,Maricopa County,44.80%,47.70%,0.0%,0.0%,49.07%,50.93%,0.0%,Mountain Standard Time,N/A,N/A,N/A,N/A,25,0.0,6.1,55,1107,6.4,2.29,AZ-04020,33.3346233,-112.7747506,85%,89%,80%,23%,19%,25.0,40,51,N/A,N/A,N/A,N/A
Avondale,Arizona,86091,1821,Phoenix-Mesa-Scottsdale,5059909,$67886,19.79%,32,$422000,1901,$222,18,63.06%,$1271,52.7%,288,3552,11.45%,5.51%,69.35%,Maricopa County,44.80%,47.70%,3.01%,10.18%,28.8%,53.82%,18.43%,Mountain Standard Time,N/A,N/A,N/A,N/A,32,0.0,6.1,45,1107,6.4,47.28,AZ-04720,33.3193513,-112.3390075,85%,89%,80%,23%,19%,25.0,40,51,N/A,N/A,N/A,N/A
Buckeye,Arizona,74467,189,Phoenix-Mesa-Scottsdale,5059909,$79156,20.71%,34,$413000,1967,$210,14,79.4%,$1320,46.25%,137,1623,9.14%,4.82%,56.38%,Maricopa County,44.80%,47.70%,2.09%,6.58%,45.1%,43.5%,10.46%,Mountain Standard Time,N/A,N/A,N/A,N/A,29,0.0,6.1,66,1107,6.4,392.98,AZ-07940,33.431461,-112.6429371,85%,89%,80%,23%,19%,25.0,40,51,N/A,N/A,N/A,N/A
Carefree,Arizona,3863,438,Phoenix-Mesa-Scottsdale,5059909,$112768,59.74%,69,$835000,1864,$448,32,89.45%,$1500,32.27%,N/A,N/A,5.08%,0.15%,34.29%,Maricopa County,44.80%,47.70%,0.0%,0.83%,98.01%,1.04%,4.58%,Mountain Standard Time,N/A,N/A,N/A,N/A,40,0.0,6.1,74,1107,6.4,8.81,AZ-10180,33.8234034,-111.9161241,85%,89%,80%,23%,19%,25.0,40,51,N/A,N/A,N/A,N/A
Chandler,Arizona,257076,3937,Phoenix-Mesa-Scottsdale,5059909,$85796,44.6%,37,$496000,1759,$282,24,66.59%,$1381,47.7%,228,2070,7.29%,4.27%,71.8%,Maricopa County,44.80%,47.70%,10.89%,5.5%,58.36%,19.94%,15.24%,Mountain Standard Time,N/A,N/A,N/A,N/A,35,0.0,6.1,56,1107,6.4,65.3,AZ-12000,33.2825407,-111.8514898,85%,89%,80%,23%,19%,25.0,40,51,N/A,N/A,N/A,N/A
El Mirage,Arizona,35702,3606,Phoenix-Mesa-Scottsdale,5059909,$59975,14.89%,32,$380000,1751,$217,17,61.19%,$1308,54.36%,232,2713,15.59%,5.43%,68.0%,Maricopa County,44.80%,47.70%,1.64%,10.12%,36.99%,48.03%,13.72%,Mountain Standard Time,N/A,N/A,N/A,N/A,32,0.0,6.1,58,1107,6.4,9.9,AZ-22220,33.5905122,-112.3271244,85%,89%,80%,23%,19%,25.0,40,51,N/A,N/A,N/A,N/A
Fountain Hills,Arizona,25167,1241,Phoenix-Mesa-Scottsdale,5059909,$87080,49.72%,59,$668000,2101,$318,28,82.06%,$1444,33.73%,N/A,N/A,4.78%,4.23%,52.06%,Maricopa County,44.80%,47.70%,1.76%,1.65%,90.91%,3.61%,7.54%,Mountain Standard Time,N/A,N/A,N/A,N/A,40,0.0,6.1,65,1107,6.4,20.28,AZ-25300,33.6072787,-111.7398058,85%,89%,80%,23%,19%,25.0,40,51,N/A,N/A,N/A,N/A
Gila Bend,Arizona,1955,30,Phoenix-Mesa-Scottsdale,5059909,$41500,11.9%,36,N/A,N/A,N/A,41,49.0%,$697,50.46%,N/A,N/A,37.49%,0.99%,60.61%,Maricopa County,44.80%,47.70%,0.0%,3.07%,19.69%,68.7%,31.56%,Mountain Standard Time,N/A,N/A,N/A,N/A,25,0.0,6.1,72,1107,6.4,64.37,AZ-27050,32.9662474,-112.7154587,85%,89%,80%,23%,19%,25.0,40,51,N/A,N/A,N/A,N/A
Gila Crossing,Arizona,659,757,Phoenix-Mesa-Scottsdale,5059909,$23750,5.0%,30,N/A,N/A,N/A,16,89.53%,N/A,84.81%,N/A,N/A,44.02%,10.47%,35.32%,Maricopa County,44.80%,47.70%,3.64%,6.98%,0.0%,17.3%,2.58%,Mountain Standard Time,N/A,N/A,N/A,N/A,30,0.0,6.1,66,1107,6.4,0.87,AZ-27260,33.273015,-112.1626679,85%,89%,80%,23%,19%,25.0,40,51,N/A,N/A,N/A,N/A
Gilbert,Arizona,248349,3622,Phoenix-Mesa-Scottsdale,5059909,$99154,45.29%,35,$545000,1940,$281,19,75.74%,$1580,42.89%,96,1202,5.11%,4.09%,71.43%,Maricopa County,44.80%,47.70%,5.49%,4.02%,69.54%,17.35%,9.1%,Mountain Standard Time,N/A,N/A,N/A,N/A,33,0.0,6.1,62,1107,6.4,68.57,AZ-27400,33.3099961,-111.746232,85%,89%,80%,23%,19%,25.0,40,51,N/A,N/A,N/A,N/A
Glendale,Arizona,250290,4063,Phoenix-Mesa-Scottsdale,5059909,$56991,21.86%,34,$408000,1707,$239,35,58.01%,$1051,56.94%,339,3182,17.22%,5.76%,64.72%,Maricopa County,44.80%,47.70%,4.42%,7.27%,44.82%,39.04%,16.52%,Mountain Standard Time,N/A,N/A,N/A,N/A,31,0.0,6.1,53,1107,6.4,61.6,AZ-27820,33.5269085,-112.2290523,85%,89%,80%,23%,19%,25.0,40,51,N/A,N/A,N/A,N/A
Goodyear,Arizona,83519,437,Phoenix-Mesa-Scottsdale,5059909,$85217,31.95%,40,$478000,2008,$238,15,77.0%,$1435,40.43%,N/A,N/A,6.46%,6.27%,58.62%,Maricopa County,44.80%,47.70%,4.1%,7.17%,54.34%,28.97%,11.03%,Mountain Standard Time,N/A,N/A,N/A,N/A,30,0.0,6.1,60,1107,6.4,191.3,AZ-28380,33.2614056,-112.3621909,85%,89%,80%,23%,19%,25.0,40,51,N/A,N/A,N/A,N/A
Guadalupe,Arizona,6572,8215,Phoenix-Mesa-Scottsdale,5059909,$42833,5.47%,35,N/A,N/A,N/A,42,45.34%,$666,61.54%,N/A,N/A,31.95%,6.99%,53.06%,Maricopa County,44.80%,47.70%,1.19%,0.0%,4.26%,75.12%,13.07%,Mountain Standard Time,N/A,N/A,N/A,N/A,36,0.0,6.1,39,1107,6.4,0.8,AZ-30270,33.3664509,-111.9631778,85%,89%,80%,23%,19%,25.0,40,51,N/A,N/A,N/A,N/A
Kaka,Arizona,100,385,Phoenix-Mesa-Scottsdale,5059909,$45179,0.0%,48,N/A,N/A,N/A,48,52.0%,N/A,82.89%,N/A,N/A,7.0%,25.64%,51.32%,Maricopa County,44.80%,47.70%,5.0%,0.0%,7.0%,0.0%,5.0%,Mountain Standard Time,N/A,N/A,N/A,N/A,30,0.0,6.1,83,1107,6.4,0.26,AZ-36780,32.5113623,-112.3166338,85%,89%,80%,23%,19%,25.0,40,51,N/A,N/A,N/A,N/A
Komatke,Arizona,885,395,Phoenix-Mesa-Scottsdale,5059909,$32750,6.59%,23,N/A,N/A,N/A,35,32.2%,$308,82.48%,N/A,N/A,54.69%,5.24%,38.62%,Maricopa County,44.80%,47.70%,1.58%,0.0%,2.26%,11.07%,3.95%,Mountain Standard Time,N/A,N/A,N/A,N/A,30,0.0,6.1,66,1107,6.4,2.24,AZ-38655,33.2952909,-112.1615405,85%,89%,80%,23%,19%,25.0,40,51,N/A,N/A,N/A,N/A
Litchfield Park,Arizona,6228,1899,Phoenix-Mesa-Scottsdale,5059909,$95625,50.07%,48,$575000,2500,$230,21,80.74%,$1750,38.12%,N/A,N/A,7.37%,2.93%,61.34%,Maricopa County,44.80%,47.70%,3.2%,1.19%,71.08%,16.51%,11.59%,Mountain Standard Time,N/A,N/A,N/A,N/A,32,0.0,6.1,60,1107,6.4,3.28,AZ-41330,33.5023361,-112.3587051,85%,89%,80%,23%,19%,25.0,40,51,N/A,N/A,N/A,N/A
Maricopa Colony,Arizona,818,149,Phoenix-Mesa-Scottsdale,5059909,$41406,14.89%,15,N/A,N/A,N/A,35,72.0%,N/A,69.44%,N/A,N/A,71.03%,7.48%,27.16%,Maricopa County,44.80%,47.70%,0.0%,0.0%,0.73%,3.67%,0.98%,Mountain Standard Time,N/A,N/A,N/A,N/A,30,0.0,6.1,66,1107,6.4,5.49,AZ-44450,33.3625915,-112.2268122,85%,89%,80%,23%,19%,25.0,40,51,N/A,N/A,N/A,N/A
Mesa,Arizona,508918,3669,Phoenix-Mesa-Scottsdale,5059909,$61640,28.07%,36,$449000,1701,$264,33,62.24%,$1105,50.78%,N/A,N/A,13.31%,5.13%,64.61%,Maricopa County,44.80%,47.70%,2.08%,4.38%,61.02%,27.61%,11.94%,Mountain Standard Time,N/A,N/A,N/A,N/A,36,0.0,6.1,53,1107,6.4,138.7,AZ-46000,33.4014515,-111.7177842,85%,89%,80%,23%,19%,25.0,40,51,N/A,N/A,N/A,N/A
Morristown,Arizona,187,231,Phoenix-Mesa-Scottsdale,5059909,$46458,21.3%,55,N/A,N/A,N/A,26,73.26%,$329,59.34%,N/A,N/A,34.22%,33.6%,71.02%,Maricopa County,44.80%,47.70%,0.0%,5.35%,75.4%,11.76%,0.0%,Mountain Standard Time,N/A,N/A,N/A,N/A,34,3.4,6.1,74,1107,6.4,0.81,AZ-47750,33.8548368,-112.6135118,85%,89%,80%,23%,19%,25.0,40,51,N/A,N/A,N/A,N/A
New River,Arizona,16303,291,Phoenix-Mesa-Scottsdale,5059909,$96187,37.32%,51,$723000,2259,$320,19,92.56%,$1599,38.66%,N/A,N/A,2.49%,3.07%,65.83%,Maricopa County,44.80%,47.70%,2.69%,0.54%,88.99%,7.35%,5.67%,Mountain Standard Time,N/A,N/A,N/A,N/A,38,1.3,6.1,71,1107,6.4,56.12,AZ-49360,33.8835012,-112.0858362,85%,89%,80%,23%,19%,25.0,40,51,N/A,N/A,N/A,N/A
Paradise Valley,Arizona,14502,943,Phoenix-Mesa-Scottsdale,5059909,$212773,73.04%,55,$3025000,5162,$586,35,93.81%,$3151,29.51%,N/A,N/A,4.06%,2.15%,52.09%,Maricopa County,44.80%,47.70%,3.85%,0.8%,82.06%,8.64%,10.86%,Mountain Standard Time,N/A,N/A,N/A,N/A,37,0.0,6.1,60,1107,6.4,15.38,AZ-52930,33.5434114,-111.9595297,85%,89%,80%,23%,19%,25.0,40,51,N/A,N/A,N/A,N/A
Peoria,Arizona,172109,977,Phoenix-Mesa-Scottsdale,5059909,$76423,34.07%,40,$500000,1887,$265,23,75.34%,$1340,44.5%,N/A,N/A,8.55%,4.44%,62.39%,Maricopa County,44.80%,47.70%,5.57%,3.16%,67.95%,19.58%,9.93%,Mountain Standard Time,N/A,N/A,N/A,N/A,32,0.0,6.1,58,1107,6.4,176.08,AZ-54050,33.7843008,-112.2989112,85%,89%,80%,23%,19%,25.0,40,51,N/A,N/A,N/A,N/A
Phoenix,Arizona,1658422,3202,Phoenix-Mesa-Scottsdale,5059909,$60914,29.42%,34,$436000,1591,$274,37,57.8%,$1100,55.57%,N/A,N/A,16.17%,5.35%,67.98%,Maricopa County,44.80%,47.70%,3.86%,7.1%,42.21%,42.65%,19.33%,Mountain Standard Time,N/A,N/A,N/A,N/A,33,0.0,6.1,46,1107,6.4,518.0,AZ-55000,33.5721835,-112.0891678,85%,89%,80%,23%,19%,25.0,40,51,N/A,N/A,N/A,N/A
Queen Creek,Arizona,52162,1294,Phoenix-Mesa-Scottsdale,5059909,$104161,38.06%,37,$625000,2367,$264,11,88.33%,$1640,37.05%,N/A,N/A,5.2%,6.57%,65.6%,Maricopa County,44.80%,47.70%,2.68%,3.41%,75.35%,14.42%,5.62%,Mountain Standard Time,N/A,N/A,N/A,N/A,29,0.0,6.1,68,1107,6.4,40.32,AZ-58150,33.2453783,-111.6173715,85%,89%,80%,23%,19%,25.0,40,51,N/A,N/A,N/A,N/A
Rio Verde,Arizona,2327,537,Phoenix-Mesa-Scottsdale,5059909,$125611,66.05%,70,$668000,2344,$285,26,99.4%,N/A,10.31%,N/A,N/A,1.63%,0.0%,30.47%,Maricopa County,44.80%,47.70%,0.0%,0.0%,98.07%,1.93%,5.5%,Mountain Standard Time,N/A,N/A,N/A,N/A,40,0.0,6.1,72,1107,6.4,4.33,AZ-60250,33.7278379,-111.6740421,85%,89%,80%,23%,19%,25.0,40,51,N/A,N/A,N/A,N/A
Scottsdale,Arizona,254995,1386,Phoenix-Mesa-Scottsdale,5059909,$91042,59.45%,48,$784000,1975,$397,31,69.48%,$1452,48.58%,N/A,N/A,6.75%,3.35%,61.86%,Maricopa County,44.80%,47.70%,5.17%,2.07%,79.45%,10.15%,12.32%,Mountain Standard Time,N/A,N/A,N/A,N/A,38,0.0,6.1,62,1107,6.4,184.0,AZ-65000,33.6871896,-111.8650699,85%,89%,80%,23%,19%,25.0,40,51,N/A,N/A,N/A,N/A
St. Johns CDP,Arizona,625,274,Phoenix-Mesa-Scottsdale,5059909,$51429,4.19%,27,N/A,N/A,N/A,16,68.96%,N/A,72.3%,N/A,N/A,27.68%,20.25%,55.76%,Maricopa County,44.80%,47.70%,0.0%,1.92%,0.0%,15.2%,0.0%,Mountain Standard Time,N/A,N/A,N/A,N/A,30,0.0,6.1,66,1107,6.4,2.28,AZ-62362,33.3044127,-112.1946962,85%,89%,80%,23%,19%,25.0,40,51,N/A,N/A,N/A,N/A
Sun City,Arizona,26043,2374,Phoenix-Mesa-Scottsdale,5059909,$54444,32.75%,75,$280000,1379,$203,32,90.26%,$1226,32.61%,N/A,N/A,6.63%,6.07%,12.59%,Maricopa County,44.80%,47.70%,0.72%,0.68%,96.23%,1.34%,4.62%,Mountain Standard Time,N/A,N/A,N/A,N/A,32,0.0,6.1,57,1107,6.4,10.97,AZ-70355,33.6694696,-112.357302,85%,89%,80%,23%,19%,25.0,40,51,N/A,N/A,N/A,N/A
Sun City West,Arizona,26043,2374,Phoenix-Mesa-Scottsdale,5059909,$54444,32.75%,75,$280000,1379,$203,32,90.26%,$1226,32.61%,N/A,N/A,6.63%,6.07%,12.59%,Maricopa County,44.80%,47.70%,0.72%,0.68%,96.23%,1.34%,4.62%,Mountain Standard Time,N/A,N/A,N/A,N/A,32,0.0,6.1,63,1107,6.4,10.97,AZ-70355,33.6694696,-112.357302,85%,89%,80%,23%,19%,25.0,40,51,N/A,N/A,N/A,N/A
Sun Lakes,Arizona,14887,2767,Phoenix-Mesa-Scottsdale,5059909,$56148,38.65%,73,$453000,1798,$252,29,90.22%,$1483,31.94%,N/A,N/A,7.09%,6.13%,22.73%,Maricopa County,44.80%,47.70%,0.48%,0.55%,95.76%,2.24%,6.87%,Mountain Standard Time,N/A,N/A,N/A,N/A,35,0.0,6.1,63,1107,6.4,5.38,AZ-70530,33.2171928,-111.8694625,85%,89%,80%,23%,19%,25.0,40,51,N/A,N/A,N/A,N/A
Surprise,Arizona,139007,1260,Phoenix-Mesa-Scottsdale,5059909,$71192,29.24%,42,$435000,1859,$234,17,74.39%,$1443,40.53%,N/A,N/A,7.6%,4.73%,55.37%,Maricopa County,44.80%,47.70%,2.78%,5.37%,68.77%,20.19%,8.28%,Mountain Standard Time,N/A,N/A,N/A,N/A,32,0.0,6.1,65,1107,6.4,110.3,AZ-71510,33.6815204,-112.4514675,85%,89%,80%,23%,19%,25.0,40,51,N/A,N/A,N/A,N/A
Tempe,Arizona,191607,4797,Phoenix-Mesa-Scottsdale,5059909,$61290,46.52%,30,$440000,1481,$297,38,41.13%,$1230,67.87%,N/A,N/A,18.52%,6.06%,69.25%,Maricopa County,44.80%,47.70%,9.14%,8.34%,54.45%,22.05%,15.43%,Mountain Standard Time,N/A,N/A,N/A,N/A,36,0.0,6.1,47,1107,6.4,39.94,AZ-73000,33.3881393,-111.931848,85%,89%,80%,23%,19%,25.0,40,51,N/A,N/A,N/A,N/A
Theba,Arizona,64,103,Phoenix-Mesa-Scottsdale,5059909,$51042,0.0%,24,N/A,N/A,N/A,42,9.38%,N/A,2.94%,N/A,N/A,0.0%,0.0%,76.47%,Maricopa County,44.80%,47.70%,0.0%,0.0%,0.0%,100.0%,37.5%,Mountain Standard Time,N/A,N/A,N/A,N/A,25,0.0,6.1,72,1107,6.4,0.62,AZ-73490,32.9182307,-112.8897757,85%,89%,80%,23%,19%,25.0,40,51,N/A,N/A,N/A,N/A
Tolleson,Arizona,7340,1281,Phoenix-Mesa-Scottsdale,5059909,$54494,10.66%,28,$396000,1850,$214,26,43.75%,$1032,49.79%,N/A,N/A,16.37%,4.17%,60.81%,Maricopa County,44.80%,47.70%,0.0%,9.84%,9.78%,76.58%,21.47%,Mountain Standard Time,N/A,N/A,N/A,N/A,30,0.0,6.1,14,1107,6.4,5.73,AZ-74190,33.4483695,-112.2560114,85%,89%,80%,23%,19%,25.0,40,51,N/A,N/A,N/A,N/A
Tonopah,Arizona,50,36,Phoenix-Mesa-Scottsdale,5059909,$0,22.0%,49,$540000,2241,$241,28,100.0%,N/A,22.0%,N/A,N/A,0.0%,35.48%,62.0%,Maricopa County,44.80%,47.70%,0.0%,0.0%,100.0%,0.0%,0.0%,Mountain Standard Time,N/A,N/A,N/A,N/A,27,0.0,6.1,61,1107,6.4,1.37,AZ-74540,33.4879863,-112.9308115,85%,89%,80%,23%,19%,25.0,40,51,N/A,N/A,N/A,N/A
Wickenburg,Arizona,7708,298,Phoenix-Mesa-Scottsdale,5059909,$52898,30.17%,61,$525000,1862,$282,34,77.75%,$611,40.19%,N/A,N/A,13.73%,1.5%,47.92%,Maricopa County,44.80%,47.70%,0.17%,0.12%,84.59%,9.17%,2.66%,Mountain Standard Time,N/A,N/A,N/A,N/A,33,3.4,6.1,72,1107,6.4,25.86,AZ-82740,33.9668781,-112.7655595,85%,89%,80%,23%,19%,25.0,40,51,N/A,N/A,N/A,N/A
Wintersburg,Arizona,11,22,Phoenix-Mesa-Scottsdale,5059909,$68800,0.0%,N/A,N/A,N/A,N/A,10,100.0%,N/A,100.0%,N/A,N/A,100.0%,0.0%,100.0%,Maricopa County,44.80%,47.70%,0.0%,0.0%,100.0%,0.0%,0.0%,Mountain Standard Time,N/A,N/A,N/A,N/A,27,0.0,6.1,61,1107,6.4,0.5,AZ-84000,33.4186971,-112.866536,85%,89%,80%,23%,19%,25.0,40,51,N/A,N/A,N/A,N/A
Wittmann,Arizona,810,835,Phoenix-Mesa-Scottsdale,5059909,$56964,8.73%,42,$498000,1945,$256,23,86.17%,N/A,21.34%,N/A,N/A,32.47%,17.01%,21.94%,Maricopa County,44.80%,47.70%,6.67%,0.0%,72.59%,13.83%,0.0%,Mountain Standard Time,N/A,N/A,N/A,N/A,36,3.4,6.1,74,1107,6.4,0.97,AZ-84140,33.7749569,-112.525091,85%,89%,80%,23%,19%,25.0,40,51,N/A,N/A,N/A,N/A
Youngtown,Arizona,6837,4589,Phoenix-Mesa-Scottsdale,5059909,$42564,15.09%,39,$295000,1077,$274,43,55.32%,$991,61.71%,N/A,N/A,17.07%,5.43%,55.18%,Maricopa County,44.80%,47.70%,1.1%,4.37%,53.03%,35.75%,13.95%,Mountain Standard Time,N/A,N/A,N/A,N/A,32,0.0,6.1,59,1107,6.4,1.49,AZ-85400,33.5845638,-112.3047625,85%,89%,80%,23%,19%,25.0,40,51,N/A,N/A,N/A,N/A
