City,State,Population,People per sq mi,Metro Name,Metro population,Median household income,% with at least Bachelor's degree,Median age,Median home price,Median home sqft,Median home cost per sqft,Median home age,Homeownership Rate,Avg Apartment Monthly Rent,Single Population,Num Violent Crimes Per 100k residents,Num Property Crimes Per 100k residents,Poverty Rate,Unemployment rate,Labor Force Participation rate,County,% Democrat,% Republican,% Asian,% Black,% Non-Hispanic White,% Hispanic,Foreign Born %,Timezone,Hottest month's avg high (F),Coldest month's avg high (F),Hottest high minus coldest high,Annual rainfall (in),Annual snowfall (in),Average yearly windspeed (mph),Air quality Index,Elevation (ft),UV Index,Land Area (sq mi),Fips Code,Latitude,Longitude,Annual Sunshine - Percentage of Possible,Summer Sunshine - Percentage of Possible,Winter Sunshine - Percentage of Possible,Annual Relative Humidity (afternoon),Summer Relative Humidity (afternoon),Number of days with thunder per year,Annual dew point (F),Average summer dew point (F),Hottest month's avg low (F),Coldest month's avg low (F),Summer rainfall (in),Winter rainfall (in),Percent of days that include precipitation,Percent of Summer days that include precipitation,Percent of Winter days that include precipitation,Days of snow per year,Hottest month's avg heat index high (F)
East Windsor,New Jersey,27675,1770,Trenton,405698,$83539,50.86%,N/A,N/A,N/A,N/A,42,58.00%,N/A,40.80%,58,665,N/A,2.40%,N/A,Mercer County,66.30%,29.20%,20.02%,8.67%,N/A,23.20%,N/A,Eastern Standard Time,88,41,47,50.17,26.0,7.4,53,99,4,15.64,NJ-19780,40.2565336,-74.5059103,55%,62%,50%,53%,51%,25.9,41,61,64,22,14.66,11.35,34.77%,36.81%,34.44%,12,91
Ewing,New Jersey,36437,2389,Trenton,405698,$77479,37.46%,N/A,$288000,1516,$190,56,60.90%,N/A,58.40%,165,1395,N/A,3.30%,N/A,Mercer County,66.30%,29.20%,4.58%,29.92%,N/A,8.50%,N/A,Eastern Standard Time,87,41,46,50.22,26.0,7.4,50,93,4,15.25,NJ-22180,40.2650815,-74.800599,55%,62%,50%,54%,53%,28.3,42,62,68,25,14.69,11.36,35.67%,36.59%,37.44%,12,90
Groveville,New Jersey,2953,1336,Trenton,405698,$78106,25.69%,49,$465000,1838,$253,63,82.99%,$865,49.45%,N/A,N/A,10.37%,12.01%,63.58%,Mercer County,66.30%,29.20%,1.25%,6.54%,90.15%,2.07%,5.79%,Eastern Standard Time,88,41,47,49.17,26.0,7.4,64,75,4,2.21,NJ-28620,40.1679507,-74.6522561,55%,62%,50%,54%,53%,28.3,42,62,64,22,14.6,11.14,34.77%,36.81%,34.44%,12,92
Hamilton Square,New Jersey,11526,2693,Trenton,405698,$110400,46.56%,46,$388000,1492,$260,53,97.41%,$1181,38.62%,N/A,N/A,1.54%,3.2%,66.59%,Mercer County,66.30%,29.20%,4.92%,2.44%,88.32%,3.51%,9.48%,Eastern Standard Time,88,41,47,49.17,26.0,7.4,50,75,4,4.28,NJ-29370,40.2248282,-74.6525834,55%,62%,50%,54%,53%,28.3,42,62,64,22,14.6,11.14,34.77%,36.81%,34.44%,12,92
Hamilton township (Mercer Cnty),New Jersey,89206,2258,Trenton,405698,$71197,N/A,N/A,N/A,N/A,N/A,55,67.00%,N/A,50.30%,N/A,N/A,N/A,3.00%,N/A,Mercer County,66.30%,29.20%,N/A,N/A,N/A,14.90%,N/A,Eastern Standard Time,88,41,47,49.17,26.0,7.4,49,75,4,39.51,NJ-29310,40.2045771,-74.6764753,55%,62%,50%,54%,53%,28.3,42,62,64,22,14.6,11.14,35.67%,36.59%,37.44%,12,92
Hightstown,New Jersey,5334,4337,Trenton,405698,$86291,37.08%,38,$324000,1385,$234,61,70.25%,$1372,43.47%,N/A,N/A,6.95%,4.79%,69.32%,Mercer County,66.30%,29.20%,7.67%,6.04%,56.82%,28.44%,32.21%,Eastern Standard Time,88,41,47,50.17,26.0,7.4,53,99,4,1.23,NJ-31620,40.2686078,-74.5252482,55%,62%,50%,53%,51%,25.9,41,61,64,22,14.66,11.35,34.77%,36.81%,34.44%,12,91
Hopewell borough,New Jersey,1857,2579,Trenton,405698,$121215,67.71%,44,$538000,1309,$411,78,79.27%,$1577,38.43%,N/A,N/A,4.71%,2.11%,76.47%,Mercer County,66.30%,29.20%,1.13%,0.16%,92.51%,4.85%,9.21%,Eastern Standard Time,86,39,47,51.9,26.0,7.4,53,243,4,0.72,NJ-33150,40.3893089,-74.7637985,55%,62%,50%,54%,53%,28.3,42,62,65,22,15.51,11.63,35.4%,38.46%,34.11%,12,88
Hopewell township (Mercer Cnty),New Jersey,1857,2579,Trenton,405698,$121215,67.71%,44,$538000,1309,$411,39,79.27%,$1577,38.43%,N/A,N/A,4.71%,2.11%,76.47%,Mercer County,66.30%,29.20%,1.13%,0.16%,92.51%,4.85%,9.21%,Eastern Standard Time,86,39,47,51.9,26.0,7.4,65,243,4,0.72,NJ-33150,40.3893089,-74.7637985,55%,62%,50%,54%,53%,28.3,42,62,65,22,15.51,11.63,35.4%,38.46%,34.11%,12,88
Lawrence township (Mercer Cnty),New Jersey,33288,1526,Trenton,405698,$88308,N/A,N/A,N/A,N/A,N/A,37,62.60%,N/A,47.90%,N/A,N/A,N/A,2.40%,N/A,Mercer County,66.30%,29.20%,N/A,N/A,N/A,8.60%,N/A,Eastern Standard Time,87,41,46,48.96,26.0,7.4,52,93,4,21.81,NJ-39510,40.2953902,-74.7205101,55%,62%,50%,54%,53%,28.3,42,62,68,25,14.88,10.95,35.67%,36.59%,37.44%,12,90
Lawrenceville,New Jersey,3515,3380,Trenton,405698,$89234,66.93%,51,$360000,1545,$233,37,89.27%,$1962,50.83%,N/A,N/A,3.81%,4.76%,68.93%,Mercer County,66.30%,29.20%,3.98%,1.71%,83.9%,7.62%,14.2%,Eastern Standard Time,87,41,46,51.91,26.0,7.4,59,195,4,1.04,NJ-39570,40.3017727,-74.7378382,55%,62%,50%,54%,53%,28.3,42,62,68,25,15.46,11.26,35.67%,36.59%,37.44%,12,90
Mercerville,New Jersey,12783,3464,Trenton,405698,$97969,38.0%,44,$340000,1245,$273,61,84.74%,$1423,44.54%,N/A,N/A,4.2%,5.19%,66.61%,Mercer County,66.30%,29.20%,1.27%,4.99%,77.99%,13.17%,8.21%,Eastern Standard Time,88,41,47,49.17,26.0,7.4,43,75,4,3.69,NJ-45480,40.2360267,-74.6916629,55%,62%,50%,54%,53%,28.3,42,62,64,22,14.6,11.14,35.67%,36.59%,37.44%,12,92
Pennington,New Jersey,2553,2659,Trenton,405698,$135000,75.34%,48,$534000,1963,$272,62,80.22%,$1633,36.25%,N/A,N/A,1.45%,3.14%,62.88%,Mercer County,66.30%,29.20%,4.74%,2.27%,88.25%,2.86%,9.95%,Eastern Standard Time,87,41,46,51.11,26.0,7.4,59,162,4,0.96,NJ-57600,40.3262583,-74.7907074,55%,62%,50%,54%,53%,28.3,42,62,68,25,15.42,11.36,34.66%,36.48%,35.56%,12,90
Princeton,New Jersey,31161,1736,Trenton,405698,$146127,84.5%,32,$774000,2156,$359,57,60.8%,$1704,52.91%,N/A,N/A,7.06%,3.72%,60.74%,Mercer County,66.30%,29.20%,17.2%,5.97%,67.46%,5.87%,29.7%,Eastern Standard Time,88,41,47,51.09,26.0,7.4,48,72,4,17.95,NJ-60900,40.3562348,-74.6693249,55%,62%,50%,54%,53%,28.3,42,62,64,22,14.91,11.86,34.77%,36.81%,34.44%,12,92
Princeton Junction,New Jersey,1989,1093,Trenton,405698,$228357,84.21%,50,$620000,2394,$259,49,79.59%,$1281,21.83%,N/A,N/A,6.59%,6.71%,75.54%,Mercer County,66.30%,29.20%,22.07%,2.51%,70.84%,1.26%,30.72%,Eastern Standard Time,88,41,47,51.09,26.0,7.4,61,72,4,1.82,NJ-60960,40.3206622,-74.623678,55%,62%,50%,54%,53%,28.3,42,62,64,22,14.91,11.86,34.77%,36.81%,34.44%,12,92
Robbinsville,New Jersey,3141,4908,Trenton,405698,$88889,64.23%,N/A,$350000,1326,$264,15,72.90%,N/A,39.00%,N/A,N/A,0%,3.30%,N/A,Mercer County,66.30%,29.20%,21.50%,5.57%,N/A,4.10%,19.1%,Eastern Standard Time,88,41,47,49.17,26.0,7.4,62,75,4,0.64,NJ-63850,40.221987,-74.5909864,55%,62%,50%,54%,53%,28.3,42,62,64,22,14.6,11.14,34.77%,36.81%,34.44%,12,92
Robbinsville township,New Jersey,14281,703,Trenton,405698,$114593,N/A,N/A,$350000,1326,$264,25,84.90%,N/A,N/A,N/A,N/A,N/A,3.30%,N/A,Mercer County,66.30%,29.20%,N/A,N/A,N/A,4.90%,N/A,Eastern Standard Time,88,41,47,49.17,26.0,7.4,62,75,4,20.31,NJ-63850,40.221987,-74.5909864,55%,62%,50%,54%,53%,28.3,42,62,64,22,14.6,11.14,34.77%,36.81%,34.44%,12,92
Trenton,New Jersey,83387,11001,Trenton,405698,$37002,14.23%,35,$125000,1250,$100,78,39.59%,$1085,65.23%,N/A,N/A,27.2%,10.3%,57.06%,Mercer County,66.30%,29.20%,1.04%,48.67%,13.46%,37.17%,22.62%,Eastern Standard Time,87,41,46,49.4,26.0,7.4,34,96,4,7.58,NJ-74000,40.2236972,-74.7640065,55%,62%,50%,54%,53%,28.3,42,62,68,25,14.46,11.21,35.67%,36.59%,37.44%,12,90
Twin Rivers,New Jersey,7221,5731,Trenton,405698,$100282,36.37%,36,$353000,1627,$217,46,71.11%,$1685,43.64%,N/A,N/A,4.18%,2.64%,75.48%,Mercer County,66.30%,29.20%,7.06%,7.7%,40.76%,45.02%,36.48%,Eastern Standard Time,88,41,47,50.17,29.4,7.4,53,99,4,1.26,NJ-74330,40.2630281,-74.4916804,55%,62%,50%,53%,51%,25.9,41,61,64,22,14.66,11.35,34.77%,36.81%,34.44%,11,91
White Horse,New Jersey,9557,3063,Trenton,405698,$92450,27.52%,42,$278000,1281,$217,63,83.28%,$1188,48.19%,N/A,N/A,6.36%,6.2%,65.61%,Mercer County,66.30%,29.20%,1.72%,10.2%,69.27%,18.11%,9.48%,Eastern Standard Time,87,41,46,49.17,26.0,7.4,49,75,4,3.12,NJ-80630,40.1919193,-74.702234,55%,62%,50%,54%,53%,28.3,42,62,68,25,14.6,11.14,35.67%,36.59%,37.44%,12,90
Yardville,New Jersey,6208,1525,Trenton,405698,$103176,26.61%,49,$389000,1514,$257,60,89.62%,$1221,54.01%,N/A,N/A,3.82%,2.08%,64.94%,Mercer County,66.30%,29.20%,3.72%,2.58%,85.7%,7.33%,8.6%,Eastern Standard Time,88,41,47,49.17,26.0,7.4,57,75,4,4.07,NJ-83170,40.1848729,-74.6604019,55%,62%,50%,54%,53%,28.3,42,62,64,22,14.6,11.14,34.77%,36.81%,34.44%,12,92
