City,State,Population,People per sq mi,Metro Name,Metro population,Median household income,% with at least Bachelor's degree,Median age,Median home price,Median home sqft,Median home cost per sqft,Median home age,Homeownership Rate,Avg Apartment Monthly Rent,Single Population,Num Violent Crimes Per 100k residents,Num Property Crimes Per 100k residents,Poverty Rate,Unemployment rate,Labor Force Participation rate,County,% Democrat,% Republican,% Asian,% Black,% Non-Hispanic White,% Hispanic,Foreign Born %,Timezone,Hottest month's avg high (F),Coldest month's avg high (F),Hottest high minus coldest high,Annual rainfall (in),Annual days of precipitation,Annual snowfall (in),Average yearly windspeed (mph),Air quality Index,Elevation (ft),UV Index,Land Area (sq mi),Fips Code,Latitude,Longitude,Annual Sunshine - Percentage of Possible,Summer Sunshine - Percentage of Possible,Winter Sunshine - Percentage of Possible,Annual Relative Humidity (afternoon),Summer Relative Humidity (afternoon),Number of days with thunder per year,Annual dew point (F),Average summer dew point (F),Hottest month's avg low (F),Coldest month's avg low (F),Summer rainfall (in),Winter rainfall (in),Percent of days that include precipitation,Percent of Summer days that include precipitation,Percent of Winter days that include precipitation
Avenel,New Jersey,17175,5051,New York-Newark-Jersey City,19124359,$71990,24.36%,39,$430000,1147,$375,45,51.1%,$1453,56.62%,N/A,N/A,11.82%,4.81%,50.12%,Middlesex County,58.80%,37.40%,21.19%,23.43%,34.32%,22.14%,29.83%,Eastern Standard Time,N/A,N/A,N/A,N/A,115,N/A,7.4,48,87,3.9,3.4,NJ-02350,40.5842361,-74.2716259,55%,62%,50%,53%,51%,25.9,41,61,N/A,N/A,N/A,N/A,33.64%,34.18%,36.11%
Brownville,New Jersey,2412,2254,New York-Newark-Jersey City,19124359,$105970,43.85%,42,$360000,1324,$272,37,82.92%,$2174,52.73%,N/A,N/A,12.02%,7.22%,76.27%,Middlesex County,58.80%,37.40%,9.12%,4.77%,68.91%,19.82%,13.31%,Eastern Standard Time,N/A,N/A,N/A,N/A,118,N/A,7.4,63,87,3.9,1.07,NJ-08492,40.4013558,-74.2958633,55%,62%,50%,53%,51%,25.9,41,61,N/A,N/A,N/A,N/A,35.12%,37.91%,35.0%
Carteret,New Jersey,23501,5353,New York-Newark-Jersey City,19124359,$76276,28.2%,38,$440000,1577,$279,56,61.06%,$1521,47.24%,135,1120,12.36%,6.16%,63.58%,Middlesex County,58.80%,37.40%,25.66%,10.55%,26.06%,37.27%,36.03%,Eastern Standard Time,N/A,N/A,N/A,N/A,117,N/A,7.4,43,87,3.9,4.39,NJ-10750,40.5838636,-74.2273192,55%,62%,50%,53%,51%,25.9,41,61,N/A,N/A,N/A,N/A,33.64%,34.18%,36.11%
Clearbrook Park,New Jersey,3144,3614,New York-Newark-Jersey City,19124359,$40801,24.35%,N/A,$280000,1353,$207,37,79.90%,$2044,38.40%,N/A,N/A,0%,3.10%,N/A,Middlesex County,58.80%,37.40%,10.1%,4.4%,79.1%,5.6%,15.8%,Eastern Standard Time,N/A,N/A,N/A,N/A,122,N/A,7.4,65,87,3.9,0.87,NJ-13399,40.309831,-74.4645962,55%,62%,50%,53%,51%,25.9,41,61,N/A,N/A,N/A,N/A,34.77%,36.81%,34.44%
Colonia,New Jersey,17782,4412,New York-Newark-Jersey City,19124359,$108364,40.52%,44,$545000,1823,$299,63,90.53%,$1657,45.59%,N/A,N/A,5.3%,3.39%,66.7%,Middlesex County,58.80%,37.40%,13.61%,5.85%,64.71%,13.49%,24.27%,Eastern Standard Time,N/A,N/A,N/A,N/A,115,N/A,7.4,51,87,3.9,4.03,NJ-14380,40.5925494,-74.3148125,55%,62%,50%,53%,51%,25.9,41,61,N/A,N/A,N/A,N/A,33.64%,34.18%,36.11%
Concordia,New Jersey,2520,3273,New York-Newark-Jersey City,19124359,$45920,38.41%,72,$320000,1404,$228,36,94.76%,$1465,41.27%,N/A,N/A,5.75%,7.39%,30.08%,Middlesex County,58.80%,37.40%,5.36%,4.96%,84.64%,5.04%,16.15%,Eastern Standard Time,N/A,N/A,N/A,N/A,122,N/A,7.4,66,87,3.9,0.77,NJ-14758,40.3124988,-74.4460403,55%,62%,50%,53%,51%,25.9,41,61,N/A,N/A,N/A,N/A,34.77%,36.81%,34.44%
Cranbury,New Jersey,2213,1814,New York-Newark-Jersey City,19124359,$210486,75.43%,49,$1183000,4108,$288,66,95.32%,$1601,41.23%,74,847,2.29%,2.24%,68.76%,Middlesex County,58.80%,37.40%,12.11%,6.19%,76.82%,1.45%,12.7%,Eastern Standard Time,N/A,N/A,N/A,N/A,122,N/A,7.4,60,87,3.9,1.22,NJ-15520,40.3101107,-74.5168262,55%,62%,50%,53%,51%,25.9,41,61,N/A,N/A,N/A,N/A,34.77%,36.81%,34.44%
Dayton,New Jersey,8158,3385,New York-Newark-Jersey City,19124359,$123766,69.6%,39,$500000,1832,$273,33,85.83%,$1764,34.31%,N/A,N/A,1.4%,8.27%,69.16%,Middlesex County,58.80%,37.40%,56.01%,7.42%,25.77%,8.75%,50.26%,Eastern Standard Time,N/A,N/A,N/A,N/A,120,N/A,7.4,57,87,3.9,2.41,NJ-16630,40.3767598,-74.5111835,55%,62%,50%,53%,51%,25.9,41,61,N/A,N/A,N/A,N/A,35.12%,37.91%,35.0%
Dunellen,New Jersey,7215,6807,New York-Newark-Jersey City,19124359,$75564,30.81%,37,$403000,1686,$239,73,62.85%,$1178,57.62%,193,1684,15.45%,5.2%,67.09%,Middlesex County,58.80%,37.40%,6.28%,10.58%,45.13%,37.38%,25.96%,Eastern Standard Time,N/A,N/A,N/A,N/A,117,N/A,7.4,54,87,3.9,1.06,NJ-18490,40.5902944,-74.4656519,55%,62%,50%,53%,51%,25.9,41,61,N/A,N/A,N/A,N/A,34.99%,37.91%,33.33%
East Brunswick,New Jersey,48673,2243,New York-Newark-Jersey City,19124359,$97270,55.98%,N/A,N/A,N/A,N/A,44,77.70%,N/A,39.80%,56,1107,N/A,3.10%,N/A,Middlesex County,58.80%,37.40%,25.5%,4.3%,61.0%,7.5%,N/A,Eastern Standard Time,N/A,N/A,N/A,N/A,119,N/A,7.4,60,87,3.9,21.7,NJ-18970,40.4282761,-74.417844,55%,62%,50%,53%,51%,25.9,41,61,N/A,N/A,N/A,N/A,35.12%,37.91%,35.0%
Edison,New Jersey,102304,3414,New York-Newark-Jersey City,19124359,$91881,55.53%,N/A,$510000,1640,$311,44,58.80%,N/A,37.80%,83,1367,N/A,3.10%,N/A,Middlesex County,58.80%,37.40%,48.9%,6.8%,31.7%,9.6%,N/A,Eastern Standard Time,N/A,N/A,N/A,N/A,116,N/A,7.4,51,87,3.9,29.97,NJ-20260,40.5044727,-74.347038,55%,62%,50%,53%,51%,25.9,41,61,N/A,N/A,N/A,N/A,35.12%,37.91%,35.0%
Fords,New Jersey,12509,6619,New York-Newark-Jersey City,19124359,$101206,35.41%,38,$460000,1685,$273,63,76.46%,$1630,45.05%,N/A,N/A,4.26%,4.85%,68.54%,Middlesex County,58.80%,37.40%,17.99%,12.55%,44.7%,24.45%,29.22%,Eastern Standard Time,N/A,N/A,N/A,N/A,116,N/A,7.4,52,87,3.9,1.89,NJ-24030,40.5358342,-74.3126918,55%,62%,50%,53%,51%,25.9,41,61,N/A,N/A,N/A,N/A,35.12%,37.91%,35.0%
Heathcote,New Jersey,7389,2353,New York-Newark-Jersey City,19124359,$106442,74.82%,41,$325000,1213,$268,32,88.36%,$1597,34.17%,N/A,N/A,3.84%,2.39%,61.34%,Middlesex County,58.80%,37.40%,50.43%,6.01%,30.04%,4.11%,40.78%,Eastern Standard Time,N/A,N/A,N/A,N/A,122,N/A,7.4,60,87,3.9,3.14,NJ-30738,40.387775,-74.5779948,55%,62%,50%,53%,51%,25.9,41,61,N/A,N/A,N/A,N/A,34.77%,36.81%,34.44%
Helmetta,New Jersey,2232,2689,New York-Newark-Jersey City,19124359,$94116,33.19%,42,$351000,1387,$253,38,75.81%,$1712,52.83%,N/A,N/A,2.28%,4.44%,76.85%,Middlesex County,58.80%,37.40%,5.11%,1.75%,76.79%,15.86%,13.98%,Eastern Standard Time,N/A,N/A,N/A,N/A,122,N/A,7.4,66,87,3.9,0.83,NJ-30840,40.3776529,-74.4237906,55%,62%,50%,53%,51%,25.9,41,61,N/A,N/A,N/A,N/A,35.12%,37.91%,35.0%
Highland Park,New Jersey,13803,7584,New York-Newark-Jersey City,19124359,$83980,70.87%,36,$430000,1807,$238,59,50.34%,$1465,47.36%,N/A,N/A,8.12%,7.31%,70.54%,Middlesex County,58.80%,37.40%,15.68%,9.03%,58.78%,12.38%,29.55%,Eastern Standard Time,N/A,N/A,N/A,N/A,117,N/A,7.4,50,87,3.9,1.82,NJ-31470,40.5005671,-74.4282965,55%,62%,50%,53%,51%,25.9,41,61,N/A,N/A,N/A,N/A,35.12%,37.91%,35.0%
Iselin,New Jersey,17356,5510,New York-Newark-Jersey City,19124359,$101386,50.12%,42,$400000,1044,$383,60,73.03%,$1826,35.62%,N/A,N/A,5.54%,5.88%,66.29%,Middlesex County,58.80%,37.40%,51.57%,7.56%,27.88%,7.55%,48.65%,Eastern Standard Time,N/A,N/A,N/A,N/A,115,N/A,7.4,53,87,3.9,3.15,NJ-34470,40.5696852,-74.3171553,55%,62%,50%,53%,51%,25.9,41,61,N/A,N/A,N/A,N/A,35.12%,37.91%,35.0%
Jamesburg,New Jersey,5876,6677,New York-Newark-Jersey City,19124359,$87551,35.98%,35,$353000,1483,$238,55,79.72%,$1143,44.66%,N/A,N/A,6.14%,5.15%,75.05%,Middlesex County,58.80%,37.40%,4.56%,2.14%,63.39%,27.38%,22.07%,Eastern Standard Time,N/A,N/A,N/A,N/A,122,N/A,7.4,62,87,3.9,0.88,NJ-34890,40.3493486,-74.439968,55%,62%,50%,53%,51%,25.9,41,61,N/A,N/A,N/A,N/A,35.12%,37.91%,35.0%
Kendall Park,New Jersey,9852,2606,New York-Newark-Jersey City,19124359,$138889,60.72%,44,$550000,1864,$295,45,84.72%,$1471,37.78%,N/A,N/A,3.96%,5.71%,74.16%,Middlesex County,58.80%,37.40%,29.83%,7.97%,48.61%,11.36%,29.8%,Eastern Standard Time,N/A,N/A,N/A,N/A,120,N/A,7.4,56,87,3.9,3.78,NJ-36660,40.4134601,-74.5630319,55%,62%,50%,53%,51%,25.9,41,61,N/A,N/A,N/A,N/A,35.12%,37.91%,35.0%
Kingston,New Jersey,963,512,New York-Newark-Jersey City,19124359,$59716,74.94%,59,$580000,2222,$261,51,64.59%,$1644,52.72%,N/A,N/A,2.28%,0.0%,54.22%,Middlesex County,58.80%,37.40%,18.28%,0.0%,80.69%,0.0%,29.28%,Eastern Standard Time,N/A,N/A,N/A,N/A,124,N/A,7.4,58,87,3.9,1.88,NJ-36930,40.3838273,-74.6121911,55%,62%,50%,53%,51%,25.9,41,61,N/A,N/A,N/A,N/A,34.77%,36.81%,34.44%
Laurence Harbor,New Jersey,6041,2048,New York-Newark-Jersey City,19124359,$73805,36.62%,47,$423000,1356,$312,60,80.17%,$1448,49.73%,N/A,N/A,3.61%,4.83%,66.19%,Middlesex County,58.80%,37.40%,8.09%,8.74%,63.38%,16.19%,15.53%,Eastern Standard Time,N/A,N/A,N/A,N/A,117,N/A,7.4,59,87,3.9,2.95,NJ-39360,40.4488093,-74.2496241,55%,62%,50%,53%,51%,25.9,41,61,N/A,N/A,N/A,N/A,35.12%,37.91%,35.0%
Madison Park,New Jersey,8079,4439,New York-Newark-Jersey City,19124359,$68422,36.31%,35,$410000,1165,$352,59,32.82%,$1312,45.32%,N/A,N/A,12.43%,4.5%,71.09%,Middlesex County,58.80%,37.40%,22.43%,25.36%,38.05%,14.37%,34.81%,Eastern Standard Time,N/A,N/A,N/A,N/A,117,N/A,7.4,59,87,3.9,1.82,NJ-42540,40.4454245,-74.2965413,55%,62%,50%,53%,51%,25.9,41,61,N/A,N/A,N/A,N/A,35.12%,37.91%,35.0%
Metuchen,New Jersey,14289,5014,New York-Newark-Jersey City,19124359,$136067,62.2%,39,$490000,1498,$327,63,81.1%,$1700,38.31%,N/A,N/A,3.28%,4.36%,73.14%,Middlesex County,58.80%,37.40%,15.97%,5.47%,63.2%,9.64%,18.04%,Eastern Standard Time,N/A,N/A,N/A,N/A,116,N/A,7.4,50,87,3.9,2.85,NJ-45690,40.5423827,-74.362842,55%,62%,50%,53%,51%,25.9,41,61,N/A,N/A,N/A,N/A,35.12%,37.91%,35.0%
Middlesex,New Jersey,13606,3899,New York-Newark-Jersey City,19124359,$84216,29.58%,41,$405000,962,$421,58,78.32%,$1419,43.75%,N/A,N/A,10.08%,5.46%,68.49%,Middlesex County,58.80%,37.40%,6.44%,7.82%,55.89%,29.86%,20.17%,Eastern Standard Time,N/A,N/A,N/A,N/A,116,N/A,7.4,54,87,3.9,3.49,NJ-45900,40.5744411,-74.5010822,55%,62%,50%,53%,51%,25.9,41,61,N/A,N/A,N/A,N/A,34.99%,37.91%,33.33%
Milltown,New Jersey,6973,4499,New York-Newark-Jersey City,19124359,$105540,42.98%,42,$406000,1297,$313,63,80.55%,$1552,43.24%,N/A,N/A,0.63%,7.18%,74.83%,Middlesex County,58.80%,37.40%,5.72%,2.98%,78.29%,9.62%,16.12%,Eastern Standard Time,N/A,N/A,N/A,N/A,117,N/A,7.4,57,87,3.9,1.55,NJ-46620,40.4504121,-74.4350917,55%,62%,50%,53%,51%,25.9,41,61,N/A,N/A,N/A,N/A,35.12%,37.91%,35.0%
Monmouth Junction,New Jersey,8911,2034,New York-Newark-Jersey City,19124359,$121127,81.74%,39,$428000,1685,$254,25,66.3%,$1656,30.83%,N/A,N/A,4.1%,2.07%,72.18%,Middlesex County,58.80%,37.40%,52.38%,9.77%,28.17%,7.95%,50.23%,Eastern Standard Time,N/A,N/A,N/A,N/A,120,N/A,7.4,57,87,3.9,4.38,NJ-47190,40.3753901,-74.5582138,55%,62%,50%,53%,51%,25.9,41,61,N/A,N/A,N/A,N/A,34.77%,36.81%,34.44%
Monroe township (Middlesex Cnty),New Jersey,43796,1043,New York-Newark-Jersey City,19124359,$70772,N/A,N/A,N/A,N/A,N/A,27,85.90%,N/A,35.10%,N/A,N/A,N/A,3.30%,N/A,Middlesex County,58.80%,37.40%,19.8%,3.7%,70.3%,4.1%,N/A,Eastern Standard Time,N/A,N/A,N/A,N/A,122,N/A,7.4,66,87,3.9,41.99,NJ-47280,40.3190955,-74.4285825,55%,62%,50%,53%,51%,25.9,41,61,N/A,N/A,N/A,N/A,34.77%,36.81%,34.44%
New Brunswick,New Jersey,55992,10706,New York-Newark-Jersey City,19124359,$43930,22.98%,24,$384000,1500,$256,53,19.75%,$1524,73.91%,N/A,N/A,36.07%,6.86%,54.24%,Middlesex County,58.80%,37.40%,9.57%,15.33%,27.28%,45.72%,31.33%,Eastern Standard Time,N/A,N/A,N/A,N/A,117,N/A,7.4,44,87,3.9,5.23,NJ-51210,40.4870525,-74.445074,55%,62%,50%,53%,51%,25.9,41,61,N/A,N/A,N/A,N/A,35.12%,37.91%,35.0%
North Brunswick,New Jersey,42591,3552,New York-Newark-Jersey City,19124359,$80505,49.80%,N/A,N/A,N/A,N/A,37,53.10%,N/A,49.00%,N/A,N/A,N/A,3.10%,N/A,Middlesex County,58.80%,37.40%,24.9%,17.9%,36.0%,19.5%,N/A,Eastern Standard Time,N/A,N/A,N/A,N/A,117,N/A,7.4,58,87,3.9,11.99,NJ-52605,40.4504409,-74.479996,55%,62%,50%,53%,51%,25.9,41,61,N/A,N/A,N/A,N/A,35.12%,37.91%,35.0%
Old Bridge,New Jersey,27836,3537,New York-Newark-Jersey City,19124359,$94853,40.03%,45,$492000,1597,$308,53,82.46%,$1178,40.17%,N/A,N/A,5.09%,5.23%,68.73%,Middlesex County,58.80%,37.40%,15.02%,3.42%,66.97%,14.12%,21.86%,Eastern Standard Time,N/A,N/A,N/A,N/A,118,N/A,7.4,62,87,3.9,7.87,NJ-54690,40.3949797,-74.3309604,55%,62%,50%,53%,51%,25.9,41,61,N/A,N/A,N/A,N/A,35.12%,37.91%,35.0%
Perth Amboy,New Jersey,51589,11071,New York-Newark-Jersey City,19124359,$54188,15.26%,35,$320000,1569,$204,65,31.84%,$1387,57.97%,N/A,N/A,19.68%,6.74%,63.04%,Middlesex County,58.80%,37.40%,1.16%,7.85%,14.76%,77.8%,43.94%,Eastern Standard Time,N/A,N/A,N/A,N/A,116,N/A,7.4,52,87,3.9,4.66,NJ-58200,40.5197015,-74.270692,55%,62%,50%,53%,51%,25.9,41,61,N/A,N/A,N/A,N/A,35.12%,37.91%,35.0%
Piscataway,New Jersey,57695,3062,New York-Newark-Jersey City,19124359,$89529,50.05%,N/A,N/A,N/A,N/A,43,63.70%,N/A,55.70%,N/A,N/A,N/A,3.60%,N/A,Middlesex County,58.80%,37.40%,38.0%,19.1%,28.9%,11.3%,N/A,Eastern Standard Time,N/A,N/A,N/A,N/A,117,N/A,7.4,49,87,3.9,18.84,NJ-59010,40.5467558,-74.4636156,55%,62%,50%,53%,51%,25.9,41,61,N/A,N/A,N/A,N/A,35.12%,37.91%,35.0%
Plainsboro,New Jersey,23487,1994,New York-Newark-Jersey City,19124359,$92967,78.98%,N/A,N/A,N/A,N/A,31,43.90%,N/A,37.70%,N/A,N/A,N/A,3.10%,N/A,Middlesex County,58.80%,37.40%,53.9%,5.4%,33.7%,3.2%,N/A,Eastern Standard Time,N/A,N/A,N/A,N/A,121,N/A,7.4,60,87,3.9,11.78,NJ-59280,40.3376983,-74.5878423,55%,62%,50%,53%,51%,25.9,41,61,N/A,N/A,N/A,N/A,34.77%,36.81%,34.44%
Port Reading,New Jersey,3973,2007,New York-Newark-Jersey City,19124359,$106544,32.74%,42,$468000,1414,$331,58,86.75%,$1326,44.52%,N/A,N/A,0.78%,0.9%,69.2%,Middlesex County,58.80%,37.40%,13.64%,15.96%,35.54%,34.63%,24.74%,Eastern Standard Time,N/A,N/A,N/A,N/A,117,N/A,7.4,49,87,3.9,1.98,NJ-60540,40.567906,-74.2460677,55%,62%,50%,53%,51%,25.9,41,61,N/A,N/A,N/A,N/A,33.64%,34.18%,36.11%
Princeton Meadows,New Jersey,14261,5593,New York-Newark-Jersey City,19124359,$112520,76.78%,35,$476000,1556,$306,35,48.67%,$1622,36.82%,N/A,N/A,4.61%,5.73%,73.6%,Middlesex County,58.80%,37.40%,60.33%,5.69%,27.18%,4.49%,54.29%,Eastern Standard Time,N/A,N/A,N/A,N/A,120,N/A,7.4,60,87,3.9,2.55,NJ-60975,40.3346955,-74.5651216,55%,62%,50%,53%,51%,25.9,41,61,N/A,N/A,N/A,N/A,34.77%,36.81%,34.44%
Rossmoor,New Jersey,2700,3971,New York-Newark-Jersey City,19124359,$43232,29.94%,73,$211000,1213,$174,49,82.48%,$1326,58.07%,N/A,N/A,6.33%,6.61%,28.59%,Middlesex County,58.80%,37.40%,4.0%,3.52%,91.22%,1.26%,11.56%,Eastern Standard Time,N/A,N/A,N/A,N/A,122,N/A,7.4,62,87,3.9,0.68,NJ-64865,40.334859,-74.4707142,55%,62%,50%,53%,51%,25.9,41,61,N/A,N/A,N/A,N/A,34.77%,36.81%,34.44%
Sayreville,New Jersey,44243,2795,New York-Newark-Jersey City,19124359,$82693,35.85%,39,$445000,1846,$241,45,66.94%,$1351,46.89%,N/A,N/A,5.29%,4.53%,70.89%,Middlesex County,58.80%,37.40%,16.74%,12.54%,49.42%,19.03%,30.71%,Eastern Standard Time,N/A,N/A,N/A,N/A,117,N/A,7.4,57,87,3.9,15.83,NJ-65790,40.4662108,-74.3197768,55%,62%,50%,53%,51%,25.9,41,61,N/A,N/A,N/A,N/A,35.12%,37.91%,35.0%
Sewaren,New Jersey,2708,2220,New York-Newark-Jersey City,19124359,$95505,33.38%,44,$421000,1341,$314,61,69.69%,$1462,45.54%,N/A,N/A,3.47%,6.4%,74.63%,Middlesex County,58.80%,37.40%,6.35%,12.22%,49.11%,32.2%,17.8%,Eastern Standard Time,N/A,N/A,N/A,N/A,117,N/A,7.4,51,87,3.9,1.22,NJ-66720,40.5514511,-74.2560488,55%,62%,50%,53%,51%,25.9,41,61,N/A,N/A,N/A,N/A,33.64%,34.18%,36.11%
Society Hill,New Jersey,3768,2730,New York-Newark-Jersey City,19124359,$85417,57.08%,N/A,$370000,1474,$251,33,71.20%,$1862,47.50%,N/A,N/A,4.5%,3.10%,N/A,Middlesex County,58.80%,37.40%,46.3%,14.3%,27.3%,9.8%,37.4%,Eastern Standard Time,N/A,N/A,N/A,N/A,117,N/A,7.4,54,87,3.9,1.38,NJ-68304,40.5343322,-74.4577486,55%,62%,50%,53%,51%,25.9,41,61,N/A,N/A,N/A,N/A,35.12%,37.91%,35.0%
South Amboy,New Jersey,8868,5758,New York-Newark-Jersey City,19124359,$81742,28.19%,42,$398000,1605,$248,69,57.64%,$1392,46.87%,N/A,N/A,5.36%,4.83%,71.22%,Middlesex County,58.80%,37.40%,3.07%,9.51%,67.66%,22.79%,18.0%,Eastern Standard Time,N/A,N/A,N/A,N/A,117,N/A,7.4,54,87,3.9,1.54,NJ-68550,40.4862311,-74.2777575,55%,62%,50%,53%,51%,25.9,41,61,N/A,N/A,N/A,N/A,35.12%,37.91%,35.0%
South Brunswick,New Jersey,45602,1122,New York-Newark-Jersey City,19124359,$110167,66.90%,N/A,N/A,N/A,N/A,31,75.00%,N/A,38.30%,N/A,N/A,N/A,2.60%,N/A,Middlesex County,58.80%,37.40%,42.3%,8.8%,39.7%,6.8%,N/A,Eastern Standard Time,N/A,N/A,N/A,N/A,121,N/A,7.4,58,87,3.9,40.64,NJ-68790,40.3840374,-74.5255685,55%,62%,50%,53%,51%,25.9,41,61,N/A,N/A,N/A,N/A,35.12%,37.91%,35.0%
South Plainfield,New Jersey,23961,2887,New York-Newark-Jersey City,19124359,$108244,38.86%,41,$419000,1435,$292,58,86.83%,$1675,39.11%,N/A,N/A,3.06%,5.85%,69.4%,Middlesex County,58.80%,37.40%,14.04%,14.37%,51.78%,16.91%,21.53%,Eastern Standard Time,N/A,N/A,N/A,N/A,118,N/A,7.4,45,87,3.9,8.3,NJ-69390,40.5747822,-74.4152523,55%,62%,50%,53%,51%,25.9,41,61,N/A,N/A,N/A,N/A,35.12%,37.91%,35.0%
South River,New Jersey,15874,5690,New York-Newark-Jersey City,19124359,$77382,25.82%,38,$418000,1554,$269,63,62.06%,$1316,45.34%,N/A,N/A,12.3%,13.1%,69.78%,Middlesex County,58.80%,37.40%,3.8%,6.77%,64.73%,22.62%,25.99%,Eastern Standard Time,N/A,N/A,N/A,N/A,117,N/A,7.4,58,87,3.9,2.79,NJ-69420,40.4454759,-74.3782828,55%,62%,50%,53%,51%,25.9,41,61,N/A,N/A,N/A,N/A,35.12%,37.91%,35.0%
Spotswood,New Jersey,8255,3574,New York-Newark-Jersey City,19124359,$85703,26.94%,43,$340000,1459,$233,55,87.37%,$960,44.54%,N/A,N/A,4.58%,9.89%,64.07%,Middlesex County,58.80%,37.40%,7.1%,3.57%,76.64%,12.15%,12.89%,Eastern Standard Time,N/A,N/A,N/A,N/A,122,N/A,7.4,65,87,3.9,2.31,NJ-69810,40.3949055,-74.391962,55%,62%,50%,53%,51%,25.9,41,61,N/A,N/A,N/A,N/A,35.12%,37.91%,35.0%
Whittingham,New Jersey,2507,3633,New York-Newark-Jersey City,19124359,$63604,38.53%,77,$491000,2232,$220,28,95.81%,$2031,24.89%,N/A,N/A,3.27%,0.0%,14.16%,Middlesex County,58.80%,37.40%,1.79%,5.42%,91.74%,1.04%,11.13%,Eastern Standard Time,N/A,N/A,N/A,N/A,122,N/A,7.4,63,87,3.9,0.69,NJ-81042,40.3268543,-74.4457692,55%,62%,50%,53%,51%,25.9,41,61,N/A,N/A,N/A,N/A,34.77%,36.81%,34.44%
Woodbridge,New Jersey,20500,4447,New York-Newark-Jersey City,19124359,$93837,39.18%,37,$375000,1230,$305,55,53.68%,$1779,42.92%,N/A,N/A,3.71%,5.38%,68.32%,Middlesex County,58.80%,37.40%,22.76%,12.05%,36.65%,28.01%,31.24%,Eastern Standard Time,N/A,N/A,N/A,N/A,115,N/A,7.4,50,87,3.9,4.61,NJ-81950,40.5535699,-74.2874592,55%,62%,50%,53%,51%,25.9,41,61,N/A,N/A,N/A,N/A,35.12%,37.91%,35.0%
Woodbridge township,New Jersey,20500,4447,New York-Newark-Jersey City,19124359,$93837,39.18%,37,$375000,1230,$305,55,53.68%,$1779,42.92%,N/A,N/A,3.71%,5.38%,68.32%,Middlesex County,58.80%,37.40%,22.76%,12.05%,36.65%,28.01%,31.24%,Eastern Standard Time,N/A,N/A,N/A,N/A,116,N/A,7.4,51,87,3.9,4.61,NJ-81950,40.5535699,-74.2874592,55%,62%,50%,53%,51%,25.9,41,61,N/A,N/A,N/A,N/A,35.12%,37.91%,35.0%
