City,State,Population,People per sq mi,Metro Name,Metro population,Median household income,% with at least Bachelor's degree,Median age,Median home price,Median home sqft,Median home cost per sqft,Median home age,Homeownership Rate,Avg Apartment Monthly Rent,Single Population,Num Violent Crimes Per 100k residents,Num Property Crimes Per 100k residents,Poverty Rate,Unemployment rate,Labor Force Participation rate,County,% Democrat,% Republican,% Asian,% Black,% Non-Hispanic White,% Hispanic,Foreign Born %,Timezone,Hottest month's avg high (F),Coldest month's avg high (F),Hottest high minus coldest high,Annual rainfall (in),Annual days of precipitation,Annual snowfall (in),Avg Summer Dew Point,Avg Annual Dew Point,Average yearly windspeed (mph),Air quality Index,Elevation (ft),UV Index,Land Area (sq mi),Fips Code,Latitude,Longitude,Annual Sunshine - Percentage of Possible,Summer Sunshine - Percentage of Possible,Winter Sunshine - Percentage of Possible
Dallas,Oregon,16612,3383,Salem,436948,$58398,22.46%,42,$460000,1603,$287,34,69.0%,$925,48.43%,282,1919,16.2%,5.8%,52.25%,Polk County,40.70%,47.00%,0.32%,0.13%,91.46%,3.38%,2.82%,Pacific Standard Time,83,46,37,54,144,6,51.7,44.1,4,68,196,3,4.91,OR-17700,44.922134,-123.3130186,50%,67%,30%
Falls City,Oregon,1496,1247,Salem,436948,$33625,9.7%,34,N/A,N/A,N/A,46,67.51%,$1010,48.85%,N/A,N/A,28.61%,14.62%,56.13%,Polk County,40.70%,47.00%,5.82%,0.67%,73.53%,16.11%,3.68%,Pacific Standard Time,82,45,37,65,144,7,51.5,43.7,N/A,83,196,3,1.2,OR-24550,44.8648027,-123.4375005,50%,67%,30%
Grand Ronde,Oregon,1479,77,Salem,436948,$39294,11.96%,47,N/A,N/A,N/A,26,61.85%,$488,44.04%,N/A,N/A,28.97%,10.74%,44.59%,Polk County,40.70%,47.00%,1.83%,0.41%,50.57%,4.33%,2.03%,Pacific Standard Time,79,46,33,54,145,4,52,44.1,4,83,196,3,19.2,OR-30300,45.0738489,-123.6210373,50%,67%,30%
Independence,Oregon,10178,3415,Salem,436948,$54617,18.25%,28,$520000,2000,$260,25,57.82%,$1141,53.36%,183,1398,8.98%,6.36%,67.5%,Polk County,40.70%,47.00%,0.28%,0.35%,51.93%,44.07%,11.73%,Pacific Standard Time,83,46,37,43,149,4,51.7,44.3,4,74,196,3,2.98,OR-36150,44.8547307,-123.1952572,50%,67%,30%
Monmouth,Oregon,10411,4798,Salem,436948,$47585,33.65%,24,$419000,1569,$267,31,43.18%,$1022,62.09%,141,1204,24.52%,3.42%,61.54%,Polk County,40.70%,47.00%,2.74%,3.33%,69.6%,17.45%,9.68%,Pacific Standard Time,83,46,37,43,149,4,51.7,44.2,4,63,196,3,2.17,OR-49550,44.8504349,-123.2284255,50%,67%,30%
