City,State,Population,People per sq mi,Metro Name,Metro population,Median household income,% with at least Bachelor's degree,Median age,Median home price,Median home sqft,Median home cost per sqft,Median home age,Homeownership Rate,Avg Apartment Monthly Rent,Single Population,Num Violent Crimes Per 100k residents,Num Property Crimes Per 100k residents,Poverty Rate,Unemployment rate,Labor Force Participation rate,County,% Democrat,% Republican,% Asian,% Black,% Non-Hispanic White,% Hispanic,Foreign Born %,Timezone,Hottest month's avg high (F),Coldest month's avg high (F),Hottest high minus coldest high,Annual rainfall (in),Annual days of precipitation,Annual snowfall (in),Avg Summer Dew Point,Avg Annual Dew Point,Average yearly windspeed (mph),Air quality Index,Elevation (ft),UV Index,Land Area (sq mi),Fips Code,Latitude,Longitude,Annual Sunshine - Percentage of Possible,Summer Sunshine - Percentage of Possible,Winter Sunshine - Percentage of Possible
Bancroft,West Virginia,443,3164,Huntington-Ashland,354085,$59750,3.84%,36,N/A,N/A,N/A,54,84.2%,$770,68.72%,N/A,N/A,10.61%,1.67%,56.9%,Putnam County,23.30%,70.60%,0.0%,0.0%,98.87%,0.0%,0.0%,Eastern Standard Time,85,42,43,44,144,25,62.8,44.5,5,63,565,4,0.14,WV-04204,38.5106486,-81.8417375,45%,54%,35%
Buffalo,West Virginia,1061,763,Huntington-Ashland,354085,$50568,13.35%,44,N/A,N/A,N/A,39,86.16%,$525,49.38%,N/A,N/A,12.39%,18.24%,52.72%,Putnam County,23.30%,70.60%,0.0%,0.0%,99.53%,0.0%,0.0%,Eastern Standard Time,85,41,44,41,135,12,62.3,44,5,67,565,4,1.39,WV-11284,38.6108584,-81.9816317,45%,54%,35%
Eleanor,West Virginia,1465,685,Huntington-Ashland,354085,$64625,17.84%,41,N/A,N/A,N/A,40,83.55%,$835,41.6%,N/A,N/A,7.28%,0.0%,58.48%,Putnam County,23.30%,70.60%,0.0%,0.0%,96.25%,3.14%,1.57%,Eastern Standard Time,86,42,44,42,138,14,62.7,44.4,5,67,565,4,2.14,WV-24292,38.5370569,-81.9253387,45%,54%,35%
Hometown,West Virginia,595,744,Huntington-Ashland,354085,$35594,8.29%,56,N/A,N/A,N/A,40,90.42%,N/A,54.43%,N/A,N/A,26.55%,12.77%,51.27%,Putnam County,23.30%,70.60%,0.0%,0.0%,100.0%,0.0%,0.0%,Eastern Standard Time,86,42,44,43,144,24,62.8,44.5,5,63,565,4,0.8,WV-38260,38.5288327,-81.8552158,45%,54%,35%
Hurricane,West Virginia,6225,1678,Huntington-Ashland,354085,$62308,27.17%,38,N/A,N/A,N/A,34,81.31%,$807,51.11%,N/A,N/A,7.23%,3.01%,54.55%,Putnam County,23.30%,70.60%,0.47%,0.0%,90.49%,2.3%,2.17%,Eastern Standard Time,86,43,43,44,142,19,62.6,44.4,5,59,565,4,3.71,WV-39532,38.4291775,-82.0182744,45%,54%,35%
Poca,West Virginia,953,1702,Huntington-Ashland,354085,$59167,20.49%,41,N/A,N/A,N/A,54,75.45%,N/A,50.97%,N/A,N/A,13.26%,1.85%,65.37%,Putnam County,23.30%,70.60%,0.0%,0.0%,100.0%,0.0%,0.31%,Eastern Standard Time,86,42,44,43,143,23,62.7,44.4,5,56,565,4,0.56,WV-64516,38.4747102,-81.8119876,45%,54%,35%
Teays Valley,West Virginia,13729,1891,Huntington-Ashland,354085,$88865,45.02%,42,N/A,N/A,N/A,29,83.02%,$1001,39.65%,N/A,N/A,4.9%,3.88%,64.83%,Putnam County,23.30%,70.60%,1.65%,1.39%,94.57%,1.68%,1.73%,Eastern Standard Time,86,43,43,44,142,19,62.8,44.5,N/A,50,565,4,7.26,WV-79545,38.4482188,-81.9248347,45%,54%,35%
Winfield,West Virginia,3133,1328,Huntington-Ashland,354085,$69432,34.97%,40,N/A,N/A,N/A,28,81.42%,$919,33.15%,0,504,14.14%,3.11%,60.56%,Putnam County,23.30%,70.60%,3.48%,2.36%,91.54%,0.0%,3.54%,Eastern Standard Time,86,42,44,43,144,24,62.8,44.5,5,63,565,4,2.36,WV-87988,38.5292404,-81.885668,45%,54%,35%
