City,State,Population,People per sq mi,Metro Name,Metro population,Median household income,% with at least Bachelor's degree,Median age,Median home price,Median home sqft,Median home cost per sqft,Median home age,Homeownership Rate,Avg Apartment Monthly Rent,Single Population,Num Violent Crimes Per 100k residents,Num Property Crimes Per 100k residents,Poverty Rate,Unemployment rate,Labor Force Participation rate,County,% Democrat,% Republican,% Asian,% Black,% Non-Hispanic White,% Hispanic,Foreign Born %,Timezone,Hottest month's avg high (F),Coldest month's avg high (F),Hottest high minus coldest high,Annual rainfall (in),Annual days of precipitation,Annual snowfall (in),Average yearly windspeed (mph),Air quality Index,Elevation (ft),UV Index,Land Area (sq mi),Fips Code,Latitude,Longitude,Annual Sunshine - Percentage of Possible,Summer Sunshine - Percentage of Possible,Winter Sunshine - Percentage of Possible,Annual Relative Humidity (afternoon),Summer Relative Humidity (afternoon),Number of days with thunder per year
Ashland township,Kansas,130,77,Manhattan,130142,$44886,N/A,N/A,N/A,N/A,N/A,32,64.60%,N/A,38.50%,N/A,N/A,N/A,3.60%,N/A,Riley County,42.50%,46.00%,0.0%,0.0%,100.0%,0.0%,N/A,Central Standard Time,90,40,50,35,91,14,8.0,70,1024,4.4,1.69,KS-02725,39.1037247,-96.5992764,59%,68%,54%,58%,58%,55.1
Bala,Kansas,668,1553,Manhattan,130142,$30833,12.53%,N/A,N/A,N/A,N/A,56,0.0%,N/A,0.0%,N/A,N/A,0.0%,0.0%,0.0%,Riley County,42.50%,46.00%,0.0%,0.0%,0.0%,0.0%,0.0%,Central Standard Time,90,39,51,31,75,14,8.0,74,1024,4.4,0.43,KS-03800,39.3108293,-96.9503922,68%,79%,61%,57%,54%,56.8
Center township (Riley Cnty),Kansas,90,3,Manhattan,130142,$58750,N/A,N/A,N/A,N/A,N/A,78,69.60%,N/A,26.30%,N/A,N/A,N/A,3.60%,N/A,Riley County,42.50%,46.00%,0.0%,0.0%,100.0%,0.0%,N/A,Central Standard Time,91,39,52,32,76,15,8.0,74,1024,4.4,30.0,KS-12100,39.4804974,-96.8852284,68%,79%,61%,57%,54%,56.8
Fancy Creek,Kansas,49,2,Manhattan,130142,$69583,N/A,N/A,N/A,N/A,N/A,78,45.50%,N/A,24.50%,N/A,N/A,N/A,3.60%,N/A,Riley County,42.50%,46.00%,0.0%,0.0%,100.0%,0.0%,N/A,Central Standard Time,91,39,52,32,75,14,8.0,74,1024,4.4,24.5,KS-22950,39.4227367,-96.886022,68%,79%,61%,57%,54%,56.8
Grant township (Riley Cnty),Kansas,1076,30,Manhattan,130142,$84643,N/A,N/A,N/A,N/A,N/A,34,91.50%,N/A,27.00%,N/A,N/A,N/A,3.60%,N/A,Riley County,42.50%,46.00%,0.0%,0.0%,87.1%,8.0%,N/A,Central Standard Time,90,40,50,34,90,14,8.0,74,1024,4.4,35.87,KS-28075,39.2977003,-96.7061254,68%,79%,61%,57%,54%,56.8
Jackson township (Riley Cnty),Kansas,342,11,Manhattan,130142,$62813,N/A,N/A,N/A,N/A,N/A,43,74.70%,N/A,38.00%,N/A,N/A,N/A,3.60%,N/A,Riley County,42.50%,46.00%,0.3%,5.6%,93.0%,0.0%,N/A,Central Standard Time,91,40,51,33,78,16,8.0,74,1024,4.4,31.09,KS-34900,39.456871,-96.7604203,68%,79%,61%,57%,54%,56.8
Leonardville,Kansas,647,2231,Manhattan,130142,$56875,16.23%,47,N/A,N/A,N/A,61,75.51%,$855,39.14%,N/A,N/A,8.45%,2.52%,55.16%,Riley County,42.50%,46.00%,0.46%,0.0%,88.41%,2.01%,0.31%,Central Standard Time,90,39,51,31,74,14,8.0,74,1024,4.4,0.29,KS-39500,39.3640839,-96.859679,68%,79%,61%,57%,54%,56.8
Madison township (Riley Cnty),Kansas,10933,18850,Manhattan,130142,$38562,N/A,N/A,N/A,N/A,N/A,37,23.40%,N/A,52.50%,N/A,N/A,N/A,3.60%,N/A,Riley County,42.50%,46.00%,1.5%,14.4%,64.0%,14.7%,N/A,Central Standard Time,90,40,50,33,80,15,8.0,71,1024,4.4,0.58,KS-44125,39.2096376,-96.8147066,68%,79%,61%,57%,54%,56.8
Manhattan,Kansas,55045,2763,Manhattan,130142,$50957,52.86%,25,$258000,2081,$124,37,41.9%,$911,67.84%,N/A,N/A,26.94%,4.41%,69.44%,Riley County,42.50%,46.00%,5.9%,5.62%,76.95%,6.84%,7.88%,Central Standard Time,90,40,50,35,91,14,8.0,58,1024,4.4,19.92,KS-44250,39.1885687,-96.6048036,59%,68%,54%,58%,58%,55.1
Manhattan township,Kansas,55045,2763,Manhattan,130142,$50957,52.86%,25,$258000,2081,$124,37,41.9%,$911,67.84%,N/A,N/A,26.94%,4.41%,69.44%,Riley County,42.50%,46.00%,5.9%,5.62%,76.95%,6.84%,7.88%,Central Standard Time,90,40,50,35,91,14,8.0,68,1024,4.4,19.92,KS-44250,39.1885687,-96.6048036,59%,68%,54%,58%,58%,55.1
May Day,Kansas,105,3,Manhattan,130142,$27625,N/A,N/A,N/A,N/A,N/A,18,87.00%,N/A,35.50%,N/A,N/A,N/A,3.60%,N/A,Riley County,42.50%,46.00%,0.0%,0.0%,100.0%,0.0%,N/A,Central Standard Time,91,39,52,32,77,16,8.0,74,1024,4.4,35.0,KS-45225,39.5378325,-96.8842835,68%,79%,61%,57%,54%,56.8
Ogden,Kansas,1475,883,Manhattan,130142,$41190,20.71%,31,$112000,1474,$76,27,46.58%,$781,33.03%,N/A,N/A,14.53%,11.23%,61.69%,Riley County,42.50%,46.00%,3.05%,5.83%,78.03%,9.49%,6.1%,Central Standard Time,91,41,50,35,92,13,8.0,70,1024,4.4,1.67,KS-52275,39.1127979,-96.7027069,59%,68%,54%,58%,58%,55.1
Ogden township,Kansas,1475,883,Manhattan,130142,$41190,20.71%,31,$112000,1474,$76,27,46.58%,$781,33.03%,N/A,N/A,14.53%,11.23%,61.69%,Riley County,42.50%,46.00%,3.05%,5.83%,78.03%,9.49%,6.1%,Central Standard Time,91,40,51,35,92,13,8.0,70,1024,4.4,1.67,KS-52275,39.1127979,-96.7027069,59%,68%,54%,58%,58%,55.1
Randolph,Kansas,168,672,Manhattan,130142,$62321,19.17%,45,N/A,N/A,N/A,45,98.21%,N/A,46.53%,N/A,N/A,2.4%,1.75%,79.17%,Riley County,42.50%,46.00%,1.19%,0.0%,93.45%,0.0%,1.19%,Central Standard Time,91,40,51,33,78,16,8.0,74,1024,4.4,0.25,KS-58475,39.4288948,-96.7597527,68%,79%,61%,57%,54%,56.8
Riley,Kansas,1265,2582,Manhattan,130142,$59297,28.27%,36,$142000,1434,$99,56,87.04%,$913,37.81%,N/A,N/A,3.4%,1.56%,82.55%,Riley County,42.50%,46.00%,0.71%,0.0%,92.73%,4.98%,1.42%,Central Standard Time,90,39,51,32,81,15,8.0,74,1024,4.4,0.49,KS-59875,39.2989676,-96.8275786,68%,79%,61%,57%,54%,56.8
Sherman township (Riley Cnty),Kansas,706,24,Manhattan,130142,$72222,N/A,N/A,N/A,N/A,N/A,46,84.20%,N/A,29.20%,N/A,N/A,N/A,3.60%,N/A,Riley County,42.50%,46.00%,0.0%,0.9%,98.6%,0.3%,N/A,Central Standard Time,90,40,50,34,86,14,8.0,74,1024,4.4,29.42,KS-65075,39.3676386,-96.7518292,68%,79%,61%,57%,54%,56.8
Swede Creek,Kansas,167,3,Manhattan,130142,$71250,N/A,N/A,N/A,N/A,N/A,64,63.30%,N/A,39.40%,N/A,N/A,N/A,3.60%,N/A,Riley County,42.50%,46.00%,0.0%,0.0%,92.2%,0.0%,N/A,Central Standard Time,90,39,51,33,79,16,8.0,74,1024,4.4,55.67,KS-69650,39.5328887,-96.7082433,68%,79%,61%,57%,54%,56.8
Wildcat township (Riley Cnty),Kansas,1013,35,Manhattan,130142,$80547,N/A,N/A,N/A,N/A,N/A,37,75.10%,N/A,26.80%,N/A,N/A,N/A,3.60%,N/A,Riley County,42.50%,46.00%,2.7%,0.0%,95.0%,1.8%,N/A,Central Standard Time,90,40,50,35,90,14,8.0,74,1024,4.4,28.94,KS-79175,39.2373474,-96.7030759,68%,79%,61%,57%,54%,56.8
Zeandale,Kansas,62,46,Manhattan,130142,$77845,0.0%,88,N/A,N/A,N/A,47,100.0%,N/A,100.0%,N/A,N/A,27.42%,0.0%,72.58%,Riley County,42.50%,46.00%,0.0%,0.0%,100.0%,0.0%,0.0%,Central Standard Time,90,40,50,35,91,14,8.0,70,1024,4.4,1.36,KS-80875,39.1627914,-96.4278931,59%,68%,54%,58%,58%,55.1
