City,State,Population,People per sq mi,Metro Name,Metro population,Median household income,% with at least Bachelor's degree,Median age,Median home price,Median home sqft,Median home cost per sqft,Median home age,Homeownership Rate,Avg Apartment Monthly Rent,Single Population,Num Violent Crimes Per 100k residents,Num Property Crimes Per 100k residents,Poverty Rate,Unemployment rate,Labor Force Participation rate,County,% Democrat,% Republican,% Asian,% Black,% Non-Hispanic White,% Hispanic,Foreign Born %,Timezone,Hottest month's avg high (F),Coldest month's avg high (F),Hottest high minus coldest high,Annual rainfall (in),Annual days of precipitation,Annual days of sunshine,Annual snowfall (in),Avg Summer Dew Point,Avg Annual Dew Point,Average yearly windspeed (mph),Air quality Index,Elevation (ft),UV Index,Land Area (sq mi),Fips Code,Latitude,Longitude
Adams,Tennessee,602,252,Nashville-Davidson--Murfreesboro--Franklin,1961232,$53125,19.13%,43,$482000,1826,$264,53,76.58%,$868,48.39%,N/A,N/A,9.17%,3.28%,67.81%,Robertson County,24.50%,71.60%,0.0%,4.15%,91.2%,3.16%,0.0%,Central Standard Time,90,46,44,51,113,210,4,65.4,47.8,7,70,605,4.4,2.39,TN-00200,36.5828102,-87.0651144
Cedar Hill,Tennessee,271,423,Nashville-Davidson--Murfreesboro--Franklin,1961232,$31538,4.03%,30,$310000,1535,$202,44,62.36%,$770,69.9%,N/A,N/A,24.33%,8.49%,57.45%,Robertson County,24.50%,71.60%,0.0%,9.59%,84.13%,10.7%,1.48%,Central Standard Time,88,45,43,51,113,204,6,65.2,47.6,7,70,605,4.4,0.64,TN-11980,36.5511975,-87.0010495
Coopertown,Tennessee,4528,143,Nashville-Davidson--Murfreesboro--Franklin,1961232,$78750,31.19%,42,$500000,2857,$175,25,83.33%,$1121,43.33%,87,958,8.9%,2.9%,63.19%,Robertson County,24.50%,71.60%,0.0%,5.79%,92.84%,0.0%,0.0%,Central Standard Time,88,45,43,51,111,209,5,65.3,48,N/A,68,605,4.4,31.6,TN-16980,36.4142383,-86.9657888
Cross Plains,Tennessee,1900,219,Nashville-Davidson--Murfreesboro--Franklin,1961232,$60083,14.46%,37,$480000,1875,$256,31,72.74%,$876,43.86%,0,273,4.05%,4.49%,70.54%,Robertson County,24.50%,71.60%,0.37%,2.89%,94.47%,1.63%,0.53%,Central Standard Time,89,45,44,51,112,208,5,65.5,48.2,6,67,605,4.4,8.69,TN-18420,36.5412459,-86.6766422
Greenbrier,Tennessee,6859,943,Nashville-Davidson--Murfreesboro--Franklin,1961232,$69381,21.36%,35,$315000,1493,$211,28,77.61%,$937,47.27%,333,827,9.1%,1.32%,73.07%,Robertson County,24.50%,71.60%,1.63%,3.47%,87.52%,4.16%,3.54%,Central Standard Time,88,45,43,51,112,206,5,65.1,48,6,65,605,4.4,7.27,TN-30960,36.4243153,-86.7975023
Orlinda,Tennessee,1211,184,Nashville-Davidson--Murfreesboro--Franklin,1961232,$83125,16.09%,40,$428000,2761,$155,27,85.05%,$986,49.8%,N/A,N/A,11.73%,7.01%,68.65%,Robertson County,24.50%,71.60%,0.0%,10.9%,85.55%,3.72%,3.06%,Central Standard Time,89,45,44,51,112,206,5,65.5,48.2,6,64,605,4.4,6.59,TN-56020,36.5938339,-86.7015598
Ridgetop,Tennessee,2441,806,Nashville-Davidson--Murfreesboro--Franklin,1961232,$67466,25.38%,41,$278000,1318,$211,41,81.34%,$985,40.07%,48,96,4.58%,0.71%,61.2%,Robertson County,24.50%,71.60%,1.97%,0.29%,93.4%,3.32%,1.47%,Central Standard Time,88,45,43,51,113,210,4,65.3,48,6,64,605,4.4,3.03,TN-63140,36.4044447,-86.7680826
Springfield,Tennessee,17147,1306,Nashville-Davidson--Murfreesboro--Franklin,1961232,$48420,16.1%,34,$283000,1437,$197,39,53.23%,$849,52.44%,675,2302,22.8%,6.95%,60.55%,Robertson County,24.50%,71.60%,0.9%,21.61%,53.71%,19.88%,11.95%,Central Standard Time,88,45,43,51,112,205,5,65.1,47.8,6,56,605,4.4,13.13,TN-70500,36.4949092,-86.8711807
