City,State,Population,People per sq mi,Metro Name,Metro population,Median household income,% with at least Bachelor's degree,Median age,Median home price,Median home sqft,Median home cost per sqft,Median home age,Homeownership Rate,Avg Apartment Monthly Rent,Single Population,Num Violent Crimes Per 100k residents,Num Property Crimes Per 100k residents,Poverty Rate,Unemployment rate,Labor Force Participation rate,County,% Democrat,% Republican,% Asian,% Black,% Non-Hispanic White,% Hispanic,Foreign Born %,Timezone,Hottest month's avg high (F),Coldest month's avg high (F),Hottest high minus coldest high,Annual rainfall (in),Annual days of precipitation,Annual days of sunshine,Annual snowfall (in),Avg Summer Dew Point,Avg Annual Dew Point,Average yearly windspeed (mph),Air quality Index,Elevation (ft),UV Index,Land Area (sq mi),Fips Code,Latitude,Longitude,Annual Sunshine - Percentage of Possible,Summer Sunshine - Percentage of Possible,Winter Sunshine - Percentage of Possible
Fate,Texas,14300,1207,Dallas-Fort Worth-Arlington,7694138,$109481,48.36%,33,$382000,2134,$179,11,91.92%,$2055,31.03%,39,474,0.53%,6.07%,76.3%,Rockwall County,24.00%,70.80%,2.1%,7.45%,59.12%,28.64%,7.93%,Central Standard Time,96,56,40,40,81,230,1,66.6,52.8,8,61,596,5.4,11.85,TX-25572,32.9428979,-96.3857943,61%,71%,56%
Heath,Texas,9069,734,Dallas-Fort Worth-Arlington,7694138,$174154,58.15%,46,$660000,3056,$216,24,92.84%,$1944,32.8%,130,501,1.76%,4.09%,58.93%,Rockwall County,24.00%,70.80%,5.43%,0.93%,84.58%,7.2%,5.65%,Central Standard Time,95,56,39,40,81,233,1,66.6,52.8,8,62,596,5.4,12.36,TX-32984,32.8438327,-96.4674248,61%,71%,56%
McLendon-Chisholm,Texas,3521,282,Dallas-Fort Worth-Arlington,7694138,$155667,48.03%,43,$525000,2679,$196,16,98.1%,$1034,30.18%,N/A,N/A,0.85%,1.1%,66.11%,Rockwall County,24.00%,70.80%,1.08%,4.46%,84.18%,8.41%,2.87%,Central Standard Time,95,56,39,40,81,228,1,66.6,52.8,N/A,61,596,5.4,12.5,TX-45804,32.8423476,-96.3805389,61%,71%,56%
Mobile City,Texas,206,10300,Dallas-Fort Worth-Arlington,7694138,$38043,2.61%,26,N/A,N/A,N/A,34,19.42%,$940,92.37%,N/A,N/A,45.63%,0.0%,62.71%,Rockwall County,24.00%,70.80%,0.0%,0.0%,17.48%,82.52%,22.33%,Central Standard Time,96,55,41,40,82,233,1,66.6,52.8,N/A,61,596,5.4,0.02,TX-48858,32.9228316,-96.4111491,61%,71%,56%
Rockwall,Texas,45168,1533,Dallas-Fort Worth-Arlington,7694138,$100894,45.85%,39,$475000,2399,$198,18,79.85%,$1338,37.07%,N/A,N/A,3.48%,3.36%,68.64%,Rockwall County,24.00%,70.80%,3.7%,7.14%,70.4%,15.9%,9.2%,Central Standard Time,96,56,40,40,81,236,1,66.4,52.7,8,55,596,5.4,29.47,TX-62828,32.9169231,-96.4374156,61%,71%,56%
Royse City,Texas,13773,753,Dallas-Fort Worth-Arlington,7694138,$91550,26.44%,31,$373000,2027,$184,16,83.97%,$1679,37.23%,N/A,N/A,4.75%,2.0%,72.7%,Rockwall County,24.00%,70.80%,0.73%,8.26%,67.36%,20.67%,8.39%,Central Standard Time,96,56,40,41,81,228,1,66.9,52.9,8,62,596,5.4,18.3,TX-63668,32.9762253,-96.3174673,61%,71%,56%
