City,State,Population,People per sq mi,Metro Name,Metro population,Median household income,% with at least Bachelor's degree,Median age,Median home price,Median home sqft,Median home cost per sqft,Median home age,Homeownership Rate,Avg Apartment Monthly Rent,Single Population,Num Violent Crimes Per 100k residents,Num Property Crimes Per 100k residents,Poverty Rate,Unemployment rate,Labor Force Participation rate,County,% Democrat,% Republican,% Asian,% Black,% Non-Hispanic White,% Hispanic,Foreign Born %,Timezone,Hottest month's avg high (F),Coldest month's avg high (F),Hottest high minus coldest high,Annual rainfall (in),Annual days of precipitation,Annual snowfall (in),Average yearly windspeed (mph),Air quality Index,Elevation (ft),UV Index,Land Area (sq mi),Fips Code,Latitude,Longitude,Annual Sunshine - Percentage of Possible,Summer Sunshine - Percentage of Possible,Winter Sunshine - Percentage of Possible,Annual Relative Humidity (afternoon),Summer Relative Humidity (afternoon),Number of days with thunder per year,Annual dew point (F),Average summer dew point (F),Hottest month's avg low (F),Coldest month's avg low (F),Summer rainfall (in),Winter rainfall (in)
Andalusia,Illinois,1118,947,Davenport-Moline-Rock Island,377759,$68000,18.8%,49,$201000,2030,$99,51,92.84%,$835,41.03%,N/A,N/A,3.58%,3.04%,68.33%,Rock Island County,50.50%,42.20%,0.54%,1.43%,93.38%,2.77%,1.43%,Central Standard Time,N/A,N/A,N/A,41.98,110,28,8.1,80,594,3.7,1.18,IL-01426,41.4373921,-90.7165088,53%,63%,46%,59%,57%,46.7,39,62,N/A,N/A,14.79,6.04
Andalusia township,Illinois,1118,947,Davenport-Moline-Rock Island,377759,$68000,18.8%,49,$201000,2030,$99,51,92.84%,$835,41.03%,N/A,N/A,3.58%,3.04%,68.33%,Rock Island County,50.50%,42.20%,0.54%,1.43%,93.38%,2.77%,1.43%,Central Standard Time,N/A,N/A,N/A,41.98,110,28,8.1,81,594,3.7,1.18,IL-01426,41.4373921,-90.7165088,53%,63%,46%,59%,57%,46.7,39,62,N/A,N/A,14.79,6.04
Blackhawk,Illinois,9916,354,Davenport-Moline-Rock Island,377759,$44779,18.44%,N/A,N/A,N/A,N/A,48,63.60%,N/A,47.90%,N/A,N/A,N/A,4.70%,N/A,Rock Island County,50.50%,42.20%,0.9%,5.7%,82.2%,8.3%,N/A,Central Standard Time,N/A,N/A,N/A,40.92,115,28,8.1,77,594,3.7,28.01,IL-06301,41.4414515,-90.5910459,53%,63%,46%,59%,57%,46.7,39,62,N/A,N/A,14.68,6.0
Bowling,Illinois,3406,92,Davenport-Moline-Rock Island,377759,$67609,20.65%,N/A,N/A,N/A,N/A,46,82.30%,N/A,35.20%,N/A,N/A,N/A,4.70%,N/A,Rock Island County,50.50%,42.20%,0.0%,0.0%,95.2%,2.8%,N/A,Central Standard Time,N/A,N/A,N/A,40.92,115,29,8.1,81,594,3.7,37.02,IL-07549,41.371373,-90.6087596,53%,63%,46%,59%,57%,46.7,39,62,N/A,N/A,14.68,6.0
Buffalo Prairie,Illinois,27,7,Davenport-Moline-Rock Island,377759,$75093,0.0%,N/A,N/A,N/A,N/A,45,100.0%,N/A,100.0%,N/A,N/A,0.0%,0.0%,0.0%,Rock Island County,50.50%,42.20%,0.0%,0.0%,100.0%,0.0%,0.0%,Central Standard Time,N/A,N/A,N/A,38.83,112,27,8.1,82,594,3.7,3.76,IL-09499,41.3408543,-90.848206,53%,63%,46%,59%,57%,46.7,39,62,N/A,N/A,13.94,4.78
Canoe Creek,Illinois,907,63,Davenport-Moline-Rock Island,377759,$41094,13.83%,N/A,N/A,N/A,N/A,54,56.10%,N/A,42.10%,N/A,N/A,N/A,4.70%,N/A,Rock Island County,50.50%,42.20%,0.0%,0.6%,95.4%,1.9%,N/A,Central Standard Time,N/A,N/A,N/A,41.93,109,29,8.1,80,594,3.7,14.4,IL-10955,41.6115676,-90.189435,53%,63%,46%,59%,57%,46.7,39,62,N/A,N/A,14.96,5.9
Carbon Cliff,Illinois,1937,922,Davenport-Moline-Rock Island,377759,$37500,7.2%,35,N/A,N/A,N/A,42,38.56%,$826,54.19%,N/A,N/A,28.14%,8.19%,62.48%,Rock Island County,50.50%,42.20%,0.0%,12.7%,79.04%,7.69%,9.65%,Central Standard Time,N/A,N/A,N/A,40.2,115,28,8.1,77,594,3.7,2.1,IL-11150,41.4980731,-90.3917337,53%,63%,46%,59%,57%,46.7,39,62,N/A,N/A,14.42,5.77
Coal Valley,Illinois,3817,1227,Davenport-Moline-Rock Island,377759,$73472,36.02%,46,$145000,1229,$118,46,90.2%,$935,36.14%,132,1595,2.91%,1.54%,62.25%,Rock Island County,50.50%,42.20%,0.47%,0.79%,93.9%,5.42%,1.68%,Central Standard Time,N/A,N/A,N/A,41.63,115,28,8.1,77,594,3.7,3.11,IL-15235,41.4404969,-90.458889,53%,63%,46%,59%,57%,46.7,39,62,N/A,N/A,14.61,5.81
Coal Valley township,Illinois,3817,1227,Davenport-Moline-Rock Island,377759,$73472,36.02%,46,$145000,1229,$118,46,90.2%,$935,36.14%,132,1595,2.91%,1.54%,62.25%,Rock Island County,50.50%,42.20%,0.47%,0.79%,93.9%,5.42%,1.68%,Central Standard Time,N/A,N/A,N/A,41.63,115,28,8.1,76,594,3.7,3.11,IL-15235,41.4404969,-90.458889,53%,63%,46%,59%,57%,46.7,39,62,N/A,N/A,14.61,5.81
Coe,Illinois,1453,41,Davenport-Moline-Rock Island,377759,$91500,N/A,N/A,N/A,N/A,N/A,39,91.20%,N/A,30.00%,N/A,N/A,N/A,4.70%,N/A,Rock Island County,50.50%,42.20%,1.4%,1.2%,95.4%,2.0%,N/A,Central Standard Time,N/A,N/A,N/A,41.93,109,29,8.1,80,594,3.7,35.44,IL-15326,41.6273864,-90.2672097,53%,63%,46%,59%,57%,46.7,39,62,N/A,N/A,14.96,5.9
Cordova,Illinois,685,1202,Davenport-Moline-Rock Island,377759,$63810,19.25%,39,$35000,1029,$34,48,80.73%,$798,39.86%,N/A,N/A,1.75%,2.36%,61.41%,Rock Island County,50.50%,42.20%,0.29%,1.17%,96.06%,0.29%,1.75%,Central Standard Time,N/A,N/A,N/A,41.93,106,29,8.1,80,594,3.7,0.57,IL-16366,41.6774246,-90.3217156,53%,63%,46%,59%,57%,46.7,39,62,N/A,N/A,14.96,5.9
Cordova township,Illinois,685,1202,Davenport-Moline-Rock Island,377759,$63810,19.25%,39,$35000,1029,$34,48,80.73%,$798,39.86%,N/A,N/A,1.75%,2.36%,61.41%,Rock Island County,50.50%,42.20%,0.29%,1.17%,96.06%,0.29%,1.75%,Central Standard Time,N/A,N/A,N/A,41.93,106,29,8.1,80,594,3.7,0.57,IL-16366,41.6774246,-90.3217156,53%,63%,46%,59%,57%,46.7,39,62,N/A,N/A,14.96,5.9
Coyne Center,Illinois,1102,641,Davenport-Moline-Rock Island,377759,$116116,15.88%,52,N/A,N/A,N/A,59,84.57%,N/A,20.17%,N/A,N/A,2.0%,0.0%,62.97%,Rock Island County,50.50%,42.20%,0.0%,0.0%,84.3%,0.0%,0.0%,Central Standard Time,N/A,N/A,N/A,40.92,115,29,8.1,80,594,3.7,1.72,IL-17077,41.4006374,-90.5626656,53%,63%,46%,59%,57%,46.7,39,62,N/A,N/A,14.68,6.0
Drury,Illinois,792,16,Davenport-Moline-Rock Island,377759,$64779,N/A,N/A,N/A,N/A,N/A,64,70.50%,N/A,38.10%,N/A,N/A,N/A,4.70%,N/A,Rock Island County,50.50%,42.20%,0.0%,0.0%,79.3%,20.7%,N/A,Central Standard Time,N/A,N/A,N/A,38.83,115,26,8.1,82,594,3.7,49.5,IL-20825,41.3779108,-90.9784113,53%,63%,46%,59%,57%,46.7,39,62,N/A,N/A,13.94,4.78
East Moline,Illinois,20683,1417,Davenport-Moline-Rock Island,377759,$51388,19.26%,38,$117000,1500,$78,55,71.07%,$690,52.23%,N/A,N/A,13.67%,5.22%,56.89%,Rock Island County,50.50%,42.20%,2.81%,14.71%,60.96%,18.61%,10.8%,Central Standard Time,N/A,N/A,N/A,40.2,115,29,8.1,71,594,3.7,14.6,IL-22073,41.5198573,-90.3878872,53%,63%,46%,59%,57%,46.7,39,62,N/A,N/A,14.42,5.77
Edgington,Illinois,195,193,Davenport-Moline-Rock Island,377759,$119722,34.25%,35,$169000,1565,$108,46,76.92%,N/A,30.68%,N/A,N/A,0.0%,0.0%,69.89%,Rock Island County,50.50%,42.20%,0.0%,0.0%,100.0%,0.0%,2.05%,Central Standard Time,N/A,N/A,N/A,38.83,108,28,8.1,82,594,3.7,1.01,IL-22619,41.3868865,-90.7636805,53%,63%,46%,59%,57%,46.7,39,62,N/A,N/A,13.94,4.78
Hampton,Illinois,2074,1421,Davenport-Moline-Rock Island,377759,$73304,28.72%,39,$290000,2397,$121,48,80.95%,$916,44.67%,N/A,N/A,6.71%,8.1%,62.12%,Rock Island County,50.50%,42.20%,0.0%,3.86%,85.68%,8.34%,1.25%,Central Standard Time,N/A,N/A,N/A,40.37,114,29,8.1,75,594,3.7,1.46,IL-32564,41.5555217,-90.4046052,53%,63%,46%,59%,57%,46.7,39,62,N/A,N/A,14.09,5.55
Hampton township,Illinois,2074,1421,Davenport-Moline-Rock Island,377759,$73304,28.72%,39,$290000,2397,$121,48,80.95%,$916,44.67%,N/A,N/A,6.71%,8.1%,62.12%,Rock Island County,50.50%,42.20%,0.0%,3.86%,85.68%,8.34%,1.25%,Central Standard Time,N/A,N/A,N/A,40.37,114,29,8.1,75,594,3.7,1.46,IL-32564,41.5555217,-90.4046052,53%,63%,46%,59%,57%,46.7,39,62,N/A,N/A,14.09,5.55
Hillsdale,Illinois,531,817,Davenport-Moline-Rock Island,377759,$75625,6.27%,42,N/A,N/A,N/A,54,87.01%,$667,48.5%,N/A,N/A,18.64%,9.92%,58.2%,Rock Island County,50.50%,42.20%,0.0%,0.38%,91.34%,6.59%,0.56%,Central Standard Time,N/A,N/A,N/A,41.93,109,29,8.1,80,594,3.7,0.65,IL-35073,41.6106027,-90.1748838,53%,63%,46%,59%,57%,46.7,39,62,N/A,N/A,14.96,5.9
Milan,Illinois,5001,800,Davenport-Moline-Rock Island,377759,$56193,23.18%,41,$132000,1361,$97,52,67.55%,$812,56.54%,N/A,N/A,10.22%,2.55%,62.23%,Rock Island County,50.50%,42.20%,1.82%,5.56%,84.44%,7.38%,3.2%,Central Standard Time,N/A,N/A,N/A,40.92,115,29,8.1,76,594,3.7,6.25,IL-49009,41.4416029,-90.5593472,53%,63%,46%,59%,57%,46.7,39,62,N/A,N/A,14.68,6.0
Moline,Illinois,41213,2460,Davenport-Moline-Rock Island,377759,$57475,28.88%,40,$146000,1537,$95,65,69.02%,$779,46.16%,N/A,N/A,14.1%,5.24%,64.36%,Rock Island County,50.50%,42.20%,2.18%,8.4%,69.17%,17.22%,9.57%,Central Standard Time,N/A,N/A,N/A,42.36,115,28,8.1,71,594,3.7,16.75,IL-49867,41.4820929,-90.4921044,53%,63%,46%,59%,57%,46.7,39,62,N/A,N/A,15.5,5.83
Moline township,Illinois,41213,2460,Davenport-Moline-Rock Island,377759,$57475,28.88%,40,$146000,1537,$95,65,69.02%,$779,46.16%,N/A,N/A,14.1%,5.24%,64.36%,Rock Island County,50.50%,42.20%,2.18%,8.4%,69.17%,17.22%,9.57%,Central Standard Time,N/A,N/A,N/A,42.36,115,28,8.1,71,594,3.7,16.75,IL-49867,41.4820929,-90.4921044,53%,63%,46%,59%,57%,46.7,39,62,N/A,N/A,15.5,5.83
Oak Grove,Illinois,427,647,Davenport-Moline-Rock Island,377759,$29167,9.38%,40,N/A,N/A,N/A,46,92.27%,$775,63.19%,N/A,N/A,32.3%,6.25%,62.75%,Rock Island County,50.50%,42.20%,0.0%,0.0%,96.25%,1.64%,0.94%,Central Standard Time,N/A,N/A,N/A,40.92,115,29,8.1,80,594,3.7,0.66,IL-54703,41.4119328,-90.5741654,53%,63%,46%,59%,57%,46.7,39,62,N/A,N/A,14.68,6.0
Port Byron,Illinois,2028,835,Davenport-Moline-Rock Island,377759,$81618,39.55%,39,N/A,N/A,N/A,44,85.75%,$671,36.37%,N/A,N/A,8.42%,6.98%,62.83%,Rock Island County,50.50%,42.20%,0.0%,1.23%,94.58%,3.01%,1.78%,Central Standard Time,N/A,N/A,N/A,41.93,109,29,8.1,80,594,3.7,2.43,IL-61223,41.6159935,-90.3279914,53%,63%,46%,59%,57%,46.7,39,62,N/A,N/A,14.96,5.9
Port Byron township,Illinois,2028,835,Davenport-Moline-Rock Island,377759,$81618,39.55%,39,N/A,N/A,N/A,44,85.75%,$671,36.37%,N/A,N/A,8.42%,6.98%,62.83%,Rock Island County,50.50%,42.20%,0.0%,1.23%,94.58%,3.01%,1.78%,Central Standard Time,N/A,N/A,N/A,41.93,109,29,8.1,80,594,3.7,2.43,IL-61223,41.6159935,-90.3279914,53%,63%,46%,59%,57%,46.7,39,62,N/A,N/A,14.96,5.9
Zuma,Illinois,592,25,Davenport-Moline-Rock Island,377759,$64659,N/A,N/A,N/A,N/A,N/A,43,94.80%,N/A,32.30%,N/A,N/A,N/A,4.70%,N/A,Rock Island County,50.50%,42.20%,0.0%,0.0%,96.6%,0.0%,N/A,Central Standard Time,N/A,N/A,N/A,41.93,109,29,8.1,80,594,3.7,23.68,IL-84246,41.5534723,-90.2649864,53%,63%,46%,59%,57%,46.7,39,62,N/A,N/A,14.96,5.9
