City,State,Population,People per sq mi,Metro Name,Metro population,Median household income,% with at least Bachelor's degree,Median age,Median home price,Median home sqft,Median home cost per sqft,Median home age,Homeownership Rate,Avg Apartment Monthly Rent,Single Population,Num Violent Crimes Per 100k residents,Num Property Crimes Per 100k residents,Poverty Rate,Unemployment rate,Labor Force Participation rate,County,% Democrat,% Republican,% Asian,% Black,% Non-Hispanic White,% Hispanic,Foreign Born %,Timezone,Hottest month's avg high (F),Coldest month's avg high (F),Hottest high minus coldest high,Annual rainfall (in),Annual days of precipitation,Annual snowfall (in),Average yearly windspeed (mph),Air quality Index,Elevation (ft),UV Index,Land Area (sq mi),Fips Code,Latitude,Longitude,Annual Sunshine - Percentage of Possible,Summer Sunshine - Percentage of Possible,Winter Sunshine - Percentage of Possible,Annual Relative Humidity (afternoon),Summer Relative Humidity (afternoon)
Eden,North Carolina,14986,1055,Greensboro-High Point,776363,$39083,15.77%,42,$153000,1264,$121,53,55.5%,$649,52.2%,595,3472,21.87%,7.93%,56.01%,Rockingham County,33.70%,63.50%,2.15%,28.33%,60.79%,5.57%,4.19%,Eastern Standard Time,88,47,41,46,111,6,6.6,62,897,4.7,14.2,NC-20080,36.5027375,-79.7412074,59%,64%,54%,51%,54%
Madison,North Carolina,2178,615,Greensboro-High Point,776363,$43884,19.26%,48,$175000,1367,$128,60,52.91%,$571,51.86%,N/A,N/A,15.79%,4.64%,51.71%,Rockingham County,33.70%,63.50%,0.0%,22.13%,67.08%,8.91%,3.95%,Eastern Standard Time,88,48,40,46,106,7,6.6,65,897,4.7,3.54,NC-40560,36.3868281,-79.974934,59%,64%,54%,51%,54%
Mayodan,North Carolina,2352,817,Greensboro-High Point,776363,$28984,11.69%,56,$100000,885,$113,56,59.88%,$513,54.73%,N/A,N/A,16.31%,11.69%,50.42%,Rockingham County,33.70%,63.50%,2.04%,14.46%,80.23%,2.76%,2.42%,Eastern Standard Time,88,48,40,46,106,8,6.6,66,897,4.7,2.88,NC-42060,36.4209717,-79.9674584,59%,64%,54%,51%,54%
Reidsville,North Carolina,13928,942,Greensboro-High Point,776363,$35802,18.51%,47,$179000,1388,$129,56,51.68%,$668,55.71%,752,6375,23.49%,9.64%,49.6%,Rockingham County,33.70%,63.50%,0.14%,38.19%,54.85%,3.46%,2.94%,Eastern Standard Time,88,48,40,45,110,6,6.6,62,897,4.7,14.79,NC-55900,36.3376726,-79.6724295,59%,61%,55%,51%,54%
Ruffin,North Carolina,467,103,Greensboro-High Point,776363,$67609,0.0%,37,$86000,887,$97,24,70.45%,N/A,35.48%,N/A,N/A,24.84%,3.32%,59.8%,Rockingham County,33.70%,63.50%,0.0%,21.41%,45.61%,0.0%,0.0%,Eastern Standard Time,88,47,41,45,113,6,6.6,66,897,4.7,4.55,NC-58340,36.4427588,-79.5432894,59%,61%,55%,51%,54%
Stoneville,North Carolina,1244,870,Greensboro-High Point,776363,$46250,9.66%,39,$169000,1363,$124,50,67.68%,$681,42.32%,N/A,N/A,18.61%,7.69%,64.42%,Rockingham County,33.70%,63.50%,0.64%,10.21%,68.65%,14.63%,5.63%,Eastern Standard Time,88,48,40,46,111,6,6.6,67,897,4.7,1.43,NC-65100,36.4653145,-79.9063511,59%,64%,54%,51%,54%
Wentworth,North Carolina,2720,192,Greensboro-High Point,776363,$56685,14.43%,44,$150000,1389,$108,31,87.11%,$848,42.0%,N/A,N/A,19.91%,6.77%,46.12%,Rockingham County,33.70%,63.50%,0.0%,18.09%,68.27%,7.72%,2.32%,Eastern Standard Time,88,48,40,45,110,6,6.6,63,897,4.7,14.19,NC-71900,36.3914347,-79.7510116,59%,61%,55%,51%,54%
