City,State,Population,People per sq mi,Metro Name,Metro population,Median household income,% with at least Bachelor's degree,Median age,Median home price,Median home sqft,Median home cost per sqft,Median home age,Homeownership Rate,Avg Apartment Monthly Rent,Single Population,Num Violent Crimes Per 100k residents,Num Property Crimes Per 100k residents,Poverty Rate,Unemployment rate,Labor Force Participation rate,County,% Democrat,% Republican,% Asian,% Black,% Non-Hispanic White,% Hispanic,Foreign Born %,Timezone,Hottest month's avg high (F),Coldest month's avg high (F),Hottest high minus coldest high,Hottest month's avg low (F),Coldest month's avg low (F),Annual Relative Humidity (afternoon),Summer Relative Humidity (afternoon),Annual dew point (F),Average summer dew point (F),Hottest month's avg heat index high (F),Annual Sunshine - Percentage of Possible,Summer Sunshine - Percentage of Possible,Winter Sunshine - Percentage of Possible,Annual rainfall (in),Summer rainfall (in),Winter rainfall (in),Percent of days that include precipitation,Percent of Summer days that include precipitation,Percent of Winter days that include precipitation,Annual snowfall (in),Days of snow per year,Average yearly windspeed (mph),Number of days with thunder per year,Air quality Index,Elevation (ft),UV Index,Land Area (sq mi),Fips Code,Latitude,Longitude
Blenheim,New York,323,10,Albany-Schenectady-Troy,898265,N/A,N/A,N/A,N/A,N/A,N/A,N/A,N/A,N/A,N/A,N/A,N/A,N/A,N/A,N/A,Schoharie County,30.20%,62.90%,N/A,N/A,N/A,N/A,N/A,Eastern Standard Time,82,34,48,57,12,57%,55%,37,58,83,50%,58%,45%,47.67,14.88,9.32,50.63%,47.03%,59.78%,79.6,46,7.9,22.7,94,1005,3,32.3,NY-06893,42.4833686,-74.4893072
Broome,New York,790,17,Albany-Schenectady-Troy,898265,N/A,N/A,N/A,N/A,N/A,N/A,N/A,N/A,N/A,N/A,N/A,N/A,N/A,N/A,N/A,Schoharie County,30.20%,62.90%,N/A,N/A,N/A,N/A,N/A,Eastern Standard Time,82,34,48,57,12,57%,55%,37,58,83,50%,58%,45%,43.09,14.31,8.45,37.4%,42.75%,35.67%,54.0,29,7.9,22.7,93,1005,3,46.47,NY-10154,42.5027483,-74.292292
Carlisle,New York,1839,54,Albany-Schenectady-Troy,898265,N/A,N/A,N/A,$264000,1899,$139,N/A,N/A,N/A,N/A,N/A,N/A,N/A,N/A,N/A,Schoharie County,30.20%,62.90%,N/A,N/A,N/A,N/A,N/A,Eastern Standard Time,80,31,49,59,12,57%,55%,37,58,81,50%,58%,45%,45.49,14.99,8.99,47.1%,46.59%,51.33%,54.0,29,7.9,22.7,91,1068,3,34.06,NY-12452,42.7511908,-74.435999
Central Bridge,New York,485,170,Albany-Schenectady-Troy,898265,$79444,33.82%,36,N/A,N/A,N/A,65,70.13%,$1060,60.42%,N/A,N/A,9.07%,4.89%,76.58%,Schoharie County,30.20%,62.90%,0.0%,0.0%,93.2%,0.0%,0.62%,Eastern Standard Time,84,34,50,60,14,57%,55%,37,58,86,50%,58%,45%,43.09,14.31,8.45,47.1%,46.59%,51.33%,54.0,29,7.9,22.7,89,672,3,2.86,NY-13530,42.7110031,-74.3451447
Cobleskill,New York,4495,1263,Albany-Schenectady-Troy,898265,$51723,32.2%,30,$173000,1944,$89,56,41.0%,$851,67.03%,346,1178,14.65%,6.66%,54.73%,Schoharie County,30.20%,62.90%,2.31%,4.47%,80.71%,6.21%,3.05%,Eastern Standard Time,80,31,49,59,12,57%,55%,37,58,81,50%,58%,45%,45.49,14.99,8.99,47.1%,46.59%,51.33%,79.6,46,7.9,22.7,89,1068,3,3.56,NY-16628,42.6786264,-74.486014
Conesville,New York,785,20,Albany-Schenectady-Troy,898265,N/A,N/A,N/A,$425000,3400,$125,N/A,N/A,N/A,N/A,N/A,N/A,N/A,N/A,N/A,Schoharie County,30.20%,62.90%,N/A,N/A,N/A,N/A,N/A,Eastern Standard Time,82,34,48,57,12,57%,55%,37,58,83,50%,58%,45%,47.67,14.88,9.32,37.4%,42.75%,35.67%,79.6,46,7.9,22.7,93,1005,3,39.25,NY-17651,42.3968073,-74.3355847
Esperance,New York,238,486,Albany-Schenectady-Troy,898265,$68750,13.0%,48,$240000,1655,$145,82,79.59%,$1100,54.95%,N/A,N/A,6.72%,2.84%,64.68%,Schoharie County,30.20%,62.90%,0.84%,0.42%,88.24%,0.0%,1.68%,Eastern Standard Time,83,32,51,59,13,57%,55%,37,58,85,50%,58%,45%,44.17,15.01,8.5,47.1%,46.59%,51.33%,54.0,29,7.9,22.7,89,900,3,0.49,NY-24713,42.7651043,-74.2588804
Fulton town,New York,1313,335,Albany-Schenectady-Troy,898265,N/A,N/A,N/A,$118000,1735,$68,N/A,N/A,N/A,N/A,N/A,N/A,N/A,N/A,N/A,Schoharie County,30.20%,62.90%,N/A,N/A,N/A,N/A,N/A,Eastern Standard Time,80,31,49,59,12,57%,55%,37,58,81,50%,58%,45%,45.49,14.99,8.99,42.47%,41.76%,45.44%,79.6,46,7.9,22.7,94,1068,3,3.92,NY-27826,42.5660364,-74.4422168
Gilboa,New York,1303,23,Albany-Schenectady-Troy,898265,N/A,N/A,N/A,N/A,N/A,N/A,N/A,N/A,N/A,N/A,N/A,N/A,N/A,N/A,N/A,Schoharie County,30.20%,62.90%,N/A,N/A,N/A,N/A,N/A,Eastern Standard Time,82,34,48,57,12,57%,55%,37,58,83,50%,58%,45%,47.67,14.88,9.32,50.63%,47.03%,59.78%,79.6,46,7.9,22.7,93,1005,3,56.65,NY-28981,42.4303415,-74.4550623
Jefferson,New York,150,140,Albany-Schenectady-Troy,898265,$70781,28.72%,36,N/A,N/A,N/A,71,94.5%,N/A,46.61%,N/A,N/A,10.0%,0.0%,71.43%,Schoharie County,30.20%,62.90%,4.0%,0.0%,51.33%,10.0%,8.0%,Eastern Standard Time,82,34,48,57,12,57%,55%,37,58,83,50%,58%,45%,47.67,14.88,9.32,50.63%,47.03%,59.78%,79.6,46,7.9,22.7,94,1005,3,1.07,NY-38429,42.4813481,-74.6061061
Middleburgh,New York,1231,985,Albany-Schenectady-Troy,898265,$46429,21.33%,56,N/A,N/A,N/A,82,68.16%,$954,54.21%,N/A,N/A,15.52%,2.45%,54.8%,Schoharie County,30.20%,62.90%,0.0%,0.97%,93.91%,0.65%,0.0%,Eastern Standard Time,84,34,50,60,14,57%,55%,37,58,86,50%,58%,45%,43.09,14.31,8.45,37.4%,42.75%,35.67%,54.0,29,7.9,22.7,91,672,3,1.25,NY-46866,42.5979797,-74.3298286
Richmondville,New York,1001,541,Albany-Schenectady-Troy,898265,$46571,26.41%,35,$185000,1034,$179,50,72.49%,$835,66.53%,N/A,N/A,14.34%,2.58%,62.84%,Schoharie County,30.20%,62.90%,0.0%,0.7%,93.81%,2.5%,0.8%,Eastern Standard Time,80,31,49,59,12,57%,55%,37,58,81,50%,58%,45%,45.49,14.99,8.99,42.47%,41.76%,45.44%,79.6,46,7.9,22.7,92,1068,3,1.85,NY-61588,42.633455,-74.5628212
Schoharie,New York,1078,649,Albany-Schenectady-Troy,898265,$53008,27.4%,35,N/A,N/A,N/A,71,58.18%,$897,58.82%,0,0,11.71%,3.56%,47.18%,Schoharie County,30.20%,62.90%,6.49%,2.6%,74.86%,3.43%,6.96%,Eastern Standard Time,84,34,50,60,14,57%,55%,37,58,86,50%,58%,45%,43.09,14.31,8.45,37.4%,42.75%,35.67%,54.0,29,7.9,22.7,89,672,3,1.66,NY-65585,42.6663813,-74.3137409
Seward,New York,1664,46,Albany-Schenectady-Troy,898265,N/A,N/A,N/A,$176000,2000,$88,N/A,N/A,N/A,N/A,N/A,N/A,N/A,N/A,N/A,Schoharie County,30.20%,62.90%,N/A,N/A,N/A,N/A,N/A,Eastern Standard Time,80,31,49,59,12,57%,55%,37,58,81,50%,58%,45%,45.49,14.99,8.99,47.1%,46.59%,51.33%,79.6,46,7.9,22.7,91,1068,3,36.17,NY-66542,42.7052866,-74.5798318
Sharon,New York,1918,49,Albany-Schenectady-Troy,898265,N/A,N/A,N/A,$298000,1594,$187,N/A,N/A,N/A,N/A,N/A,N/A,N/A,N/A,N/A,Schoharie County,30.20%,62.90%,N/A,N/A,N/A,N/A,N/A,Eastern Standard Time,80,31,49,59,12,57%,55%,37,58,81,50%,58%,45%,41.93,13.18,8.9,47.1%,46.59%,51.33%,79.6,46,7.9,22.7,91,282,3,39.14,NY-66641,42.7776387,-74.5985743
Summit,New York,1066,29,Albany-Schenectady-Troy,898265,N/A,N/A,N/A,N/A,N/A,N/A,N/A,N/A,N/A,N/A,N/A,N/A,N/A,N/A,N/A,Schoharie County,30.20%,62.90%,N/A,N/A,N/A,N/A,N/A,Eastern Standard Time,80,31,49,59,12,57%,55%,37,58,81,50%,58%,45%,45.49,14.99,8.99,42.47%,41.76%,45.44%,79.6,46,7.9,22.7,92,1068,3,36.76,NY-72070,42.5701633,-74.6104649
Wright,New York,1704,60,Albany-Schenectady-Troy,898265,N/A,N/A,N/A,$445000,912,$488,N/A,N/A,N/A,N/A,N/A,N/A,N/A,N/A,N/A,Schoharie County,30.20%,62.90%,N/A,N/A,N/A,N/A,N/A,Eastern Standard Time,84,34,50,60,14,57%,55%,37,58,86,50%,58%,45%,43.09,14.31,8.45,37.4%,42.75%,35.67%,54.0,29,7.9,22.7,91,672,3,28.4,NY-83195,42.6674891,-74.216162
