City,State,Population,People per sq mi,Metro Name,Metro population,Median household income,% with at least Bachelor's degree,Median age,Median home price,Median home sqft,Median home cost per sqft,Median home age,Homeownership Rate,Avg Apartment Monthly Rent,Single Population,Num Violent Crimes Per 100k residents,Num Property Crimes Per 100k residents,Poverty Rate,Unemployment rate,Labor Force Participation rate,County,% Democrat,% Republican,% Asian,% Black,% Non-Hispanic White,% Hispanic,Foreign Born %,Timezone,Hottest month's avg high (F),Coldest month's avg high (F),Hottest high minus coldest high,Hottest month's avg low (F),Coldest month's avg low (F),Annual Relative Humidity (afternoon),Summer Relative Humidity (afternoon),Annual dew point (F),Average summer dew point (F),Hottest month's avg heat index high (F),Annual Sunshine - Percentage of Possible,Summer Sunshine - Percentage of Possible,Winter Sunshine - Percentage of Possible,Annual rainfall (in),Summer rainfall (in),Winter rainfall (in),Percent of days that include precipitation,Percent of Summer days that include precipitation,Percent of Winter days that include precipitation,Annual snowfall (in),Days of snow per year,Average yearly windspeed (mph),Number of days with thunder per year,Air quality Index,Elevation (ft),UV Index,Land Area (sq mi),Fips Code,Latitude,Longitude
Altamont,Pennsylvania,517,562,Pottsville,162600,$58750,28.98%,61,N/A,N/A,N/A,62,96.29%,N/A,39.67%,N/A,N/A,2.76%,5.21%,43.6%,Schuylkill County,26.50%,69.40%,0.77%,0.0%,99.23%,0.0%,2.9%,N/A,81,33,48,61,17,55%,54%,40,60,82,50%,62%,42%,55.05,16.45,11.29,39.26%,39.23%,42.78%,47.1,19,7.4,29.8,79,1563,3.7,0.92,PA-02144,40.7849654,-76.2169324
Ashland borough,Pennsylvania,2696,1624,Pottsville,162600,$39680,11.43%,46,$78000,1733,$45,N/A,59.83%,$705,60.33%,N/A,N/A,17.26%,5.39%,52.66%,Schuylkill County,26.50%,69.40%,0.0%,2.74%,94.29%,0.0%,0.0%,N/A,84,35,49,62,20,55%,54%,41,62,86,50%,62%,42%,50.06,14.48,9.9,37.01%,40.33%,35.33%,36.6,16,7.4,30.2,74,927,3.7,1.66,PA-03264,40.7811062,-76.3450457
Auburn borough,Pennsylvania,533,329,Pottsville,162600,$46250,8.63%,49,$214000,1712,$125,79,63.6%,$836,46.4%,N/A,N/A,14.45%,4.73%,62.98%,Schuylkill County,26.50%,69.40%,0.0%,1.5%,98.31%,1.69%,0.0%,N/A,86,37,49,65,21,55%,54%,40,60,89,50%,62%,42%,52.42,16.63,10.74,37.23%,41.1%,34.78%,47.1,19,7.4,29.8,78,492,3.7,1.62,PA-03488,40.5947537,-76.0975308
Barry,Pennsylvania,778,46,Pottsville,162600,N/A,N/A,N/A,N/A,N/A,N/A,N/A,N/A,N/A,N/A,N/A,N/A,N/A,N/A,N/A,Schuylkill County,26.50%,69.40%,N/A,N/A,N/A,N/A,N/A,N/A,84,35,49,62,20,56%,55%,41,62,86,50%,62%,42%,50.06,14.48,9.9,37.01%,40.33%,35.33%,36.6,16,6.5,30.2,81,927,3.7,16.91,PA-04352,40.71355,-76.4117358
Beurys Lake,Pennsylvania,56,144,Pottsville,162600,$38125,13.21%,64,$79000,658,$120,74,83.93%,N/A,58.93%,N/A,N/A,23.21%,0.0%,33.93%,Schuylkill County,26.50%,69.40%,0.0%,0.0%,100.0%,0.0%,0.0%,N/A,84,35,49,62,20,55%,54%,41,62,86,50%,62%,42%,50.06,14.48,9.9,37.01%,40.33%,35.33%,36.6,16,7.4,30.2,81,927,3.7,0.39,PA-06171,40.719339,-76.3795099
Blythe,Pennsylvania,968,35,Pottsville,162600,N/A,N/A,N/A,N/A,N/A,N/A,N/A,N/A,N/A,N/A,N/A,N/A,N/A,N/A,N/A,Schuylkill County,26.50%,69.40%,N/A,N/A,N/A,N/A,N/A,N/A,81,33,48,61,17,55%,54%,40,60,82,50%,62%,42%,55.05,16.45,11.29,39.26%,39.23%,42.78%,47.1,19,7.4,29.8,81,1563,3.7,27.66,PA-07336,40.7363596,-76.1260084
Branch,Pennsylvania,1778,155,Pottsville,162600,N/A,N/A,N/A,N/A,N/A,N/A,N/A,N/A,N/A,N/A,N/A,N/A,N/A,N/A,N/A,Schuylkill County,26.50%,69.40%,N/A,N/A,N/A,N/A,N/A,N/A,81,33,48,61,17,55%,54%,41,62,82,50%,62%,42%,55.05,16.45,11.29,39.26%,39.23%,42.78%,47.1,19,7.4,30.2,76,1563,3.7,11.47,PA-08200,40.6622724,-76.2725007
Branchdale,Pennsylvania,248,349,Pottsville,162600,$44423,6.57%,51,$120000,1600,$75,N/A,78.23%,$507,44.75%,N/A,N/A,5.24%,3.23%,56.62%,Schuylkill County,26.50%,69.40%,0.0%,0.0%,100.0%,0.0%,0.0%,N/A,84,35,49,62,20,55%,54%,41,62,86,50%,62%,42%,50.06,14.48,9.9,37.01%,40.33%,35.33%,36.6,16,7.4,30.2,78,927,3.7,0.71,PA-08208,40.6731934,-76.3222301
Brandonville,Pennsylvania,185,132,Pottsville,162600,$37917,2.26%,44,N/A,N/A,N/A,74,67.03%,$539,53.02%,N/A,N/A,11.89%,19.74%,53.52%,Schuylkill County,26.50%,69.40%,0.0%,0.0%,98.92%,1.08%,0.0%,N/A,81,33,48,61,17,58%,55%,40,60,82,50%,62%,42%,55.05,16.45,11.29,39.26%,39.23%,42.78%,47.1,19,7.0,29.8,84,1563,3.7,1.4,PA-08240,40.8600555,-76.1688866
Buck Run,Pennsylvania,216,432,Pottsville,162600,$49808,10.81%,41,N/A,N/A,N/A,76,89.35%,$913,42.17%,N/A,N/A,2.78%,16.67%,47.56%,Schuylkill County,26.50%,69.40%,0.0%,0.0%,99.07%,0.93%,0.0%,N/A,84,35,49,62,20,55%,54%,41,62,86,50%,62%,42%,50.06,14.48,9.9,37.01%,40.33%,35.33%,36.6,16,7.4,30.2,78,927,3.7,0.5,PA-09896,40.7067543,-76.3212295
Butler township (Schuylkill Cnty),Pennsylvania,4947,1819,Pottsville,162600,N/A,N/A,N/A,$225000,1679,$134,N/A,N/A,N/A,N/A,N/A,N/A,N/A,N/A,N/A,Schuylkill County,26.50%,69.40%,N/A,N/A,N/A,N/A,N/A,N/A,84,35,49,62,20,55%,54%,41,62,86,50%,62%,42%,50.06,14.48,9.9,37.01%,40.33%,35.33%,36.6,16,7.4,30.2,83,927,3.7,2.72,PA-10488,40.7670121,-76.3229743
Cass township (Schuylkill Cnty),Pennsylvania,1889,131,Pottsville,162600,N/A,N/A,N/A,N/A,N/A,N/A,N/A,N/A,N/A,N/A,N/A,N/A,N/A,N/A,N/A,Schuylkill County,26.50%,69.40%,N/A,N/A,N/A,N/A,N/A,N/A,81,33,48,61,17,55%,54%,40,60,82,50%,62%,42%,55.05,16.45,11.29,39.26%,39.23%,42.78%,47.1,19,7.4,29.8,81,1563,3.7,14.42,PA-11608,40.7161393,-76.2851771
Coaldale borough (Schuylkill Cnty),Pennsylvania,2164,997,Pottsville,162600,$45769,9.4%,40,$96000,1171,$82,N/A,80.95%,$780,55.82%,N/A,N/A,11.01%,9.76%,64.36%,Schuylkill County,26.50%,69.40%,0.0%,3.7%,90.53%,3.47%,0.65%,N/A,82,36,46,63,20,55%,54%,40,60,83,50%,62%,42%,51.6,15.06,11.07,38.33%,43.74%,33.89%,47.1,19,7.4,29.8,78,1044,3.7,2.17,PA-14600,40.81974,-75.9161005
Cressona,Pennsylvania,1350,1350,Pottsville,162600,$55962,14.18%,40,$175000,1434,$122,N/A,71.56%,$784,52.79%,N/A,N/A,13.48%,3.6%,68.46%,Schuylkill County,26.50%,69.40%,0.74%,1.33%,93.63%,2.37%,2.15%,N/A,86,37,49,65,21,55%,54%,40,60,89,50%,62%,42%,52.42,16.63,10.74,37.23%,41.1%,34.78%,47.1,19,7.4,29.8,74,492,3.7,1.0,PA-17152,40.6303937,-76.1938606
Cumbola,Pennsylvania,281,703,Pottsville,162600,$36250,8.61%,47,$100000,2564,$39,N/A,63.7%,$625,47.52%,N/A,N/A,14.23%,1.65%,50.21%,Schuylkill County,26.50%,69.40%,0.0%,0.0%,92.17%,7.83%,1.42%,N/A,81,33,48,61,17,55%,54%,40,60,82,50%,62%,42%,55.05,16.45,11.29,39.26%,39.23%,42.78%,47.1,19,7.4,29.8,81,1563,3.7,0.4,PA-17680,40.713801,-76.1431842
Deer Lake borough,Pennsylvania,599,1361,Pottsville,162600,$77500,30.35%,46,$327000,2287,$143,42,92.82%,$844,33.47%,N/A,N/A,4.17%,2.89%,64.12%,Schuylkill County,26.50%,69.40%,0.0%,0.0%,98.0%,1.67%,2.34%,N/A,86,37,49,65,21,55%,54%,40,60,89,50%,62%,42%,52.42,16.63,10.74,37.23%,41.1%,34.78%,47.1,19,7.4,29.8,76,492,3.7,0.44,PA-18576,40.6213603,-76.0564975
Delano,Pennsylvania,221,670,Pottsville,162600,$48636,7.82%,52,N/A,N/A,N/A,N/A,91.86%,N/A,54.55%,N/A,N/A,4.07%,12.62%,52.28%,Schuylkill County,26.50%,69.40%,0.0%,0.0%,99.1%,0.0%,0.0%,N/A,81,33,48,61,17,55%,54%,40,60,82,50%,62%,42%,51.6,15.06,11.07,39.26%,39.23%,42.78%,47.1,19,7.4,29.8,83,1044,3.7,0.33,PA-18664,40.8404279,-76.0670358
Delano township,Pennsylvania,221,670,Pottsville,162600,$48636,7.82%,52,N/A,N/A,N/A,N/A,91.86%,N/A,54.55%,N/A,N/A,4.07%,12.62%,52.28%,Schuylkill County,26.50%,69.40%,0.0%,0.0%,99.1%,0.0%,0.0%,N/A,81,33,48,61,17,55%,54%,40,60,82,50%,62%,42%,51.6,15.06,11.07,39.26%,39.23%,42.78%,47.1,19,7.4,29.8,83,1044,3.7,0.33,PA-18664,40.8404279,-76.0670358
Donaldson,Pennsylvania,313,1647,Pottsville,162600,$43750,2.28%,40,N/A,N/A,N/A,N/A,80.19%,$713,51.16%,N/A,N/A,12.46%,6.29%,69.44%,Schuylkill County,26.50%,69.40%,0.0%,0.0%,100.0%,0.0%,0.0%,N/A,84,35,49,62,20,55%,54%,41,62,86,50%,62%,42%,50.06,14.48,9.9,37.01%,40.33%,35.33%,36.6,16,7.4,30.2,78,927,3.7,0.19,PA-19432,40.6363405,-76.4058733
East Brunswick,Pennsylvania,1682,55,Pottsville,162600,N/A,N/A,N/A,N/A,N/A,N/A,N/A,N/A,N/A,N/A,N/A,N/A,N/A,N/A,N/A,Schuylkill County,26.50%,69.40%,N/A,N/A,N/A,N/A,N/A,N/A,86,37,49,65,21,55%,54%,40,60,89,50%,62%,42%,52.42,16.63,10.74,37.23%,41.1%,34.78%,47.1,19,7.4,29.8,78,492,3.7,30.58,PA-20880,40.6792282,-75.9867087
East Norwegian,Pennsylvania,910,223,Pottsville,162600,N/A,N/A,N/A,N/A,N/A,N/A,N/A,N/A,N/A,N/A,N/A,N/A,N/A,N/A,N/A,Schuylkill County,26.50%,69.40%,N/A,N/A,N/A,N/A,N/A,N/A,81,33,48,61,17,55%,54%,40,60,82,50%,62%,42%,55.05,16.45,11.29,39.26%,39.23%,42.78%,47.1,19,7.4,29.8,75,1563,3.7,4.08,PA-21616,40.709503,-76.1649602
East Union,Pennsylvania,1808,70,Pottsville,162600,N/A,N/A,N/A,N/A,N/A,N/A,N/A,N/A,N/A,N/A,N/A,N/A,N/A,N/A,N/A,Schuylkill County,26.50%,69.40%,N/A,N/A,N/A,N/A,N/A,N/A,81,33,48,61,17,58%,55%,40,60,82,50%,62%,42%,55.05,16.45,11.29,39.26%,39.23%,42.78%,47.1,19,7.0,29.8,84,1563,3.7,25.83,PA-21952,40.8878956,-76.1231179
Eldred township (Schuylkill Cnty),Pennsylvania,800,909,Pottsville,162600,N/A,N/A,N/A,$200000,1770,$113,N/A,N/A,N/A,N/A,N/A,N/A,N/A,N/A,N/A,Schuylkill County,26.50%,69.40%,N/A,N/A,N/A,N/A,N/A,N/A,84,35,49,62,20,56%,55%,41,62,86,50%,62%,42%,50.06,14.48,9.9,37.01%,40.33%,35.33%,36.6,16,6.5,30.2,81,927,3.7,0.88,PA-22912,40.7108251,-76.4947454
Englewood,Pennsylvania,698,1454,Pottsville,162600,$95109,57.37%,51,N/A,N/A,N/A,55,93.12%,N/A,73.95%,N/A,N/A,7.45%,0.0%,51.95%,Schuylkill County,26.50%,69.40%,0.0%,0.0%,100.0%,0.0%,0.0%,N/A,81,33,48,61,17,55%,54%,40,60,82,50%,62%,42%,55.05,16.45,11.29,39.26%,39.23%,42.78%,47.1,19,7.4,29.8,83,1563,3.7,0.48,PA-23688,40.7814622,-76.2449102
Forestville,Pennsylvania,529,581,Pottsville,162600,$76375,26.28%,40,N/A,N/A,N/A,N/A,83.18%,$939,30.7%,N/A,N/A,0.0%,0.0%,69.96%,Schuylkill County,26.50%,69.40%,0.0%,0.0%,100.0%,0.0%,0.0%,N/A,81,33,48,61,17,55%,54%,41,62,82,50%,62%,42%,55.05,16.45,11.29,39.26%,39.23%,42.78%,47.1,19,7.4,30.2,81,1563,3.7,0.91,PA-26704,40.6937909,-76.2925968
Foster township (Schuylkill Cnty),Pennsylvania,291,22,Pottsville,162600,N/A,N/A,N/A,N/A,N/A,N/A,N/A,N/A,N/A,N/A,N/A,N/A,N/A,N/A,N/A,Schuylkill County,26.50%,69.40%,N/A,N/A,N/A,N/A,N/A,N/A,84,35,49,62,20,55%,54%,41,62,86,50%,62%,42%,50.06,14.48,9.9,37.01%,40.33%,35.33%,36.6,16,7.4,30.2,78,927,3.7,13.23,PA-26944,40.6975515,-76.3608961
Fountain Springs,Pennsylvania,251,448,Pottsville,162600,N/A,7.22%,56,N/A,N/A,N/A,65,100.0%,N/A,77.25%,N/A,N/A,33.33%,4.49%,42.18%,Schuylkill County,26.50%,69.40%,1.2%,3.19%,93.63%,0.0%,1.2%,N/A,84,35,49,62,20,55%,54%,41,62,86,50%,62%,42%,50.06,14.48,9.9,37.01%,40.33%,35.33%,36.6,16,7.4,30.2,83,927,3.7,0.56,PA-27024,40.7721684,-76.3285131
Frackville,Pennsylvania,3632,6053,Pottsville,162600,$69342,11.67%,43,$100000,1351,$74,N/A,79.24%,$747,54.64%,N/A,N/A,11.19%,3.41%,62.33%,Schuylkill County,26.50%,69.40%,0.61%,0.28%,97.03%,1.65%,2.26%,N/A,81,33,48,61,17,55%,54%,40,60,82,50%,62%,42%,55.05,16.45,11.29,39.26%,39.23%,42.78%,47.1,19,7.4,29.8,63,1563,3.7,0.6,PA-27232,40.7833151,-76.2329309
Frailey,Pennsylvania,375,41,Pottsville,162600,N/A,N/A,N/A,N/A,N/A,N/A,N/A,N/A,N/A,N/A,N/A,N/A,N/A,N/A,N/A,Schuylkill County,26.50%,69.40%,N/A,N/A,N/A,N/A,N/A,N/A,84,35,49,62,20,55%,54%,41,62,86,50%,62%,42%,50.06,14.48,9.9,37.01%,40.33%,35.33%,36.6,16,7.4,30.2,78,927,3.7,9.15,PA-27248,40.6421665,-76.4097061
Friedensburg,Pennsylvania,889,514,Pottsville,162600,$77598,13.83%,49,N/A,N/A,N/A,58,64.9%,$1051,35.67%,N/A,N/A,0.0%,5.05%,56.73%,Schuylkill County,26.50%,69.40%,0.0%,0.0%,100.0%,0.0%,1.69%,N/A,86,37,49,65,21,55%,54%,40,60,89,50%,62%,42%,52.42,16.63,10.74,37.23%,41.1%,34.78%,47.1,19,7.4,29.8,78,492,3.7,1.73,PA-27936,40.6077887,-76.2283785
Gilberton,Pennsylvania,537,378,Pottsville,162600,$43036,10.1%,47,N/A,N/A,N/A,N/A,85.66%,$667,64.68%,N/A,N/A,18.06%,12.85%,40.5%,Schuylkill County,26.50%,69.40%,0.0%,0.0%,98.88%,0.56%,0.37%,N/A,81,33,48,61,17,55%,54%,40,60,82,50%,62%,42%,55.05,16.45,11.29,39.26%,39.23%,42.78%,47.1,19,7.4,29.8,79,1563,3.7,1.42,PA-29088,40.7960825,-76.2234579
Girardville,Pennsylvania,1376,2646,Pottsville,162600,$28917,8.55%,42,N/A,N/A,N/A,N/A,70.2%,$659,65.23%,N/A,N/A,31.83%,14.39%,57.2%,Schuylkill County,26.50%,69.40%,0.29%,0.29%,93.6%,4.8%,1.02%,N/A,81,33,48,61,17,55%,54%,40,60,82,50%,62%,42%,55.05,16.45,11.29,39.26%,39.23%,42.78%,47.1,19,7.4,29.8,83,1563,3.7,0.52,PA-29264,40.7922098,-76.2829663
Gordon,Pennsylvania,969,1642,Pottsville,162600,$56691,20.93%,38,N/A,N/A,N/A,N/A,93.4%,$633,49.37%,N/A,N/A,6.4%,2.08%,61.19%,Schuylkill County,26.50%,69.40%,0.0%,0.0%,100.0%,0.0%,0.62%,N/A,84,35,49,62,20,55%,54%,41,62,86,50%,62%,42%,50.06,14.48,9.9,37.01%,40.33%,35.33%,36.6,16,7.4,30.2,83,927,3.7,0.59,PA-30128,40.7501155,-76.3399291
Grier City,Pennsylvania,239,498,Pottsville,162600,N/A,16.9%,71,$285000,2007,$142,N/A,100.0%,N/A,23.21%,N/A,N/A,2.51%,0.0%,43.83%,Schuylkill County,26.50%,69.40%,0.0%,0.0%,100.0%,0.0%,0.0%,N/A,81,33,48,61,17,55%,54%,40,60,82,50%,62%,42%,51.6,15.06,11.07,39.26%,39.23%,42.78%,47.1,19,7.4,29.8,83,1044,3.7,0.48,PA-31536,40.8268353,-76.0578887
Heckscherville,Pennsylvania,237,718,Pottsville,162600,$53047,12.59%,31,N/A,N/A,N/A,N/A,81.43%,N/A,58.78%,N/A,N/A,7.59%,14.04%,77.03%,Schuylkill County,26.50%,69.40%,0.0%,2.95%,90.3%,6.75%,0.0%,N/A,81,33,48,61,17,55%,54%,40,60,82,50%,62%,42%,55.05,16.45,11.29,39.26%,39.23%,42.78%,47.1,19,7.4,29.8,81,1563,3.7,0.33,PA-33528,40.7210407,-76.2668593
Hegins,Pennsylvania,1205,603,Pottsville,162600,$76032,26.34%,33,$148000,1233,$120,57,61.83%,$733,57.39%,N/A,N/A,2.24%,2.13%,85.99%,Schuylkill County,26.50%,69.40%,0.0%,0.0%,100.0%,0.0%,0.0%,N/A,84,35,49,62,20,56%,55%,41,62,86,50%,62%,42%,50.06,14.48,9.9,37.01%,40.33%,35.33%,36.6,16,6.5,30.2,80,927,3.7,2.0,PA-33576,40.6523755,-76.4875521
Hegins township,Pennsylvania,1205,603,Pottsville,162600,$76032,26.34%,33,$148000,1233,$120,57,61.83%,$733,57.39%,N/A,N/A,2.24%,2.13%,85.99%,Schuylkill County,26.50%,69.40%,0.0%,0.0%,100.0%,0.0%,0.0%,N/A,84,35,49,62,20,56%,55%,41,62,86,50%,62%,42%,50.06,14.48,9.9,37.01%,40.33%,35.33%,36.6,16,6.5,30.2,80,927,3.7,2.0,PA-33576,40.6523755,-76.4875521
Hometown,Pennsylvania,1540,770,Pottsville,162600,$91250,23.7%,46,$173000,1362,$127,51,94.09%,$777,39.84%,N/A,N/A,0.0%,3.63%,78.31%,Schuylkill County,26.50%,69.40%,0.0%,0.0%,98.57%,0.0%,0.0%,N/A,81,33,48,61,17,55%,54%,40,60,82,50%,62%,42%,51.6,15.06,11.07,39.26%,39.23%,42.78%,47.1,19,7.4,29.8,83,1044,3.7,2.0,PA-35448,40.8215807,-75.9865518
Hubley,Pennsylvania,715,54,Pottsville,162600,N/A,N/A,N/A,N/A,N/A,N/A,N/A,N/A,N/A,N/A,N/A,N/A,N/A,N/A,N/A,Schuylkill County,26.50%,69.40%,N/A,N/A,N/A,N/A,N/A,N/A,84,35,49,62,20,56%,55%,41,62,86,50%,62%,42%,50.06,14.48,9.9,37.01%,40.33%,35.33%,36.6,16,6.5,30.2,80,927,3.7,13.24,PA-36072,40.6401791,-76.6171014
Kelayres,Pennsylvania,429,3575,Pottsville,162600,$50481,7.72%,34,N/A,N/A,N/A,N/A,79.25%,$740,38.07%,N/A,N/A,18.41%,8.8%,71.84%,Schuylkill County,26.50%,69.40%,1.86%,7.23%,85.78%,12.35%,5.13%,N/A,81,33,48,61,17,58%,55%,40,60,82,50%,62%,42%,51.6,15.06,11.07,39.15%,40.77%,40.44%,47.1,19,7.0,29.8,83,1044,3.7,0.12,PA-39056,40.9007336,-76.0045525
Klingerstown,Pennsylvania,96,200,Pottsville,162600,$60417,27.42%,51,N/A,N/A,N/A,78,36.46%,$646,50.57%,N/A,N/A,5.21%,0.0%,62.07%,Schuylkill County,26.50%,69.40%,0.0%,0.0%,91.67%,8.33%,0.0%,N/A,86,36,50,63,20,56%,55%,41,62,89,50%,62%,42%,43.27,13.11,8.51,37.37%,38.68%,37.67%,23.9,14,6.5,30.2,81,384,3.7,0.48,PA-40136,40.6588935,-76.6930576
Lake Wynonah,Pennsylvania,2697,851,Pottsville,162600,$76298,32.12%,48,$266000,1739,$153,28,98.78%,N/A,38.63%,N/A,N/A,3.08%,1.74%,62.49%,Schuylkill County,26.50%,69.40%,0.0%,0.0%,97.81%,2.04%,1.89%,N/A,86,37,49,65,21,55%,54%,40,60,89,50%,62%,42%,51.82,16.7,10.46,37.23%,41.1%,34.78%,47.1,19,7.4,29.8,78,339,3.7,3.17,PA-41099,40.5878986,-76.1810265
Landingville,Pennsylvania,292,340,Pottsville,162600,$71813,23.3%,41,N/A,N/A,N/A,59,73.97%,$843,17.79%,N/A,N/A,19.18%,1.49%,64.42%,Schuylkill County,26.50%,69.40%,0.0%,0.0%,98.63%,0.34%,0.0%,N/A,86,37,49,65,21,55%,54%,40,60,89,50%,62%,42%,52.42,16.63,10.74,37.23%,41.1%,34.78%,47.1,19,7.4,29.8,78,492,3.7,0.86,PA-41264,40.6256664,-76.1234672
Lavelle,Pennsylvania,503,445,Pottsville,162600,$61439,9.09%,60,N/A,N/A,N/A,N/A,96.62%,N/A,19.6%,N/A,N/A,0.0%,0.0%,69.49%,Schuylkill County,26.50%,69.40%,0.0%,0.0%,88.87%,9.54%,0.0%,N/A,84,35,49,62,20,56%,55%,41,62,86,50%,62%,42%,50.06,14.48,9.9,37.01%,40.33%,35.33%,36.6,16,6.5,30.2,83,927,3.7,1.13,PA-41904,40.762194,-76.385854
Mahanoy,Pennsylvania,3277,6425,Pottsville,162600,N/A,N/A,N/A,$50000,1515,$33,N/A,N/A,N/A,N/A,N/A,N/A,N/A,N/A,N/A,Schuylkill County,26.50%,69.40%,N/A,N/A,N/A,N/A,N/A,N/A,81,33,48,61,17,55%,54%,40,60,82,50%,62%,42%,55.05,16.45,11.29,39.26%,39.23%,42.78%,47.1,19,7.4,29.8,83,1563,3.7,0.51,PA-46584,40.8231915,-76.1416203
Mahanoy City,Pennsylvania,4036,7914,Pottsville,162600,N/A,N/A,N/A,$50000,1515,$33,N/A,N/A,N/A,N/A,N/A,N/A,N/A,N/A,N/A,Schuylkill County,26.50%,69.40%,N/A,N/A,N/A,N/A,N/A,N/A,81,33,48,61,17,55%,54%,40,60,82,50%,62%,42%,55.05,16.45,11.29,39.26%,39.23%,42.78%,47.1,19,7.4,29.8,66,1563,3.7,0.51,PA-46584,40.8231915,-76.1416203
Marlin,Pennsylvania,389,2992,Pottsville,162600,$125043,10.96%,27,N/A,N/A,N/A,N/A,100.0%,N/A,56.67%,N/A,N/A,0.0%,5.07%,89.7%,Schuylkill County,26.50%,69.40%,0.0%,0.0%,100.0%,0.0%,1.03%,N/A,81,33,48,61,17,55%,54%,40,60,82,50%,62%,42%,55.05,16.45,11.29,39.26%,39.23%,42.78%,47.1,19,7.4,29.8,76,1563,3.7,0.13,PA-47600,40.6789752,-76.243966
McAdoo,Pennsylvania,2631,7517,Pottsville,162600,$34046,8.23%,33,$200000,2174,$92,N/A,63.06%,$752,57.39%,N/A,N/A,24.67%,9.34%,62.93%,Schuylkill County,26.50%,69.40%,0.19%,0.76%,66.25%,26.91%,11.86%,N/A,81,33,48,61,17,58%,55%,40,60,82,50%,62%,42%,51.6,15.06,11.07,39.15%,40.77%,40.44%,47.1,19,7.0,29.8,72,1044,3.7,0.35,PA-45824,40.9009642,-75.9923816
McKeansburg,Pennsylvania,106,312,Pottsville,162600,$62500,15.85%,42,$145000,2071,$70,N/A,90.57%,N/A,50.53%,N/A,N/A,3.77%,4.48%,70.53%,Schuylkill County,26.50%,69.40%,0.0%,0.0%,97.17%,0.0%,2.83%,N/A,86,37,49,65,21,55%,54%,40,60,89,50%,62%,42%,52.42,16.63,10.74,37.23%,41.1%,34.78%,47.1,19,7.4,29.8,76,492,3.7,0.34,PA-46232,40.6823143,-76.0195552
Mechanicsville,Pennsylvania,407,1233,Pottsville,162600,$63750,14.94%,47,$170000,1232,$138,N/A,79.85%,$986,47.37%,N/A,N/A,17.0%,4.02%,65.69%,Schuylkill County,26.50%,69.40%,0.0%,0.49%,98.28%,0.98%,0.0%,N/A,81,33,48,61,17,55%,54%,40,60,82,50%,62%,42%,55.05,16.45,11.29,39.26%,39.23%,42.78%,47.1,19,7.4,29.8,71,1563,3.7,0.33,PA-48448,40.6908263,-76.1806868
Middleport,Pennsylvania,319,725,Pottsville,162600,$49375,9.09%,52,N/A,N/A,N/A,N/A,80.88%,$658,45.94%,N/A,N/A,9.78%,10.42%,68.33%,Schuylkill County,26.50%,69.40%,1.25%,0.0%,98.12%,0.0%,2.82%,N/A,81,33,48,61,17,55%,54%,40,60,82,50%,62%,42%,55.05,16.45,11.29,39.26%,39.23%,42.78%,47.1,19,7.4,29.8,81,1563,3.7,0.44,PA-49048,40.7277843,-76.0868243
Minersville,Pennsylvania,4174,6324,Pottsville,162600,$30814,12.44%,45,$38000,1462,$26,N/A,63.12%,$568,66.2%,N/A,N/A,16.66%,2.51%,53.61%,Schuylkill County,26.50%,69.40%,0.38%,0.0%,92.41%,3.91%,0.53%,N/A,81,33,48,61,17,55%,54%,40,60,82,50%,62%,42%,55.05,16.45,11.29,39.26%,39.23%,42.78%,47.1,19,7.4,29.8,63,1563,3.7,0.66,PA-50088,40.690801,-76.2594128
Mount Carbon,Pennsylvania,56,800,Pottsville,162600,$57917,13.64%,55,N/A,N/A,N/A,N/A,92.86%,N/A,51.85%,N/A,N/A,5.36%,0.0%,54.72%,Schuylkill County,26.50%,69.40%,0.0%,0.0%,92.86%,7.14%,1.79%,N/A,81,33,48,61,17,55%,54%,40,60,82,50%,62%,42%,55.05,16.45,11.29,39.26%,39.23%,42.78%,47.1,19,7.4,29.8,74,1563,3.7,0.07,PA-51488,40.6733294,-76.1883812
Muir,Pennsylvania,448,896,Pottsville,162600,$100750,26.35%,44,$181000,2207,$82,N/A,94.87%,N/A,29.1%,N/A,N/A,3.13%,0.0%,64.81%,Schuylkill County,26.50%,69.40%,0.0%,0.0%,100.0%,0.0%,0.0%,N/A,84,37,47,61,20,56%,55%,41,62,86,50%,62%,42%,52.48,15.79,10.09,31.4%,33.96%,29.67%,36.6,16,6.5,30.2,78,492,3.7,0.5,PA-52224,40.5942971,-76.5186568
New Castle township,Pennsylvania,389,47,Pottsville,162600,N/A,N/A,N/A,$117000,1330,$88,N/A,N/A,N/A,N/A,N/A,N/A,N/A,N/A,N/A,Schuylkill County,26.50%,69.40%,N/A,N/A,N/A,N/A,N/A,N/A,81,33,48,61,17,55%,54%,40,60,82,50%,62%,42%,55.05,16.45,11.29,39.26%,39.23%,42.78%,47.1,19,7.4,29.8,81,1563,3.7,8.31,PA-53376,40.7425589,-76.228035
New Philadelphia,Pennsylvania,971,643,Pottsville,162600,$49628,13.04%,42,$25000,1250,$20,N/A,79.09%,$603,51.33%,N/A,N/A,15.31%,4.79%,63.5%,Schuylkill County,26.50%,69.40%,0.21%,0.62%,90.94%,4.53%,1.03%,N/A,81,33,48,61,17,55%,54%,40,60,82,50%,62%,42%,55.05,16.45,11.29,39.26%,39.23%,42.78%,47.1,19,7.4,29.8,81,1563,3.7,1.51,PA-53944,40.7178288,-76.1166864
New Ringgold,Pennsylvania,305,381,Pottsville,162600,$47679,8.78%,43,$80000,1667,$48,N/A,79.67%,$679,37.11%,N/A,N/A,10.49%,7.97%,55.82%,Schuylkill County,26.50%,69.40%,0.0%,0.98%,96.39%,0.0%,0.33%,N/A,86,37,49,65,21,55%,54%,40,60,89,50%,62%,42%,52.42,16.63,10.74,37.23%,41.1%,34.78%,47.1,19,7.4,29.8,80,492,3.7,0.8,PA-54016,40.6891716,-75.9928125
Newtown,Pennsylvania,244,381,Pottsville,162600,$72857,16.82%,52,$736000,2777,$265,66,95.08%,N/A,36.44%,N/A,N/A,5.33%,1.86%,71.56%,Schuylkill County,26.50%,69.40%,0.0%,0.0%,100.0%,0.0%,0.0%,N/A,84,35,49,62,20,55%,54%,41,62,86,50%,62%,42%,50.06,14.48,9.9,37.01%,40.33%,35.33%,36.6,16,7.4,30.2,78,927,3.8,0.64,PA-54264,40.6528864,-76.346213
North Manheim,Pennsylvania,3689,181,Pottsville,162600,N/A,N/A,N/A,N/A,N/A,N/A,N/A,N/A,N/A,N/A,N/A,N/A,N/A,N/A,N/A,Schuylkill County,26.50%,69.40%,N/A,N/A,N/A,N/A,N/A,N/A,86,37,49,65,21,55%,54%,40,60,89,50%,62%,42%,52.42,16.63,10.74,37.23%,41.1%,34.78%,47.1,19,7.4,29.8,74,492,3.7,20.38,PA-55192,40.6531551,-76.166797
North Union township (Schuylkill Cnty),Pennsylvania,1221,59,Pottsville,162600,N/A,N/A,N/A,N/A,N/A,N/A,N/A,N/A,N/A,N/A,N/A,N/A,N/A,N/A,N/A,Schuylkill County,26.50%,69.40%,N/A,N/A,N/A,N/A,N/A,N/A,81,33,48,61,17,58%,55%,40,60,82,50%,62%,42%,55.05,16.45,11.29,39.26%,39.23%,42.78%,47.1,19,7.0,29.8,84,1563,3.7,20.69,PA-55472,40.9128318,-76.2028999
Norwegian,Pennsylvania,1870,319,Pottsville,162600,N/A,N/A,N/A,N/A,N/A,N/A,N/A,N/A,N/A,N/A,N/A,N/A,N/A,N/A,N/A,Schuylkill County,26.50%,69.40%,N/A,N/A,N/A,N/A,N/A,N/A,81,33,48,61,17,55%,54%,40,60,82,50%,62%,42%,55.05,16.45,11.29,39.26%,39.23%,42.78%,47.1,19,7.4,29.8,76,1563,3.7,5.86,PA-55624,40.6973002,-76.2241769
Nuremberg,Pennsylvania,434,723,Scranton--Wilkes-Barre--Hazleton,533920,$55804,11.65%,57,$190000,3958,$48,N/A,62.67%,$723,59.05%,N/A,N/A,10.83%,0.0%,49.87%,Schuylkill County,26.50%,69.40%,0.0%,0.0%,92.86%,6.22%,4.15%,Eastern Standard Time,81,33,48,61,17,58%,55%,40,60,82,50%,62%,42%,55.05,16.45,11.29,39.26%,39.23%,42.78%,47.1,19,7.0,29.8,84,1563,3.7,0.6,PA-55808,40.937751,-76.1684641
Oneida,Pennsylvania,361,2124,Pottsville,162600,$135514,0.0%,37,N/A,N/A,N/A,N/A,90.03%,N/A,89.88%,N/A,N/A,7.2%,0.0%,82.49%,Schuylkill County,26.50%,69.40%,0.0%,0.0%,52.91%,47.09%,4.16%,N/A,81,33,48,61,17,58%,55%,40,60,82,50%,62%,42%,55.05,16.45,11.29,39.26%,39.23%,42.78%,47.1,19,7.0,29.8,84,1563,3.7,0.17,PA-56816,40.9071615,-76.1238001
Orwigsburg,Pennsylvania,2964,1366,Pottsville,162600,$56642,23.86%,43,$231000,1805,$128,68,86.84%,$734,42.15%,N/A,N/A,2.76%,1.2%,56.86%,Schuylkill County,26.50%,69.40%,0.84%,0.2%,92.58%,0.57%,2.33%,N/A,86,37,49,65,21,55%,54%,40,60,89,50%,62%,42%,52.42,16.63,10.74,37.23%,41.1%,34.78%,47.1,19,7.4,29.8,71,492,3.7,2.17,PA-57184,40.6541668,-76.103989
Orwin,Pennsylvania,196,316,Pottsville,162600,$76750,11.84%,49,N/A,N/A,N/A,N/A,100.0%,N/A,16.56%,N/A,N/A,0.0%,0.0%,58.6%,Schuylkill County,26.50%,69.40%,0.0%,0.0%,88.78%,6.63%,0.0%,N/A,84,37,47,61,20,56%,55%,41,62,86,50%,62%,42%,52.48,15.79,10.09,31.4%,33.96%,29.67%,36.6,16,6.5,30.2,78,492,3.7,0.62,PA-57192,40.5838689,-76.5314138
Palo Alto,Pennsylvania,889,855,Pottsville,162600,$43889,6.86%,42,$95000,1267,$75,N/A,81.1%,$736,37.46%,N/A,N/A,6.22%,3.0%,64.24%,Schuylkill County,26.50%,69.40%,0.56%,0.0%,96.85%,2.47%,1.57%,N/A,81,33,48,61,17,55%,54%,40,60,82,50%,62%,42%,55.05,16.45,11.29,39.26%,39.23%,42.78%,47.1,19,7.4,29.8,71,1563,3.7,1.04,PA-57752,40.6860867,-76.1699329
Park Crest,Pennsylvania,542,695,Pottsville,162600,$50598,20.71%,55,$100000,980,$102,64,97.79%,N/A,43.78%,N/A,N/A,16.42%,10.48%,54.51%,Schuylkill County,26.50%,69.40%,0.18%,0.0%,98.71%,1.11%,0.18%,N/A,81,33,48,61,17,55%,54%,40,60,82,50%,62%,42%,51.6,15.06,11.07,39.26%,39.23%,42.78%,47.1,19,7.4,29.8,83,1044,3.7,0.78,PA-57968,40.819232,-76.0613104
Pine Grove borough,Pennsylvania,1960,1832,Pottsville,162600,N/A,N/A,N/A,$130000,1461,$89,N/A,N/A,N/A,N/A,N/A,N/A,N/A,N/A,N/A,Schuylkill County,26.50%,69.40%,N/A,N/A,N/A,N/A,N/A,N/A,85,38,47,65,22,55%,54%,41,62,87,50%,62%,42%,49.3,15.83,9.61,36.05%,38.68%,34.78%,25.1,10,7.4,30.2,61,411,3.7,1.07,PA-60464,40.5410259,-76.4156471
Pine Grove township (Schuylkill Cnty),Pennsylvania,4069,3803,Pottsville,162600,N/A,N/A,N/A,$130000,1461,$89,N/A,N/A,N/A,N/A,N/A,N/A,N/A,N/A,N/A,Schuylkill County,26.50%,69.40%,N/A,N/A,N/A,N/A,N/A,N/A,85,38,47,65,22,55%,54%,41,62,87,50%,62%,42%,49.3,15.83,9.61,36.05%,38.68%,34.78%,25.1,10,7.4,30.2,75,411,3.7,1.07,PA-60464,40.5410259,-76.4156471
Port Carbon,Pennsylvania,1701,2268,Pottsville,162600,$50798,14.97%,46,$120000,1277,$94,N/A,85.54%,$563,48.94%,N/A,N/A,6.94%,3.34%,61.66%,Schuylkill County,26.50%,69.40%,0.53%,0.0%,95.12%,4.35%,0.88%,N/A,81,33,48,61,17,55%,54%,40,60,82,50%,62%,42%,55.05,16.45,11.29,39.26%,39.23%,42.78%,47.1,19,7.4,29.8,75,1563,3.7,0.75,PA-62128,40.6969139,-76.1666173
Port Clinton,Pennsylvania,373,491,Pottsville,162600,$55139,12.55%,37,N/A,N/A,N/A,N/A,59.52%,$1060,53.97%,N/A,N/A,10.46%,9.42%,65.86%,Schuylkill County,26.50%,69.40%,2.41%,0.0%,89.54%,1.61%,3.49%,N/A,86,37,49,65,21,55%,54%,40,60,89,50%,62%,42%,52.42,16.63,10.74,37.23%,41.1%,34.78%,27.3,13,7.4,29.8,76,492,3.7,0.76,PA-62136,40.5817402,-76.0266911
Porter township (Schuylkill Cnty),Pennsylvania,2066,115,Pottsville,162600,N/A,N/A,N/A,N/A,N/A,N/A,N/A,N/A,N/A,N/A,N/A,N/A,N/A,N/A,N/A,Schuylkill County,26.50%,69.40%,N/A,N/A,N/A,N/A,N/A,N/A,84,37,47,61,20,56%,55%,41,62,86,50%,62%,42%,52.48,15.79,10.09,31.4%,33.96%,29.67%,36.6,16,6.5,30.2,78,492,3.7,17.97,PA-62200,40.5982786,-76.5269137
Pottsville,Pennsylvania,13549,3249,Pottsville,162600,$39154,19.94%,41,$106000,1582,$67,N/A,60.7%,$720,61.15%,N/A,N/A,19.84%,8.19%,61.59%,Schuylkill County,26.50%,69.40%,0.05%,3.62%,91.59%,4.32%,1.01%,N/A,81,33,48,61,17,55%,54%,40,60,82,50%,62%,42%,55.05,16.45,11.29,39.26%,39.23%,42.78%,47.1,19,7.4,29.8,56,1563,3.7,4.17,PA-62432,40.6798539,-76.2092082
Ravine,Pennsylvania,670,615,Pottsville,162600,$56976,20.89%,42,$140000,1591,$88,51,82.54%,$613,45.28%,N/A,N/A,9.7%,12.47%,68.11%,Schuylkill County,26.50%,69.40%,0.0%,0.0%,98.96%,1.04%,0.0%,N/A,85,38,47,65,22,55%,54%,41,62,87,50%,62%,42%,49.3,15.83,9.61,36.05%,38.68%,34.78%,25.1,10,7.4,30.2,75,411,3.7,1.09,PA-63536,40.5686113,-76.3936561
Reilly,Pennsylvania,810,52,Pottsville,162600,N/A,N/A,N/A,N/A,N/A,N/A,N/A,N/A,N/A,N/A,N/A,N/A,N/A,N/A,N/A,Schuylkill County,26.50%,69.40%,N/A,N/A,N/A,N/A,N/A,N/A,84,35,49,62,20,55%,54%,41,62,86,50%,62%,42%,50.06,14.48,9.9,37.01%,40.33%,35.33%,36.6,16,7.4,30.2,78,927,3.7,15.58,PA-64088,40.6475104,-76.3326373
Reinerton,Pennsylvania,446,970,Pottsville,162600,$48250,10.91%,42,$100000,1538,$65,73,71.97%,N/A,55.13%,N/A,N/A,0.0%,16.58%,49.49%,Schuylkill County,26.50%,69.40%,0.0%,0.0%,100.0%,0.0%,0.0%,N/A,84,37,47,61,20,56%,55%,41,62,86,50%,62%,42%,52.48,15.79,10.09,31.4%,33.96%,29.67%,36.6,16,6.5,30.2,78,492,3.7,0.46,PA-64104,40.5913902,-76.5358792
Renningers,Pennsylvania,501,428,Pottsville,162600,$69648,24.77%,35,$225000,1619,$139,25,100.0%,N/A,19.85%,N/A,N/A,0.0%,6.28%,58.22%,Schuylkill County,26.50%,69.40%,0.0%,0.0%,100.0%,0.0%,0.0%,N/A,86,37,49,65,21,55%,54%,40,60,89,50%,62%,42%,52.42,16.63,10.74,37.23%,41.1%,34.78%,47.1,19,7.4,29.8,74,492,3.7,1.17,PA-64188,40.6496647,-76.1484451
Ringtown,Pennsylvania,737,1675,Pottsville,162600,$58333,16.52%,46,N/A,N/A,N/A,75,86.57%,$588,46.19%,N/A,N/A,5.44%,6.53%,55.52%,Schuylkill County,26.50%,69.40%,0.0%,0.14%,95.66%,1.63%,0.95%,N/A,81,33,48,61,17,58%,55%,40,60,82,50%,62%,42%,55.05,16.45,11.29,39.26%,39.23%,42.78%,47.1,19,7.0,29.8,84,1563,3.7,0.44,PA-65000,40.8565195,-76.2350269
Rush township (Schuylkill Cnty),Pennsylvania,3316,143,Pottsville,162600,N/A,N/A,N/A,N/A,N/A,N/A,N/A,N/A,N/A,N/A,N/A,N/A,N/A,N/A,N/A,Schuylkill County,26.50%,69.40%,N/A,N/A,N/A,N/A,N/A,N/A,81,33,48,61,17,55%,54%,40,60,82,50%,62%,42%,51.6,15.06,11.07,39.26%,39.23%,42.78%,47.1,19,7.4,29.8,83,1044,3.7,23.19,PA-66760,40.8367735,-75.9876184
Ryan,Pennsylvania,2523,143,Pottsville,162600,N/A,N/A,N/A,N/A,N/A,N/A,N/A,N/A,N/A,N/A,N/A,N/A,N/A,N/A,N/A,Schuylkill County,26.50%,69.40%,N/A,N/A,N/A,N/A,N/A,N/A,81,33,48,61,17,55%,54%,40,60,82,50%,62%,42%,55.05,16.45,11.29,39.26%,39.23%,42.78%,47.1,19,7.4,29.8,83,1563,3.7,17.64,PA-66944,40.790982,-76.1003171
Schuylkill Haven,Pennsylvania,5137,3669,Pottsville,162600,$43358,22.71%,41,$170000,1828,$93,67,68.12%,$623,53.61%,N/A,N/A,8.57%,8.28%,62.16%,Schuylkill County,26.50%,69.40%,1.01%,1.07%,95.58%,2.04%,1.52%,N/A,86,37,49,65,21,55%,54%,40,60,89,50%,62%,42%,52.42,16.63,10.74,37.23%,41.1%,34.78%,47.1,19,7.4,29.8,56,492,3.7,1.4,PA-68312,40.6284088,-76.1728459
Schuylkill township (Schuylkill Cnty),Pennsylvania,1138,118,Pottsville,162600,N/A,N/A,N/A,N/A,N/A,N/A,N/A,N/A,N/A,N/A,N/A,N/A,N/A,N/A,N/A,Schuylkill County,26.50%,69.40%,N/A,N/A,N/A,N/A,N/A,N/A,81,33,48,61,17,55%,54%,40,60,82,50%,62%,42%,51.6,15.06,11.07,39.26%,39.23%,42.78%,47.1,19,7.4,29.8,81,1044,3.7,9.64,PA-68304,40.7715556,-76.0395924
Seltzer,Pennsylvania,306,3400,Pottsville,162600,$53214,13.95%,43,$305000,1667,$183,N/A,84.31%,N/A,45.45%,N/A,N/A,24.84%,17.12%,42.05%,Schuylkill County,26.50%,69.40%,0.0%,0.0%,100.0%,0.0%,0.0%,N/A,81,33,48,61,17,55%,54%,40,60,82,50%,62%,42%,55.05,16.45,11.29,39.26%,39.23%,42.78%,47.1,19,7.4,29.8,76,1563,3.7,0.09,PA-69256,40.6959298,-76.2364664
Shenandoah,Pennsylvania,4789,3172,Pottsville,162600,$29208,12.63%,35,$38000,1462,$26,N/A,65.81%,$522,62.3%,N/A,N/A,39.64%,9.62%,48.14%,Schuylkill County,26.50%,69.40%,0.08%,3.47%,61.04%,34.39%,9.92%,N/A,81,33,48,61,17,55%,54%,40,60,82,50%,62%,42%,55.05,16.45,11.29,39.26%,39.23%,42.78%,47.1,19,7.4,29.8,63,1563,3.7,1.51,PA-70056,40.8166948,-76.200349
Shenandoah Heights,Pennsylvania,1564,1862,Pottsville,162600,$72046,20.71%,48,N/A,N/A,N/A,75,88.63%,$1028,46.02%,N/A,N/A,18.01%,1.0%,67.24%,Schuylkill County,26.50%,69.40%,0.0%,0.0%,85.42%,14.58%,7.29%,N/A,81,33,48,61,17,55%,54%,40,60,82,50%,62%,42%,55.05,16.45,11.29,39.26%,39.23%,42.78%,47.1,19,7.4,29.8,79,1563,3.7,0.84,PA-70064,40.8319036,-76.2060742
Sheppton,Pennsylvania,602,2076,Pottsville,162600,$36544,16.26%,40,$180000,1935,$93,N/A,73.82%,$750,62.99%,N/A,N/A,46.4%,3.11%,55.15%,Schuylkill County,26.50%,69.40%,9.14%,5.15%,77.41%,13.12%,14.78%,N/A,81,33,48,61,17,58%,55%,40,60,82,50%,62%,42%,55.05,16.45,11.29,39.26%,39.23%,42.78%,47.1,19,7.0,29.8,84,1563,3.7,0.29,PA-70128,40.8963999,-76.1196192
South Manheim,Pennsylvania,2398,115,Pottsville,162600,N/A,N/A,N/A,N/A,N/A,N/A,N/A,N/A,N/A,N/A,N/A,N/A,N/A,N/A,N/A,Schuylkill County,26.50%,69.40%,N/A,N/A,N/A,N/A,N/A,N/A,86,37,49,65,21,55%,54%,40,60,89,50%,62%,42%,51.82,16.7,10.46,37.23%,41.1%,34.78%,47.1,19,7.4,29.8,78,339,3.7,20.85,PA-72312,40.5870545,-76.1379186
St. Clair borough,Pennsylvania,2842,2311,Pottsville,162600,$47820,16.27%,48,$144000,1655,$87,N/A,82.66%,$702,56.37%,N/A,N/A,17.81%,6.22%,61.15%,Schuylkill County,26.50%,69.40%,0.35%,0.04%,98.35%,0.77%,0.25%,N/A,81,33,48,61,17,55%,54%,40,60,82,50%,62%,42%,55.05,16.45,11.29,39.26%,39.23%,42.78%,47.1,19,7.4,29.8,70,1563,3.7,1.23,PA-67224,40.7210919,-76.1903385
Summit Station,Pennsylvania,154,120,Pottsville,162600,N/A,9.49%,62,$185000,1888,$98,69,100.0%,N/A,51.09%,N/A,N/A,0.0%,0.0%,41.61%,Schuylkill County,26.50%,69.40%,0.0%,0.0%,100.0%,0.0%,0.0%,N/A,86,37,49,65,21,55%,54%,40,60,89,50%,62%,42%,51.82,16.7,10.46,37.23%,41.1%,34.78%,47.1,19,7.4,29.8,78,339,3.7,1.28,PA-75272,40.5620344,-76.2011834
Tamaqua,Pennsylvania,6699,701,Pottsville,162600,$37043,15.6%,42,$150000,2000,$75,N/A,63.79%,$672,53.64%,N/A,N/A,21.19%,8.38%,64.51%,Schuylkill County,26.50%,69.40%,0.0%,0.33%,91.0%,5.4%,1.07%,N/A,81,33,48,61,17,55%,54%,40,60,82,50%,62%,42%,51.6,15.06,11.07,39.26%,39.23%,42.78%,47.1,19,7.4,29.8,78,1044,3.7,9.56,PA-76032,40.8033495,-75.9343629
Tower City,Pennsylvania,1187,3709,Pottsville,162600,$57083,14.29%,37,$110000,1692,$65,N/A,78.18%,$750,48.48%,N/A,N/A,11.15%,3.81%,66.74%,Schuylkill County,26.50%,69.40%,0.0%,0.0%,98.99%,0.67%,0.51%,N/A,84,37,47,61,20,56%,55%,41,62,86,50%,62%,42%,52.48,15.79,10.09,31.4%,33.96%,29.67%,36.6,16,6.5,30.2,78,492,3.7,0.32,PA-77184,40.5884339,-76.5530739
Tremont,Pennsylvania,299,410,Pottsville,162600,N/A,N/A,N/A,$95000,1218,$78,N/A,N/A,N/A,N/A,N/A,N/A,N/A,N/A,N/A,Schuylkill County,26.50%,69.40%,N/A,N/A,N/A,N/A,N/A,N/A,84,35,49,62,20,55%,54%,41,62,86,50%,62%,42%,50.06,14.48,9.9,37.01%,40.33%,35.33%,36.6,16,7.4,30.2,78,927,3.7,0.73,PA-77400,40.5923204,-76.4409583
Tremont borough,Pennsylvania,1790,2452,Pottsville,162600,N/A,N/A,N/A,$95000,1218,$78,N/A,N/A,N/A,N/A,N/A,N/A,N/A,N/A,N/A,Schuylkill County,26.50%,69.40%,N/A,N/A,N/A,N/A,N/A,N/A,84,35,49,62,20,55%,54%,41,62,86,50%,62%,42%,50.06,14.48,9.9,37.01%,40.33%,35.33%,36.6,16,7.4,30.2,78,927,3.7,0.73,PA-77400,40.5923204,-76.4409583
Tuscarora,Pennsylvania,397,1985,Pottsville,162600,$39958,8.85%,61,$165000,1854,$89,N/A,89.17%,$1054,55.1%,N/A,N/A,12.59%,4.65%,47.38%,Schuylkill County,26.50%,69.40%,0.0%,0.0%,100.0%,0.0%,0.5%,N/A,81,33,48,61,17,55%,54%,40,60,82,50%,62%,42%,51.6,15.06,11.07,39.26%,39.23%,42.78%,47.1,19,7.4,29.8,81,1044,3.7,0.2,PA-77968,40.7687578,-76.0377484
Union township (Schuylkill Cnty),Pennsylvania,1277,698,Pottsville,162600,N/A,N/A,N/A,$52000,2167,$24,N/A,N/A,N/A,N/A,N/A,N/A,N/A,N/A,N/A,Schuylkill County,26.50%,69.40%,N/A,N/A,N/A,N/A,N/A,N/A,81,33,48,61,17,58%,55%,40,60,82,50%,62%,42%,55.05,16.45,11.29,39.26%,39.23%,42.78%,47.1,19,7.0,29.8,84,1563,3.7,1.83,PA-78400,40.8506125,-76.2500759
Upper Mahantongo,Pennsylvania,650,44,Pottsville,162600,N/A,N/A,N/A,N/A,N/A,N/A,N/A,N/A,N/A,N/A,N/A,N/A,N/A,N/A,N/A,Schuylkill County,26.50%,69.40%,N/A,N/A,N/A,N/A,N/A,N/A,84,35,49,62,20,56%,55%,41,62,86,50%,62%,42%,50.06,14.48,9.9,37.01%,40.33%,35.33%,36.6,16,6.5,30.2,81,927,3.7,14.77,PA-79120,40.6737337,-76.6149374
Valley View (Schuylkill Cnty),Pennsylvania,1363,363,Pottsville,162600,$58571,15.13%,37,$204000,1316,$155,N/A,57.15%,$770,55.63%,N/A,N/A,16.75%,0.41%,64.94%,Schuylkill County,26.50%,69.40%,0.0%,0.0%,97.8%,0.0%,1.17%,N/A,84,35,49,62,20,56%,55%,41,62,86,50%,62%,42%,50.06,14.48,9.9,37.01%,40.33%,35.33%,36.6,16,6.5,30.2,80,927,3.7,3.75,PA-79680,40.648078,-76.5351665
Walker township (Schuylkill Cnty),Pennsylvania,1120,49,Pottsville,162600,N/A,N/A,N/A,N/A,N/A,N/A,N/A,N/A,N/A,N/A,N/A,N/A,N/A,N/A,N/A,Schuylkill County,26.50%,69.40%,N/A,N/A,N/A,N/A,N/A,N/A,81,33,48,61,17,55%,54%,40,60,82,50%,62%,42%,51.6,15.06,11.07,39.26%,39.23%,42.78%,47.1,19,7.4,29.8,81,1044,3.7,22.86,PA-80576,40.744967,-76.0077239
Washington township (Schuylkill Cnty),Pennsylvania,2934,1005,Pottsville,162600,N/A,N/A,N/A,$190000,1242,$153,N/A,N/A,N/A,N/A,N/A,N/A,N/A,N/A,N/A,Schuylkill County,26.50%,69.40%,N/A,N/A,N/A,N/A,N/A,N/A,86,37,49,65,21,55%,54%,41,62,89,50%,62%,42%,51.82,16.7,10.46,37.23%,41.1%,34.78%,25.1,10,7.4,30.2,79,339,3.7,2.92,PA-81312,40.5634093,-76.3087201
Wayne township (Schuylkill Cnty),Pennsylvania,5071,2392,Pottsville,162600,N/A,N/A,N/A,$1650000,3700,$446,N/A,N/A,N/A,N/A,N/A,N/A,N/A,N/A,N/A,Schuylkill County,26.50%,69.40%,N/A,N/A,N/A,N/A,N/A,N/A,86,37,49,65,21,55%,54%,40,60,89,50%,62%,42%,51.82,16.7,10.46,37.23%,41.1%,34.78%,47.1,19,7.4,29.8,78,339,3.7,2.12,PA-81792,40.5830324,-76.2294363
West Brunswick,Pennsylvania,3253,107,Pottsville,162600,N/A,N/A,N/A,N/A,N/A,N/A,N/A,N/A,N/A,N/A,N/A,N/A,N/A,N/A,N/A,Schuylkill County,26.50%,69.40%,N/A,N/A,N/A,N/A,N/A,N/A,86,37,49,65,21,55%,54%,40,60,89,50%,62%,42%,52.42,16.63,10.74,37.23%,41.1%,34.78%,47.1,19,7.4,29.8,76,492,3.7,30.4,PA-82632,40.632485,-76.0625355
West Mahanoy,Pennsylvania,2785,269,Pottsville,162600,N/A,N/A,N/A,N/A,N/A,N/A,N/A,N/A,N/A,N/A,N/A,N/A,N/A,N/A,N/A,Schuylkill County,26.50%,69.40%,N/A,N/A,N/A,N/A,N/A,N/A,81,33,48,61,17,55%,54%,40,60,82,50%,62%,42%,55.05,16.45,11.29,39.26%,39.23%,42.78%,47.1,19,7.4,29.8,79,1563,3.7,10.35,PA-83408,40.8099123,-76.2198555
West Penn,Pennsylvania,4321,75,Pottsville,162600,N/A,N/A,N/A,N/A,N/A,N/A,N/A,N/A,N/A,N/A,N/A,N/A,N/A,N/A,N/A,Schuylkill County,26.50%,69.40%,N/A,N/A,N/A,N/A,N/A,N/A,82,36,46,63,20,55%,54%,40,60,83,50%,62%,42%,52.66,16.08,10.94,38.33%,43.74%,33.89%,47.1,19,7.4,29.8,80,549,3.7,57.61,PA-83792,40.7417435,-75.8767574
