City,State,Population,People per sq mi,Metro Name,Metro population,Median household income,% with at least Bachelor's degree,Median age,Median home price,Median home sqft,Median home cost per sqft,Median home age,Homeownership Rate,Avg Apartment Monthly Rent,Single Population,Num Violent Crimes Per 100k residents,Num Property Crimes Per 100k residents,Poverty Rate,Unemployment rate,Labor Force Participation rate,County,% Democrat,% Republican,% Asian,% Black,% Non-Hispanic White,% Hispanic,Foreign Born %,Timezone,Hottest month's avg high (F),Coldest month's avg high (F),Hottest high minus coldest high,Hottest month's avg low (F),Coldest month's avg low (F),Annual Relative Humidity (afternoon),Summer Relative Humidity (afternoon),Annual dew point (F),Average summer dew point (F),Hottest month's avg heat index high (F),Annual Sunshine - Percentage of Possible,Summer Sunshine - Percentage of Possible,Winter Sunshine - Percentage of Possible,Annual rainfall (in),Summer rainfall (in),Winter rainfall (in),Percent of days that include precipitation,Percent of Summer days that include precipitation,Percent of Winter days that include precipitation,Annual snowfall (in),Days of snow per year,Average yearly windspeed (mph),Number of days with thunder per year,Air quality Index,Elevation (ft),UV Index,Land Area (sq mi),Fips Code,Latitude,Longitude
Auburn,Kansas,1185,1693,Topeka,233423,$63382,17.93%,37,$200000,1923,$104,42,73.55%,$889,47.9%,N/A,N/A,11.38%,5.71%,59.22%,Shawnee County,44.20%,46.80%,0.25%,0.08%,89.2%,4.47%,0.08%,Central Standard Time,91,42,49,69,20,58%,58%,43,65,101,59%,68%,54%,37.21,12.94,4.08,28.22%,34.4%,17.0%,17.8,10,8.0,55.1,73,1032,4.3,0.7,KS-03250,38.9077376,-95.8158566
Auburn township,Kansas,1185,1693,Topeka,233423,$63382,17.93%,37,$200000,1923,$104,42,73.55%,$889,47.9%,N/A,N/A,11.38%,5.71%,59.22%,Shawnee County,44.20%,46.80%,0.25%,0.08%,89.2%,4.47%,0.08%,Central Standard Time,91,42,49,69,20,58%,58%,43,65,101,59%,68%,54%,37.21,12.94,4.08,28.22%,34.4%,17.0%,17.8,10,8.0,55.1,73,1032,4.3,0.7,KS-03250,38.9077376,-95.8158566
Dover,Kansas,1709,31,Topeka,233423,N/A,N/A,N/A,N/A,N/A,N/A,N/A,N/A,N/A,N/A,N/A,N/A,N/A,N/A,N/A,Shawnee County,44.20%,46.80%,N/A,N/A,N/A,N/A,N/A,Central Standard Time,89,39,50,66,18,58%,58%,43,65,96,59%,68%,54%,37.38,13.23,4.07,27.07%,32.09%,18.56%,15.8,9,8.0,55.1,73,1290,4.3,55.13,KS-18450,38.9647239,-95.9374886
Grove township (Shawnee Cnty),Kansas,448,15,Topeka,233423,N/A,N/A,N/A,N/A,N/A,N/A,N/A,N/A,N/A,N/A,N/A,N/A,N/A,N/A,N/A,Shawnee County,44.20%,46.80%,N/A,N/A,N/A,N/A,N/A,Central Standard Time,89,41,48,68,19,58%,58%,43,65,96,59%,68%,54%,36.45,13.67,3.42,26.79%,30.55%,19.67%,17.8,10,8.0,55.1,73,849,4.3,29.87,KS-29050,39.1674982,-95.8591536
Menoken,Kansas,1549,35,Topeka,233423,N/A,N/A,N/A,N/A,N/A,N/A,N/A,N/A,N/A,N/A,N/A,N/A,N/A,N/A,N/A,Shawnee County,44.20%,46.80%,N/A,N/A,N/A,N/A,N/A,Central Standard Time,89,41,48,68,19,58%,58%,43,65,96,59%,68%,54%,38.39,13.91,3.92,26.79%,30.55%,19.67%,17.8,10,8.0,55.1,73,858,4.3,44.26,KS-45825,39.0908329,-95.7558171
Mission township (Shawnee Cnty),Kansas,9475,3549,Topeka,233423,N/A,N/A,N/A,$290000,1330,$218,N/A,N/A,N/A,N/A,N/A,N/A,N/A,N/A,N/A,Shawnee County,44.20%,46.80%,N/A,N/A,N/A,N/A,N/A,Central Standard Time,91,42,49,69,20,58%,58%,43,65,101,59%,68%,54%,38.39,13.91,3.92,28.22%,34.4%,17.0%,17.8,10,8.0,55.1,68,858,4.3,2.67,KS-47275,39.0027225,-95.7930431
Monmouth,Kansas,3092,55,Topeka,233423,N/A,N/A,N/A,N/A,N/A,N/A,N/A,N/A,N/A,N/A,N/A,N/A,N/A,N/A,N/A,Shawnee County,44.20%,46.80%,N/A,N/A,N/A,N/A,N/A,Central Standard Time,91,42,49,69,20,58%,58%,43,65,101,59%,68%,54%,36.34,13.38,3.32,28.22%,34.4%,17.0%,17.8,10,8.0,55.1,71,975,4.3,56.22,KS-47700,38.927938,-95.5664942
Rossville,Kansas,1183,2151,Topeka,233423,$58287,21.37%,33,N/A,N/A,N/A,57,68.46%,$970,44.54%,N/A,N/A,11.22%,10.05%,61.95%,Shawnee County,44.20%,46.80%,0.34%,0.76%,90.62%,5.07%,0.17%,Central Standard Time,89,41,48,68,19,58%,58%,43,65,96,59%,68%,54%,36.45,13.67,3.42,25.21%,32.64%,15.22%,15.8,9,8.0,55.1,73,849,4.3,0.55,KS-61400,39.1357993,-95.9496247
Rossville township,Kansas,1183,2151,Topeka,233423,$58287,21.37%,33,N/A,N/A,N/A,57,68.46%,$970,44.54%,N/A,N/A,11.22%,10.05%,61.95%,Shawnee County,44.20%,46.80%,0.34%,0.76%,90.62%,5.07%,0.17%,Central Standard Time,89,41,48,68,19,58%,58%,43,65,96,59%,68%,54%,36.45,13.67,3.42,25.21%,32.64%,15.22%,15.8,9,8.0,55.1,73,849,4.3,0.55,KS-61400,39.1357993,-95.9496247
Silver Lake,Kansas,1549,2766,Topeka,233423,$56857,35.86%,40,N/A,N/A,N/A,48,73.92%,$877,46.53%,N/A,N/A,5.55%,0.56%,62.28%,Shawnee County,44.20%,46.80%,0.0%,0.0%,92.64%,5.68%,0.0%,Central Standard Time,89,41,48,68,19,58%,58%,43,65,96,59%,68%,54%,36.45,13.67,3.42,26.79%,30.55%,19.67%,17.8,10,8.0,55.1,73,849,4.3,0.56,KS-65600,39.0994376,-95.8563035
Silver Lake township,Kansas,1549,2766,Topeka,233423,$56857,35.86%,40,N/A,N/A,N/A,48,73.92%,$877,46.53%,N/A,N/A,5.55%,0.56%,62.28%,Shawnee County,44.20%,46.80%,0.0%,0.0%,92.64%,5.68%,0.0%,Central Standard Time,89,41,48,68,19,58%,58%,43,65,96,59%,68%,54%,36.45,13.67,3.42,26.79%,30.55%,19.67%,17.8,10,8.0,55.1,73,849,4.3,0.56,KS-65600,39.0994376,-95.8563035
Soldier township,Kansas,14997,99980,Topeka,233423,N/A,N/A,N/A,N/A,N/A,N/A,N/A,N/A,N/A,N/A,N/A,N/A,N/A,N/A,N/A,Shawnee County,44.20%,46.80%,N/A,N/A,N/A,N/A,N/A,Central Standard Time,89,41,48,68,19,58%,58%,43,65,96,59%,68%,54%,37.57,13.64,3.83,26.79%,30.55%,19.67%,17.8,10,8.0,55.1,68,804,4.3,0.15,KS-66225,39.1554097,-95.6601383
Tecumseh,Kansas,339,95,Topeka,233423,$71875,20.68%,57,N/A,N/A,N/A,59,100.0%,N/A,36.54%,N/A,N/A,0.0%,13.33%,52.88%,Shawnee County,44.20%,46.80%,0.0%,0.0%,86.43%,3.24%,0.0%,Central Standard Time,91,42,49,70,20,58%,58%,43,65,101,59%,68%,54%,38.89,14.12,4.12,26.79%,30.55%,19.67%,17.8,10,8.0,55.1,67,927,4.3,3.57,KS-70075,39.0419026,-95.5806932
Topeka,Kansas,126103,2052,Topeka,233423,$55902,29.11%,38,$144000,1500,$96,53,61.07%,$947,57.35%,712,4990,15.56%,4.91%,62.12%,Shawnee County,44.20%,46.80%,1.82%,9.67%,65.61%,16.9%,5.25%,Central Standard Time,89,41,48,68,19,58%,58%,43,65,96,59%,68%,54%,38.39,13.91,3.92,26.79%,30.55%,19.67%,17.8,10,8.0,55.1,58,858,4.3,61.45,KS-71000,39.0345957,-95.6954546
Topeka township,Kansas,126103,2052,Topeka,233423,$55902,29.11%,38,$144000,1500,$96,53,61.07%,$947,57.35%,712,4990,15.56%,4.91%,62.12%,Shawnee County,44.20%,46.80%,1.82%,9.67%,65.61%,16.9%,5.25%,Central Standard Time,89,41,48,68,19,58%,58%,43,65,96,59%,68%,54%,38.39,13.91,3.92,26.79%,30.55%,19.67%,17.8,10,8.0,55.1,68,858,4.3,61.45,KS-71000,39.0345957,-95.6954546
Wakarusa CDP,Kansas,207,42,Topeka,233423,N/A,31.88%,66,N/A,N/A,N/A,40,75.78%,N/A,39.61%,N/A,N/A,7.73%,22.73%,42.51%,Shawnee County,44.20%,46.80%,0.0%,0.0%,95.17%,0.0%,4.83%,Central Standard Time,91,42,49,69,20,58%,58%,43,65,101,59%,68%,54%,36.34,13.38,3.32,28.22%,34.4%,17.0%,17.8,10,8.0,55.1,71,975,4.3,4.97,KS-74425,38.8911005,-95.6998704
Willard,Kansas,71,645,Topeka,233423,$65455,12.28%,46,N/A,N/A,N/A,63,80.0%,$1083,52.46%,N/A,N/A,7.04%,2.5%,65.57%,Shawnee County,44.20%,46.80%,0.0%,0.0%,95.77%,0.0%,0.0%,Central Standard Time,89,41,48,68,19,58%,58%,43,65,96,59%,68%,54%,36.45,13.67,3.42,25.21%,32.64%,15.22%,15.8,9,8.0,55.1,73,849,4.3,0.11,KS-79250,39.0940609,-95.9429165
Williamsport,Kansas,4080,103,Topeka,233423,N/A,N/A,N/A,N/A,N/A,N/A,N/A,N/A,N/A,N/A,N/A,N/A,N/A,N/A,N/A,Shawnee County,44.20%,46.80%,N/A,N/A,N/A,N/A,N/A,Central Standard Time,91,42,49,69,20,58%,58%,43,65,101,59%,68%,54%,36.34,13.38,3.32,28.22%,34.4%,17.0%,17.8,10,8.0,55.1,69,975,4.3,39.61,KS-79350,38.9124238,-95.6977749
