City,State,Population,People per sq mi,Metro Name,Metro population,Median household income,% with at least Bachelor's degree,Median age,Median home price,Median home sqft,Median home cost per sqft,Median home age,Homeownership Rate,Avg Apartment Monthly Rent,Single Population,Num Violent Crimes Per 100k residents,Num Property Crimes Per 100k residents,Poverty Rate,Unemployment rate,Labor Force Participation rate,County,% Democrat,% Republican,% Asian,% Black,% Non-Hispanic White,% Hispanic,Foreign Born %,Timezone,Hottest month's avg high (F),Coldest month's avg high (F),Hottest high minus coldest high,Annual rainfall (in),Annual days of precipitation,Annual snowfall (in),Average yearly windspeed (mph),Air quality Index,Elevation (ft),UV Index,Land Area (sq mi),Fips Code,Latitude,Longitude,Annual Sunshine - Percentage of Possible,Summer Sunshine - Percentage of Possible,Winter Sunshine - Percentage of Possible,Annual Relative Humidity (afternoon),Summer Relative Humidity (afternoon),Number of days with thunder per year
Auburn,Kansas,1078,1540,Topeka,230878,$57639,21.5%,36,$137000,993,$138,42,73.55%,$687,44.14%,N/A,N/A,7.27%,2.63%,64.93%,Shawnee County,44.20%,46.80%,4.64%,1.02%,84.97%,3.53%,2.04%,Central Standard Time,90,40,50,38,77,13,8.0,73,877,4.3,0.7,KS-03250,38.9077376,-95.8158566,59%,68%,54%,58%,58%,55.1
Auburn township,Kansas,1078,1540,Topeka,230878,$57639,21.5%,36,$137000,993,$138,42,73.55%,$687,44.14%,N/A,N/A,7.27%,2.63%,64.93%,Shawnee County,44.20%,46.80%,4.64%,1.02%,84.97%,3.53%,2.04%,Central Standard Time,90,40,50,38,78,13,8.0,73,877,4.3,0.7,KS-03250,38.9077376,-95.8158566,59%,68%,54%,58%,58%,55.1
Dover,Kansas,1709,31,Topeka,230878,$73125,42.57%,N/A,N/A,N/A,N/A,35,92.40%,N/A,27.10%,N/A,N/A,N/A,3.80%,N/A,Shawnee County,44.20%,46.80%,0.0%,0.2%,84.6%,9.9%,N/A,Central Standard Time,89,39,50,38,87,15,8.0,73,877,4.3,55.13,KS-18450,38.9647239,-95.9374886,59%,68%,54%,58%,58%,55.1
Grove township (Shawnee Cnty),Kansas,448,15,Topeka,230878,$95357,N/A,N/A,N/A,N/A,N/A,25,80.50%,N/A,33.50%,N/A,N/A,N/A,3.80%,N/A,Shawnee County,44.20%,46.80%,0.0%,0.0%,100.0%,0.0%,N/A,Central Standard Time,89,39,50,37,90,16,8.0,73,877,4.3,29.87,KS-29050,39.1674982,-95.8591536,59%,68%,54%,58%,58%,55.1
Menoken,Kansas,1549,35,Topeka,230878,$72045,N/A,N/A,N/A,N/A,N/A,31,84.90%,N/A,40.40%,N/A,N/A,N/A,3.80%,N/A,Shawnee County,44.20%,46.80%,0.0%,0.0%,83.3%,13.4%,N/A,Central Standard Time,89,39,50,37,91,16,8.0,73,877,4.3,44.26,KS-45825,39.0908329,-95.7558171,59%,68%,54%,58%,58%,55.1
Mission township (Shawnee Cnty),Kansas,9475,3549,Topeka,230878,$103171,N/A,N/A,$255000,1301,$196,31,86.90%,N/A,33.40%,N/A,N/A,N/A,3.80%,N/A,Shawnee County,44.20%,46.80%,1.4%,2.5%,87.0%,5.6%,N/A,Central Standard Time,89,39,50,38,88,15,8.0,68,877,4.3,2.67,KS-47275,39.0027225,-95.7930431,59%,68%,54%,58%,58%,55.1
Monmouth,Kansas,3092,55,Topeka,230878,$84188,37.27%,N/A,N/A,N/A,N/A,31,84.80%,N/A,26.70%,N/A,N/A,N/A,3.80%,N/A,Shawnee County,44.20%,46.80%,0.0%,3.8%,93.4%,1.6%,N/A,Central Standard Time,89,39,50,38,91,14,8.0,71,877,4.3,56.22,KS-47700,38.927938,-95.5664942,59%,68%,54%,58%,58%,55.1
Rossville,Kansas,992,1804,Topeka,230878,$49630,19.97%,39,$165000,1528,$108,50,68.46%,$783,49.87%,N/A,N/A,13.74%,2.58%,58.62%,Shawnee County,44.20%,46.80%,0.0%,1.92%,87.0%,6.15%,0.0%,Central Standard Time,89,39,50,36,88,15,8.0,73,877,4.3,0.55,KS-61400,39.1357993,-95.9496247,59%,68%,54%,58%,58%,55.1
Rossville township,Kansas,992,1804,Topeka,230878,$49630,19.97%,39,$165000,1528,$108,50,68.46%,$783,49.87%,N/A,N/A,13.74%,2.58%,58.62%,Shawnee County,44.20%,46.80%,0.0%,1.92%,87.0%,6.15%,0.0%,Central Standard Time,89,39,50,36,88,15,8.0,73,877,4.3,0.55,KS-61400,39.1357993,-95.9496247,59%,68%,54%,58%,58%,55.1
Silver Lake,Kansas,1453,2595,Topeka,230878,$59375,39.51%,38,N/A,N/A,N/A,46,73.92%,$698,53.4%,N/A,N/A,3.85%,2.16%,65.6%,Shawnee County,44.20%,46.80%,0.21%,0.0%,97.66%,1.17%,0.89%,Central Standard Time,89,39,50,37,90,16,8.0,73,877,4.3,0.56,KS-65600,39.0994376,-95.8563035,59%,68%,54%,58%,58%,55.1
Silver Lake township,Kansas,1453,2595,Topeka,230878,$59375,39.51%,38,N/A,N/A,N/A,46,73.92%,$698,53.4%,N/A,N/A,3.85%,2.16%,65.6%,Shawnee County,44.20%,46.80%,0.21%,0.0%,97.66%,1.17%,0.89%,Central Standard Time,89,39,50,37,90,16,8.0,73,877,4.3,0.56,KS-65600,39.0994376,-95.8563035,59%,68%,54%,58%,58%,55.1
Soldier township,Kansas,14997,99980,Topeka,230878,$74063,N/A,N/A,N/A,N/A,N/A,38,88.80%,N/A,30.90%,N/A,N/A,N/A,3.80%,N/A,Shawnee County,44.20%,46.80%,0.4%,0.9%,91.8%,4.4%,N/A,Central Standard Time,89,39,50,38,93,16,8.0,68,877,4.3,0.15,KS-66225,39.1554097,-95.6601383,59%,68%,54%,58%,58%,55.1
Tecumseh,Kansas,369,103,Topeka,230878,$62988,14.66%,64,$165000,1650,$100,57,100.0%,N/A,18.97%,N/A,N/A,0.0%,0.0%,43.97%,Shawnee County,44.20%,46.80%,0.0%,0.0%,100.0%,0.0%,0.0%,Central Standard Time,89,39,50,38,93,16,8.0,67,877,4.3,3.57,KS-70075,39.0419026,-95.5806932,59%,68%,54%,58%,58%,55.1
Topeka,Kansas,125819,2048,Topeka,230878,$49647,28.51%,38,$137000,1330,$103,54,61.07%,$815,54.63%,712,4990,13.9%,4.93%,62.28%,Shawnee County,44.20%,46.80%,1.69%,10.53%,67.21%,15.28%,4.88%,Central Standard Time,89,39,50,38,90,16,8.0,58,877,4.3,61.45,KS-71000,39.0345957,-95.6954546,59%,68%,54%,58%,58%,55.1
Topeka township,Kansas,125819,2048,Topeka,230878,$49647,28.51%,38,$137000,1330,$103,54,61.07%,$815,54.63%,712,4990,13.9%,4.93%,62.28%,Shawnee County,44.20%,46.80%,1.69%,10.53%,67.21%,15.28%,4.88%,Central Standard Time,89,39,50,38,91,15,8.0,68,877,4.3,61.45,KS-71000,39.0345957,-95.6954546,59%,68%,54%,58%,58%,55.1
Wakarusa CDP,Kansas,223,45,Topeka,230878,$77917,0.0%,29,N/A,N/A,N/A,26,75.78%,N/A,37.86%,N/A,N/A,4.48%,0.0%,67.14%,Shawnee County,44.20%,46.80%,0.0%,0.0%,95.52%,0.0%,4.48%,Central Standard Time,89,39,50,38,86,14,8.0,71,877,4.3,4.97,KS-74425,38.8911005,-95.6998704,59%,68%,54%,58%,58%,55.1
Willard,Kansas,95,864,Topeka,230878,$47500,0.0%,40,N/A,N/A,N/A,57,80.0%,$800,65.38%,N/A,N/A,8.42%,9.76%,52.56%,Shawnee County,44.20%,46.80%,0.0%,0.0%,100.0%,0.0%,0.0%,Central Standard Time,89,39,50,38,88,15,8.0,73,877,4.3,0.11,KS-79250,39.0940609,-95.9429165,59%,68%,54%,58%,58%,55.1
Williamsport,Kansas,4080,103,Topeka,230878,$60663,21.77%,N/A,N/A,N/A,N/A,50,44.00%,N/A,47.10%,N/A,N/A,N/A,3.80%,N/A,Shawnee County,44.20%,46.80%,1.9%,6.8%,76.6%,6.9%,N/A,Central Standard Time,90,39,51,38,86,15,8.0,69,877,4.3,39.61,KS-79350,38.9124238,-95.6977749,59%,68%,54%,58%,58%,55.1
