City,State,Population,People per sq mi,Metro Name,Metro population,Median household income,% with at least Bachelor's degree,Median age,Median home price,Median home sqft,Median home cost per sqft,Median home age,Homeownership Rate,Avg Apartment Monthly Rent,Single Population,Num Violent Crimes Per 100k residents,Num Property Crimes Per 100k residents,Poverty Rate,Unemployment rate,Labor Force Participation rate,County,% Democrat,% Republican,% Asian,% Black,% Non-Hispanic White,% Hispanic,Foreign Born %,Timezone,Hottest month's avg high (F),Coldest month's avg high (F),Hottest high minus coldest high,Hottest month's avg low (F),Coldest month's avg low (F),Annual Relative Humidity (afternoon),Summer Relative Humidity (afternoon),Annual dew point (F),Average summer dew point (F),Hottest month's avg heat index high (F),Annual Sunshine - Percentage of Possible,Summer Sunshine - Percentage of Possible,Winter Sunshine - Percentage of Possible,Annual rainfall (in),Summer rainfall (in),Winter rainfall (in),Percent of days that include precipitation,Percent of Summer days that include precipitation,Percent of Winter days that include precipitation,Annual snowfall (in),Days of snow per year,Average yearly windspeed (mph),Number of days with thunder per year,Air quality Index,Elevation (ft),UV Index,Land Area (sq mi),Fips Code,Latitude,Longitude
Addison,Indiana,20464,738,Indianapolis-Carmel-Anderson,2089990,N/A,N/A,N/A,N/A,N/A,N/A,N/A,N/A,N/A,N/A,N/A,N/A,N/A,N/A,N/A,Shelby County,23.60%,70.70%,N/A,N/A,N/A,N/A,N/A,Eastern Standard Time,85,37,48,64,20,60%,57%,42,63,89,51%,64%,41%,48.23,13.99,10.1,35.95%,36.48%,35.78%,20.6,17,8.3,41.0,65,687,3.8,27.73,IN-00568,39.5259427,-85.7702596
Brandywine township (Shelby Cnty),Indiana,1877,85,Indianapolis-Carmel-Anderson,2089990,N/A,N/A,N/A,N/A,N/A,N/A,N/A,N/A,N/A,N/A,N/A,N/A,N/A,N/A,N/A,Shelby County,23.60%,70.70%,N/A,N/A,N/A,N/A,N/A,Eastern Standard Time,86,38,48,65,22,60%,57%,42,63,90,51%,64%,41%,44.39,12.87,9.2,35.95%,36.48%,35.78%,20.6,17,8.3,41.0,71,735,3.8,22.08,IN-07102,39.5779699,-85.8397515
Fairland,Indiana,574,504,Indianapolis-Carmel-Anderson,2089990,$34423,11.94%,54,$260000,1436,$181,N/A,86.25%,$831,56.83%,N/A,N/A,9.14%,0.0%,48.69%,Shelby County,23.60%,70.70%,0.0%,0.0%,95.99%,2.44%,0.87%,Eastern Standard Time,86,38,48,65,22,60%,57%,42,63,90,51%,64%,41%,44.39,12.87,9.2,35.95%,36.48%,35.78%,20.6,17,8.3,41.0,71,735,3.8,1.14,IN-22396,39.5848938,-85.8627261
Hanover township (Shelby Cnty),Indiana,2356,1061,Indianapolis-Carmel-Anderson,2089990,N/A,N/A,N/A,$182000,1145,$159,N/A,N/A,N/A,N/A,N/A,N/A,N/A,N/A,N/A,Shelby County,23.60%,70.70%,N/A,N/A,N/A,N/A,N/A,Eastern Standard Time,86,38,48,65,22,60%,57%,42,63,90,51%,64%,41%,46.29,13.6,9.31,37.15%,35.27%,41.44%,20.6,17,8.3,41.0,73,810,3.8,2.22,IN-31270,39.6623633,-85.683812
Hendricks,Indiana,1247,34,Indianapolis-Carmel-Anderson,2089990,N/A,N/A,N/A,N/A,N/A,N/A,N/A,N/A,N/A,N/A,N/A,N/A,N/A,N/A,N/A,Shelby County,23.60%,70.70%,N/A,N/A,N/A,N/A,N/A,Eastern Standard Time,85,37,48,64,20,60%,57%,42,63,89,51%,64%,41%,48.23,13.99,10.1,33.48%,32.2%,34.89%,14.1,10,8.3,41.0,75,687,3.8,36.68,IN-33070,39.4807935,-85.8941456
Jackson township (Shelby Cnty),Indiana,1741,51,Indianapolis-Carmel-Anderson,2089990,N/A,N/A,N/A,N/A,N/A,N/A,N/A,N/A,N/A,N/A,N/A,N/A,N/A,N/A,N/A,Shelby County,23.60%,70.70%,N/A,N/A,N/A,N/A,N/A,Eastern Standard Time,85,37,48,65,20,60%,57%,42,63,89,51%,64%,41%,47.53,13.58,9.88,33.48%,32.2%,34.89%,14.1,10,8.3,41.0,75,660,3.8,34.14,IN-37404,39.3938135,-85.9003448
Liberty township (Shelby Cnty),Indiana,1345,1564,Indianapolis-Carmel-Anderson,2089990,N/A,N/A,N/A,N/A,N/A,N/A,N/A,N/A,N/A,N/A,N/A,N/A,N/A,N/A,N/A,Shelby County,23.60%,70.70%,N/A,N/A,N/A,N/A,N/A,Eastern Standard Time,85,37,48,64,20,60%,57%,42,63,89,51%,64%,41%,48.23,13.99,10.1,35.95%,36.48%,35.78%,20.6,17,8.3,41.0,75,687,3.8,0.86,IN-43398,39.4818772,-85.6668083
Marion township (Shelby Cnty),Indiana,1790,114,Indianapolis-Carmel-Anderson,2089990,N/A,N/A,N/A,$105000,1479,$71,N/A,N/A,N/A,N/A,370,3126,N/A,N/A,N/A,Shelby County,23.60%,70.70%,N/A,N/A,N/A,N/A,N/A,Eastern Standard Time,86,38,48,65,22,60%,57%,42,63,90,51%,64%,41%,44.39,12.87,9.2,35.95%,36.48%,35.78%,20.6,17,8.3,41.0,71,735,3.8,15.68,IN-47052,39.5902528,-85.7520842
Moral,Indiana,4563,125,Indianapolis-Carmel-Anderson,2089990,N/A,N/A,N/A,N/A,N/A,N/A,N/A,N/A,N/A,N/A,N/A,N/A,N/A,N/A,N/A,Shelby County,23.60%,70.70%,N/A,N/A,N/A,N/A,N/A,Eastern Standard Time,86,38,48,65,22,60%,57%,42,63,90,51%,64%,41%,48.01,13.99,9.84,35.95%,36.48%,35.78%,20.6,17,8.3,41.0,72,738,3.8,36.5,IN-50994,39.6539949,-85.8955138
Morristown,Indiana,1129,452,Indianapolis-Carmel-Anderson,2089990,$44625,10.62%,40,$83000,3952,$21,58,59.4%,$864,54.12%,N/A,N/A,12.23%,3.32%,58.51%,Shelby County,23.60%,70.70%,0.0%,1.59%,97.96%,0.0%,0.0%,Eastern Standard Time,85,35,50,64,19,60%,57%,42,63,89,51%,64%,41%,46.29,13.6,9.31,37.15%,35.27%,41.44%,20.6,17,8.3,41.0,73,810,3.8,2.5,IN-51192,39.6737951,-85.7050485
Noble township (Shelby Cnty),Indiana,1818,50,Indianapolis-Carmel-Anderson,2089990,N/A,N/A,N/A,N/A,N/A,N/A,N/A,N/A,N/A,N/A,N/A,N/A,N/A,N/A,N/A,Shelby County,23.60%,70.70%,N/A,N/A,N/A,N/A,N/A,Eastern Standard Time,85,37,48,64,20,60%,57%,42,63,89,51%,64%,41%,48.23,13.99,10.1,33.32%,32.42%,34.78%,20.6,17,8.3,41.0,75,687,3.8,36.36,IN-54144,39.3942958,-85.6858661
Shelby township (Shelby Cnty),Indiana,2110,1636,Indianapolis-Carmel-Anderson,2089990,N/A,N/A,N/A,$197000,2402,$82,N/A,N/A,N/A,N/A,N/A,N/A,N/A,N/A,N/A,Shelby County,23.60%,70.70%,N/A,N/A,N/A,N/A,N/A,Eastern Standard Time,85,37,48,64,20,60%,57%,42,63,89,51%,64%,41%,48.23,13.99,10.1,35.95%,36.48%,35.78%,20.6,17,8.3,41.0,75,687,3.8,1.29,IN-69282,39.4677846,-85.7703449
Shelbyville,Indiana,19710,1571,Indianapolis-Carmel-Anderson,2089990,$55950,15.98%,35,$206000,1573,$131,51,58.03%,$833,49.66%,754,2102,12.88%,3.28%,66.16%,Shelby County,23.60%,70.70%,0.8%,2.09%,86.88%,8.73%,5.28%,Eastern Standard Time,85,37,48,64,20,60%,57%,42,63,89,51%,64%,41%,48.23,13.99,10.1,35.95%,36.48%,35.78%,20.6,17,8.3,41.0,64,687,3.8,12.55,IN-69318,39.5351523,-85.7793632
Sugar Creek township (Shelby Cnty),Indiana,972,41,Indianapolis-Carmel-Anderson,2089990,N/A,N/A,N/A,N/A,N/A,N/A,N/A,N/A,N/A,N/A,N/A,N/A,N/A,N/A,N/A,Shelby County,23.60%,70.70%,N/A,N/A,N/A,N/A,N/A,Eastern Standard Time,86,38,48,65,22,60%,57%,42,63,90,51%,64%,41%,44.39,12.87,9.2,35.95%,36.48%,35.78%,14.1,10,8.3,41.0,72,735,3.8,23.71,IN-73952,39.5666855,-85.9142385
Union township (Shelby Cnty),Indiana,1086,481,Indianapolis-Carmel-Anderson,2089990,N/A,N/A,N/A,N/A,N/A,N/A,N/A,N/A,N/A,N/A,N/A,N/A,N/A,N/A,N/A,Shelby County,23.60%,70.70%,N/A,N/A,N/A,N/A,N/A,Eastern Standard Time,86,38,48,65,22,60%,57%,42,63,90,51%,64%,41%,46.29,13.6,9.31,37.15%,35.27%,41.44%,20.6,17,8.3,41.0,71,810,3.8,2.26,IN-77642,39.5756281,-85.6679617
Van Buren township (Shelby Cnty),Indiana,1615,2784,Indianapolis-Carmel-Anderson,2089990,N/A,N/A,N/A,N/A,N/A,N/A,N/A,N/A,N/A,N/A,N/A,N/A,N/A,N/A,N/A,Shelby County,23.60%,70.70%,N/A,N/A,N/A,N/A,N/A,Eastern Standard Time,86,38,48,65,22,60%,57%,42,63,90,51%,64%,41%,46.29,13.6,9.31,37.15%,35.27%,41.44%,20.6,17,8.3,41.0,73,810,3.8,0.58,IN-78578,39.6622734,-85.7867413
Waldron,Indiana,816,648,Indianapolis-Carmel-Anderson,2089990,N/A,13.44%,43,N/A,N/A,N/A,62,74.91%,$818,49.18%,N/A,N/A,11.24%,0.0%,63.66%,Shelby County,23.60%,70.70%,0.0%,0.0%,99.63%,0.37%,0.0%,Eastern Standard Time,85,37,48,64,20,60%,57%,42,63,89,51%,64%,41%,48.23,13.99,10.1,35.95%,36.48%,35.78%,20.6,17,8.3,41.0,75,687,3.8,1.26,IN-79568,39.4535543,-85.6629338
Washington township (Shelby Cnty),Indiana,1355,204,Indianapolis-Carmel-Anderson,2089990,N/A,N/A,N/A,$170000,1683,$101,N/A,N/A,N/A,N/A,N/A,N/A,N/A,N/A,N/A,Shelby County,23.60%,70.70%,N/A,N/A,N/A,N/A,N/A,Eastern Standard Time,85,37,48,64,20,60%,57%,42,63,89,51%,64%,41%,48.23,13.99,10.1,35.95%,36.48%,35.78%,14.1,10,8.3,41.0,75,687,3.8,6.63,IN-81044,39.3933737,-85.7949552
