City,State,Population,People per sq mi,Metro Name,Metro population,Median household income,% with at least Bachelor's degree,Median age,Median home price,Median home sqft,Median home cost per sqft,Median home age,Homeownership Rate,Avg Apartment Monthly Rent,Single Population,Num Violent Crimes Per 100k residents,Num Property Crimes Per 100k residents,Poverty Rate,Unemployment rate,Labor Force Participation rate,County,% Democrat,% Republican,% Asian,% Black,% Non-Hispanic White,% Hispanic,Foreign Born %,Timezone,Hottest month's avg high (F),Coldest month's avg high (F),Hottest high minus coldest high,Hottest month's avg low (F),Coldest month's avg low (F),Annual Relative Humidity (afternoon),Summer Relative Humidity (afternoon),Annual dew point (F),Average summer dew point (F),Hottest month's avg heat index high (F),Annual Sunshine - Percentage of Possible,Summer Sunshine - Percentage of Possible,Winter Sunshine - Percentage of Possible,Annual rainfall (in),Summer rainfall (in),Winter rainfall (in),Percent of days that include precipitation,Percent of Summer days that include precipitation,Percent of Winter days that include precipitation,Annual snowfall (in),Days of snow per year,Average yearly windspeed (mph),Number of days with thunder per year,Air quality Index,Elevation (ft),UV Index,Land Area (sq mi),Fips Code,Latitude,Longitude
Centre,Indiana,14461,748,South Bend-Mishawaka,323681,N/A,N/A,N/A,N/A,N/A,N/A,N/A,N/A,N/A,N/A,N/A,N/A,N/A,N/A,N/A,St. Joseph County,46.70%,46.50%,N/A,N/A,N/A,N/A,N/A,Eastern Standard Time,82,32,50,61,15,61%,56%,40,60,84,60%,75%,47%,39.45,11.79,7.71,40.99%,36.81%,46.67%,49.9,36,N/A,41.1,77,807,3.5,19.33,IN-11890,41.5997714,-86.2538817
Clay township (St. Joseph Cnty),Indiana,33205,61491,South Bend-Mishawaka,323681,N/A,N/A,N/A,N/A,N/A,N/A,N/A,N/A,N/A,N/A,N/A,N/A,N/A,N/A,N/A,St. Joseph County,46.70%,46.50%,N/A,N/A,N/A,N/A,N/A,Eastern Standard Time,83,32,51,63,18,61%,56%,40,60,85,60%,75%,47%,43.19,12.96,8.26,41.78%,39.01%,46.11%,64.7,38,N/A,41.1,72,648,3.5,0.54,IN-13222,41.7299422,-86.2219192
German township (St. Joseph Cnty),Indiana,9420,560,South Bend-Mishawaka,323681,N/A,N/A,N/A,N/A,N/A,N/A,N/A,N/A,N/A,N/A,N/A,N/A,N/A,N/A,N/A,St. Joseph County,46.70%,46.50%,N/A,N/A,N/A,N/A,N/A,Eastern Standard Time,83,32,51,63,17,61%,56%,40,60,85,52%,65%,39%,41.76,12.29,8.19,40.96%,33.85%,50.89%,64.7,38,N/A,41.1,72,708,3.5,16.82,IN-27468,41.7295937,-86.3144567
Granger,Indiana,30394,1231,South Bend-Mishawaka,323681,$108252,55.27%,40,$382000,2938,$130,34,95.37%,$1195,34.2%,N/A,N/A,3.83%,4.57%,65.62%,St. Joseph County,46.70%,46.50%,7.42%,2.23%,82.29%,4.35%,8.17%,Eastern Standard Time,83,32,51,63,18,61%,56%,40,60,85,60%,75%,47%,43.19,12.96,8.26,41.78%,39.01%,46.11%,37.8,23,N/A,41.1,76,648,3.5,24.69,IN-28800,41.737503,-86.13497
Greene township (St. Joseph Cnty),Indiana,3230,94,South Bend-Mishawaka,323681,N/A,N/A,N/A,N/A,N/A,N/A,N/A,N/A,N/A,N/A,N/A,N/A,N/A,N/A,N/A,St. Joseph County,46.70%,46.50%,N/A,N/A,N/A,N/A,N/A,Eastern Standard Time,82,32,50,61,15,61%,56%,40,60,84,52%,65%,39%,43.56,13.2,8.61,37.21%,33.41%,41.33%,49.9,36,N/A,41.1,82,699,3.5,34.36,IN-29502,41.5923981,-86.3685168
Harris,Indiana,23693,1128,South Bend-Mishawaka,323681,N/A,N/A,N/A,N/A,N/A,N/A,N/A,N/A,N/A,N/A,N/A,N/A,N/A,N/A,N/A,St. Joseph County,46.70%,46.50%,N/A,N/A,N/A,N/A,N/A,Eastern Standard Time,83,32,51,63,18,61%,56%,40,60,85,60%,75%,47%,43.19,12.96,8.26,41.23%,37.25%,46.11%,37.8,23,N/A,41.1,76,648,3.5,21.0,IN-31558,41.7352309,-86.1203672
Indian Village,Indiana,155,1722,South Bend-Mishawaka,323681,$70250,35.71%,42,N/A,N/A,N/A,61,40.0%,$678,52.25%,N/A,N/A,12.9%,4.76%,61.76%,St. Joseph County,46.70%,46.50%,0.0%,3.87%,60.0%,29.68%,23.87%,Eastern Standard Time,83,32,51,63,18,61%,56%,40,60,85,60%,75%,47%,43.19,12.96,8.26,41.78%,39.01%,46.11%,64.7,38,N/A,41.1,69,648,3.5,0.09,IN-36306,41.7142382,-86.2321889
Lakeville,Indiana,692,1098,South Bend-Mishawaka,323681,$41739,13.5%,37,N/A,N/A,N/A,39,50.72%,$813,49.82%,N/A,N/A,25.29%,1.82%,61.27%,St. Joseph County,46.70%,46.50%,6.21%,0.72%,89.16%,2.46%,5.78%,Eastern Standard Time,82,32,50,61,15,61%,56%,40,60,84,60%,75%,47%,43.2,13.19,8.65,37.21%,33.41%,41.33%,49.9,36,N/A,41.1,81,768,3.5,0.63,IN-41670,41.5287283,-86.2744505
Liberty township (St. Joseph Cnty),Indiana,3860,4488,South Bend-Mishawaka,323681,N/A,N/A,N/A,N/A,N/A,N/A,N/A,N/A,N/A,N/A,N/A,N/A,N/A,N/A,N/A,St. Joseph County,46.70%,46.50%,N/A,N/A,N/A,N/A,N/A,Eastern Standard Time,82,32,50,61,15,61%,56%,40,60,84,52%,65%,39%,43.56,13.2,8.61,40.25%,37.14%,41.89%,49.9,36,N/A,41.1,81,699,3.5,0.86,IN-43380,41.5256629,-86.4040651
Lincoln township (St. Joseph Cnty),Indiana,3061,138,South Bend-Mishawaka,323681,N/A,N/A,N/A,N/A,N/A,N/A,N/A,N/A,N/A,N/A,N/A,N/A,N/A,N/A,N/A,St. Joseph County,46.70%,46.50%,N/A,N/A,N/A,N/A,N/A,Eastern Standard Time,82,32,50,61,15,61%,56%,40,60,84,52%,65%,39%,42.27,13.4,7.67,40.25%,37.14%,41.89%,58.9,28,N/A,41.1,78,681,3.5,22.18,IN-43848,41.4790974,-86.4865734
Madison township (St. Joseph Cnty),Indiana,2022,234,South Bend-Mishawaka,323681,N/A,N/A,N/A,$220000,1486,$148,N/A,N/A,N/A,N/A,N/A,N/A,N/A,N/A,N/A,St. Joseph County,46.70%,46.50%,N/A,N/A,N/A,N/A,N/A,Eastern Standard Time,82,32,50,61,15,61%,56%,40,60,84,60%,75%,47%,40.46,12.37,7.94,46.63%,42.53%,50.11%,49.9,36,N/A,41.1,82,768,3.5,8.63,IN-46098,41.5353624,-86.1283009
Mishawaka,Indiana,50823,2844,South Bend-Mishawaka,323681,$48695,26.94%,34,$178000,1471,$121,45,55.12%,$910,60.03%,N/A,N/A,17.49%,7.14%,69.17%,St. Joseph County,46.70%,46.50%,2.5%,9.45%,76.31%,6.32%,6.18%,Eastern Standard Time,83,32,51,63,18,61%,56%,40,60,85,60%,75%,47%,41.29,12.27,8.16,40.99%,36.81%,46.67%,49.9,36,N/A,41.1,71,798,3.5,17.87,IN-49932,41.6741399,-86.1666088
New Carlisle,Indiana,2039,1009,South Bend-Mishawaka,323681,$61613,24.86%,38,$335000,1914,$175,47,76.15%,$874,46.6%,N/A,N/A,9.29%,2.02%,62.24%,St. Joseph County,46.70%,46.50%,1.96%,0.0%,95.19%,1.23%,2.5%,Eastern Standard Time,83,32,51,63,17,61%,56%,40,60,85,52%,65%,39%,45.59,13.5,8.97,40.16%,34.95%,46.11%,62.1,30,N/A,41.1,81,696,3.5,2.02,IN-52704,41.6982355,-86.4708445
North Liberty,Indiana,1728,1662,South Bend-Mishawaka,323681,$54145,29.77%,38,$137000,1015,$135,62,83.81%,$455,50.0%,N/A,N/A,11.46%,3.07%,56.32%,St. Joseph County,46.70%,46.50%,0.41%,0.58%,95.37%,2.49%,0.41%,Eastern Standard Time,82,32,50,61,15,61%,56%,40,60,84,52%,65%,39%,43.56,13.2,8.61,40.25%,37.14%,41.89%,49.9,36,N/A,41.1,81,699,3.5,1.04,IN-54918,41.532403,-86.4280404
Notre Dame,Indiana,6581,5577,South Bend-Mishawaka,323681,$24000,72.22%,20,$510000,817,$624,27,4.48%,$694,99.54%,N/A,N/A,57.04%,0.62%,42.09%,St. Joseph County,46.70%,46.50%,4.82%,3.24%,74.96%,13.33%,5.67%,Eastern Standard Time,83,32,51,63,18,61%,56%,40,60,85,60%,75%,47%,43.19,12.96,8.26,41.78%,39.01%,46.11%,64.7,38,N/A,41.1,68,648,3.5,1.18,IN-55386,41.7013319,-86.2378543
Olive township (St. Joseph Cnty),Indiana,4748,83,South Bend-Mishawaka,323681,N/A,N/A,N/A,N/A,N/A,N/A,N/A,N/A,N/A,N/A,N/A,N/A,N/A,N/A,N/A,St. Joseph County,46.70%,46.50%,N/A,N/A,N/A,N/A,N/A,Eastern Standard Time,83,32,51,63,17,61%,56%,40,60,85,52%,65%,39%,45.59,13.5,8.97,40.16%,34.95%,46.11%,62.1,30,N/A,41.1,81,696,3.5,57.2,IN-56556,41.6839315,-86.4665207
Osceola,Indiana,2566,1887,South Bend-Mishawaka,323681,$55919,29.08%,40,N/A,N/A,N/A,61,82.76%,$1276,42.14%,N/A,N/A,10.32%,1.17%,67.01%,St. Joseph County,46.70%,46.50%,2.65%,4.17%,78.88%,7.52%,7.64%,Eastern Standard Time,83,32,51,63,18,61%,56%,40,60,85,60%,75%,47%,40.75,12.38,8.21,41.23%,37.25%,46.11%,37.8,23,N/A,41.1,80,678,3.5,1.36,IN-57114,41.6647284,-86.0787753
Penn township (St. Joseph Cnty),Indiana,66603,1062,South Bend-Mishawaka,323681,N/A,N/A,N/A,N/A,N/A,N/A,N/A,N/A,N/A,N/A,N/A,N/A,N/A,N/A,N/A,St. Joseph County,46.70%,46.50%,N/A,N/A,N/A,N/A,N/A,Eastern Standard Time,83,32,51,63,18,61%,56%,40,60,85,60%,75%,47%,39.45,11.79,7.71,40.99%,36.81%,46.67%,49.9,36,N/A,41.1,74,807,3.5,62.71,IN-58734,41.645251,-86.1339332
Portage township (St. Joseph Cnty),Indiana,92960,3638,South Bend-Mishawaka,323681,N/A,N/A,N/A,$262000,1819,$144,N/A,N/A,N/A,N/A,198,1584,N/A,N/A,N/A,St. Joseph County,46.70%,46.50%,N/A,N/A,N/A,N/A,N/A,Eastern Standard Time,83,32,51,63,18,61%,56%,40,60,85,60%,75%,47%,43.19,12.96,8.26,40.96%,33.85%,50.89%,64.7,38,N/A,41.1,67,648,3.5,25.55,IN-61128,41.6699693,-86.2760737
Roseland,Indiana,742,1903,South Bend-Mishawaka,323681,$36125,35.73%,29,$350000,1741,$201,62,38.39%,$1116,76.15%,N/A,N/A,32.08%,6.98%,70.79%,St. Joseph County,46.70%,46.50%,5.12%,4.58%,79.92%,7.28%,5.39%,Eastern Standard Time,83,32,51,63,18,61%,56%,40,60,85,60%,75%,47%,43.51,13.5,8.37,41.78%,39.01%,46.11%,64.7,38,N/A,41.1,64,612,3.5,0.39,IN-65988,41.717607,-86.2505916
South Bend,Indiana,102786,2448,South Bend-Mishawaka,323681,$46002,29.12%,34,$135000,1262,$107,65,58.71%,$862,60.85%,1331,4214,20.94%,5.35%,63.29%,St. Joseph County,46.70%,46.50%,2.03%,25.18%,51.99%,15.8%,8.27%,Eastern Standard Time,83,32,51,63,18,61%,56%,40,60,85,60%,75%,47%,43.19,12.96,8.26,41.78%,39.01%,46.11%,64.7,38,N/A,41.1,68,648,3.5,41.98,IN-71000,41.6766788,-86.2695526
Union township (St. Joseph Cnty),Indiana,3680,1628,South Bend-Mishawaka,323681,N/A,N/A,N/A,N/A,N/A,N/A,N/A,N/A,N/A,N/A,N/A,N/A,N/A,N/A,N/A,St. Joseph County,46.70%,46.50%,N/A,N/A,N/A,N/A,N/A,Eastern Standard Time,82,32,50,61,15,61%,56%,40,60,84,60%,75%,47%,43.2,13.19,8.65,37.21%,33.41%,41.33%,49.9,36,N/A,41.1,81,768,3.5,2.26,IN-77624,41.5202434,-86.2603935
Walkerton,Indiana,2391,1258,South Bend-Mishawaka,323681,$56601,17.32%,32,$83000,1012,$82,55,81.36%,$753,46.76%,N/A,N/A,4.05%,4.48%,64.08%,St. Joseph County,46.70%,46.50%,0.13%,0.0%,95.86%,2.05%,2.09%,Eastern Standard Time,85,32,53,62,18,61%,56%,40,60,88,52%,65%,39%,42.27,13.4,7.67,40.25%,37.14%,41.89%,58.9,28,N/A,41.1,78,681,3.5,1.9,IN-79694,41.4656729,-86.4825314
Warren township (St. Joseph Cnty),Indiana,7670,7102,South Bend-Mishawaka,323681,N/A,N/A,N/A,N/A,N/A,N/A,N/A,N/A,N/A,N/A,N/A,N/A,N/A,N/A,N/A,St. Joseph County,46.70%,46.50%,N/A,N/A,N/A,N/A,N/A,Eastern Standard Time,83,32,51,63,17,61%,56%,40,60,85,52%,65%,39%,41.76,12.29,8.19,40.96%,33.85%,50.89%,64.7,38,N/A,41.1,80,708,3.5,1.08,IN-80180,41.6867949,-86.3843774
