City,State,Population,People per sq mi,Metro Name,Metro population,Median household income,% with at least Bachelor's degree,Median age,Median home price,Median home sqft,Median home cost per sqft,Median home age,Homeownership Rate,Avg Apartment Monthly Rent,Single Population,Num Violent Crimes Per 100k residents,Num Property Crimes Per 100k residents,Poverty Rate,Unemployment rate,Labor Force Participation rate,County,% Democrat,% Republican,% Asian,% Black,% Non-Hispanic White,% Hispanic,Foreign Born %,Timezone,Hottest month's avg high (F),Coldest month's avg high (F),Hottest high minus coldest high,Annual rainfall (in),Annual days of precipitation,Annual snowfall (in),Average yearly windspeed (mph),Air quality Index,Elevation (ft),UV Index,Land Area (sq mi),Fips Code,Latitude,Longitude,Annual Sunshine - Percentage of Possible,Summer Sunshine - Percentage of Possible,Winter Sunshine - Percentage of Possible,Annual Relative Humidity (afternoon),Summer Relative Humidity (afternoon),Number of days with thunder per year,Annual dew point (F),Average summer dew point (F)
Americus,Indiana,234,186,Lafayette-West Lafayette,233278,$81103,28.88%,60,$240000,1237,$194,46,100.0%,$851,6.95%,N/A,N/A,2.99%,0.0%,57.22%,Tippecanoe County,43.10%,48.60%,0.0%,0.0%,93.59%,3.42%,6.41%,Eastern Standard Time,87,35,52,38,120,19,N/A,80,808,3.9,1.26,IN-01396,40.5253967,-86.7475401,51%,64%,41%,60%,57%,41.0,42,63
Battle Ground,Indiana,1796,1761,Lafayette-West Lafayette,233278,$84773,51.32%,31,N/A,N/A,N/A,41,89.03%,$659,38.33%,N/A,N/A,4.84%,2.0%,74.26%,Tippecanoe County,43.10%,48.60%,0.17%,0.17%,94.21%,4.68%,1.67%,Eastern Standard Time,87,35,52,38,118,19,N/A,80,808,3.9,1.02,IN-03718,40.507515,-86.8526732,51%,64%,41%,60%,57%,41.0,42,63
Buck Creek,Indiana,257,2142,Lafayette-West Lafayette,233278,$77073,6.45%,56,N/A,N/A,N/A,78,100.0%,N/A,51.36%,N/A,N/A,0.0%,0.0%,75.1%,Tippecanoe County,43.10%,48.60%,0.0%,0.0%,90.27%,0.0%,0.0%,Eastern Standard Time,87,35,52,38,117,19,N/A,80,808,3.9,0.12,IN-08812,40.4874504,-86.7621905,51%,64%,41%,60%,57%,41.0,42,63
Clarks Hill,Indiana,774,2867,Lafayette-West Lafayette,233278,$27482,4.4%,41,N/A,N/A,N/A,70,64.34%,$581,53.13%,N/A,N/A,15.28%,7.02%,60.0%,Tippecanoe County,43.10%,48.60%,0.0%,0.0%,94.96%,1.16%,0.9%,Eastern Standard Time,83,33,50,41,122,19,8.3,82,808,3.9,0.27,IN-12898,40.2472059,-86.7244123,51%,64%,41%,60%,57%,41.0,42,63
Colburn,Indiana,162,1620,Lafayette-West Lafayette,233278,$30495,11.81%,45,N/A,N/A,N/A,62,100.0%,$851,84.03%,N/A,N/A,0.0%,0.0%,50.69%,Tippecanoe County,43.10%,48.60%,0.0%,0.0%,100.0%,0.0%,0.0%,Eastern Standard Time,87,35,52,38,120,19,N/A,80,808,3.9,0.1,IN-14176,40.5187774,-86.7121918,51%,64%,41%,60%,57%,41.0,42,63
Dayton,Indiana,1359,1192,Lafayette-West Lafayette,233278,$61250,13.33%,38,$219000,1647,$133,38,80.25%,$787,40.9%,N/A,N/A,9.23%,2.73%,69.52%,Tippecanoe County,43.10%,48.60%,0.0%,1.55%,91.61%,6.4%,1.77%,Eastern Standard Time,86,35,51,38,120,19,8.3,80,808,3.9,1.14,IN-17002,40.3751247,-86.7738954,51%,64%,41%,60%,57%,41.0,42,63
Fairfield township (Tippecanoe Cnty),Indiana,53213,1930,Lafayette-West Lafayette,233278,$38591,N/A,N/A,N/A,N/A,N/A,55,43.20%,N/A,57.90%,N/A,N/A,N/A,3.40%,N/A,Tippecanoe County,43.10%,48.60%,1.6%,8.2%,77.9%,10.0%,N/A,Eastern Standard Time,86,35,51,38,120,19,N/A,65,808,3.9,27.57,IN-22342,40.4279618,-86.8558768,51%,64%,41%,60%,57%,41.0,42,63
Jackson township (Tippecanoe Cnty),Indiana,489,12,Lafayette-West Lafayette,233278,$54500,N/A,N/A,N/A,N/A,N/A,63,75.50%,N/A,45.90%,N/A,N/A,N/A,3.40%,N/A,Tippecanoe County,43.10%,48.60%,0.0%,0.0%,100.0%,0.0%,N/A,Eastern Standard Time,85,33,52,38,116,20,N/A,82,808,3.9,40.75,IN-37494,40.258042,-87.0269584,51%,64%,41%,60%,57%,41.0,42,63
Lafayette,Indiana,72556,2470,Lafayette-West Lafayette,233278,$46925,27.67%,33,$181000,1414,$128,49,52.03%,$853,57.08%,N/A,N/A,16.81%,5.01%,68.59%,Tippecanoe County,43.10%,48.60%,1.73%,9.35%,73.35%,13.07%,8.21%,Eastern Standard Time,87,35,52,38,120,19,N/A,67,808,3.9,29.38,IN-40788,40.39904,-86.859284,51%,64%,41%,60%,57%,41.0,42,63
Lauramie,Indiana,2914,54,Lafayette-West Lafayette,233278,$66330,29.60%,N/A,N/A,N/A,N/A,42,75.60%,N/A,38.70%,N/A,N/A,N/A,3.40%,N/A,Tippecanoe County,43.10%,48.60%,0.0%,0.0%,97.3%,1.8%,N/A,Eastern Standard Time,85,34,51,39,121,20,8.3,82,808,3.9,53.96,IN-42354,40.2580075,-86.7807236,51%,64%,41%,60%,57%,41.0,42,63
Montmorenci,Indiana,236,193,Lafayette-West Lafayette,233278,$68125,47.18%,35,N/A,N/A,N/A,42,70.34%,$1225,20.96%,N/A,N/A,20.34%,0.0%,66.47%,Tippecanoe County,43.10%,48.60%,0.0%,0.0%,89.83%,5.51%,4.66%,Eastern Standard Time,86,35,51,38,120,19,N/A,81,808,3.9,1.22,IN-50778,40.4716792,-87.0361309,51%,64%,41%,60%,57%,41.0,42,63
Perry township (Tippecanoe Cnty),Indiana,8048,223,Lafayette-West Lafayette,233278,$69805,N/A,N/A,N/A,N/A,N/A,21,78.20%,N/A,36.40%,N/A,N/A,N/A,3.40%,N/A,Tippecanoe County,43.10%,48.60%,1.7%,2.0%,89.8%,4.8%,N/A,Eastern Standard Time,87,35,52,38,120,19,8.3,78,808,3.9,36.09,IN-59148,40.4317956,-86.7523888,51%,64%,41%,60%,57%,41.0,42,63
Randolph township (Tippecanoe Cnty),Indiana,956,32,Lafayette-West Lafayette,233278,$86250,N/A,N/A,N/A,N/A,N/A,24,85.90%,N/A,32.20%,N/A,N/A,N/A,3.40%,N/A,Tippecanoe County,43.10%,48.60%,0.0%,0.0%,92.8%,0.0%,N/A,Eastern Standard Time,85,33,52,38,117,21,8.3,82,808,3.9,29.88,IN-62964,40.2582602,-86.9136979,51%,64%,41%,60%,57%,41.0,42,63
Shadeland,Indiana,2260,83,Lafayette-West Lafayette,233278,$64537,27.56%,38,$285000,1454,$196,34,67.48%,$846,49.26%,N/A,N/A,17.83%,3.08%,60.02%,Tippecanoe County,43.10%,48.60%,0.49%,2.04%,93.19%,1.5%,1.55%,Eastern Standard Time,86,35,51,38,120,20,N/A,81,808,3.9,27.11,IN-68868,40.350884,-86.9622332,51%,64%,41%,60%,57%,41.0,42,63
Sheffield,Indiana,4350,120,Lafayette-West Lafayette,233278,$71635,26.43%,N/A,N/A,N/A,N/A,33,85.70%,N/A,35.30%,N/A,N/A,N/A,3.40%,N/A,Tippecanoe County,43.10%,48.60%,0.2%,0.1%,94.8%,2.8%,N/A,Eastern Standard Time,86,35,51,38,120,19,8.3,80,808,3.9,36.25,IN-69174,40.345084,-86.7521068,51%,64%,41%,60%,57%,41.0,42,63
Shelby township (Tippecanoe Cnty),Indiana,2618,2029,Lafayette-West Lafayette,233278,$70774,N/A,N/A,N/A,N/A,N/A,45,82.20%,N/A,33.40%,N/A,N/A,N/A,3.40%,N/A,Tippecanoe County,43.10%,48.60%,0.0%,1.7%,96.0%,1.2%,N/A,Eastern Standard Time,86,35,51,38,119,19,N/A,81,808,3.9,1.29,IN-69300,40.4825427,-87.048641,51%,64%,41%,60%,57%,41.0,42,63
Stockwell,Indiana,207,84,Lafayette-West Lafayette,233278,$56357,0.0%,48,N/A,N/A,N/A,65,85.02%,N/A,50.79%,N/A,N/A,14.98%,0.0%,84.27%,Tippecanoe County,43.10%,48.60%,0.0%,0.0%,100.0%,0.0%,0.0%,Eastern Standard Time,85,34,51,39,122,20,8.3,82,808,3.9,2.47,IN-73340,40.2818469,-86.7688712,51%,64%,41%,60%,57%,41.0,42,63
Tippecanoe township (Tippecanoe Cnty),Indiana,8351,174,Lafayette-West Lafayette,233278,$66617,N/A,N/A,N/A,N/A,N/A,24,78.80%,N/A,37.10%,N/A,N/A,N/A,3.40%,N/A,Tippecanoe County,43.10%,48.60%,4.6%,0.0%,90.8%,2.3%,N/A,Eastern Standard Time,87,35,52,38,119,19,N/A,80,808,3.9,47.99,IN-75914,40.5269293,-86.8518465,51%,64%,41%,60%,57%,41.0,42,63
Union township (Tippecanoe Cnty),Indiana,1841,815,Lafayette-West Lafayette,233278,$58125,N/A,N/A,N/A,N/A,N/A,39,70.70%,N/A,41.20%,N/A,N/A,N/A,3.40%,N/A,Tippecanoe County,43.10%,48.60%,0.5%,0.0%,96.6%,2.3%,N/A,Eastern Standard Time,86,35,51,38,120,20,N/A,81,808,3.9,2.26,IN-77660,40.3509193,-86.9622043,51%,64%,41%,60%,57%,41.0,42,63
Wabash township (Tippecanoe Cnty),Indiana,64874,6730,Lafayette-West Lafayette,233278,$32089,N/A,N/A,$80000,1818,$44,30,35.60%,N/A,73.00%,N/A,N/A,N/A,3.40%,N/A,Tippecanoe County,43.10%,48.60%,20.1%,2.7%,68.8%,5.8%,N/A,Eastern Standard Time,86,35,51,38,120,19,N/A,67,808,3.9,9.64,IN-79352,40.4713377,-86.9550625,51%,64%,41%,60%,57%,41.0,42,63
Washington township (Tippecanoe Cnty),Indiana,2723,411,Lafayette-West Lafayette,233278,$51702,N/A,N/A,$145000,1160,$125,44,86.50%,N/A,37.50%,N/A,N/A,N/A,3.40%,N/A,Tippecanoe County,43.10%,48.60%,0.8%,0.0%,95.9%,2.2%,N/A,Eastern Standard Time,87,35,52,38,119,19,N/A,80,808,3.9,6.63,IN-81080,40.5058378,-86.7487645,51%,64%,41%,60%,57%,41.0,42,63
Wayne township (Tippecanoe Cnty),Indiana,1892,55,Lafayette-West Lafayette,233278,$58393,N/A,N/A,N/A,N/A,N/A,34,74.70%,N/A,44.40%,N/A,N/A,N/A,3.40%,N/A,Tippecanoe County,43.10%,48.60%,1.7%,0.0%,87.1%,11.2%,N/A,Eastern Standard Time,85,33,52,38,117,21,N/A,81,808,3.9,34.4,IN-81926,40.3530759,-87.0432834,51%,64%,41%,60%,57%,41.0,42,63
Wea,Indiana,33812,938,Lafayette-West Lafayette,233278,$54677,29.09%,N/A,N/A,N/A,N/A,25,63.10%,N/A,48.20%,N/A,N/A,N/A,3.40%,N/A,Tippecanoe County,43.10%,48.60%,1.2%,6.9%,75.6%,14.7%,N/A,Eastern Standard Time,86,35,51,38,120,20,N/A,73,808,3.9,36.05,IN-82070,40.3447547,-86.8663959,51%,64%,41%,60%,57%,41.0,42,63
West Lafayette,Indiana,49668,3657,Lafayette-West Lafayette,233278,$31460,70.97%,22,$320000,2286,$140,33,41.37%,$915,77.46%,N/A,N/A,35.46%,3.97%,49.09%,Tippecanoe County,43.10%,48.60%,21.98%,4.08%,66.12%,4.44%,22.64%,Eastern Standard Time,86,35,51,38,120,19,N/A,62,808,3.9,13.58,IN-82862,40.4432286,-86.9238188,51%,64%,41%,60%,57%,41.0,42,63
West Point,Indiana,98,35,Lafayette-West Lafayette,233278,$49449,0.0%,43,N/A,N/A,N/A,59,100.0%,N/A,36.36%,N/A,N/A,51.02%,0.0%,13.43%,Tippecanoe County,43.10%,48.60%,0.0%,0.0%,100.0%,0.0%,0.0%,Eastern Standard Time,84,33,51,38,116,21,N/A,81,808,3.9,2.77,IN-83222,40.3477575,-87.0378368,51%,64%,41%,60%,57%,41.0,42,63
