City,State,Population,People per sq mi,Metro Name,Metro population,Median household income,% with at least Bachelor's degree,Median age,Median home price,Median home sqft,Median home cost per sqft,Median home age,Homeownership Rate,Avg Apartment Monthly Rent,Single Population,Num Violent Crimes Per 100k residents,Num Property Crimes Per 100k residents,Poverty Rate,Unemployment rate,Labor Force Participation rate,County,% Democrat,% Republican,% Asian,% Black,% Non-Hispanic White,% Hispanic,Foreign Born %,Timezone,Hottest month's avg high (F),Coldest month's avg high (F),Hottest high minus coldest high,Annual rainfall (in),Annual days of precipitation,Annual snowfall (in),Average yearly windspeed (mph),Air quality Index,Elevation (ft),UV Index,Land Area (sq mi),Fips Code,Latitude,Longitude,Annual Sunshine - Percentage of Possible,Summer Sunshine - Percentage of Possible,Winter Sunshine - Percentage of Possible,Annual Relative Humidity (afternoon),Summer Relative Humidity (afternoon)
Chester township (Wabasha Cnty),Minnesota,473,13,Rochester,223062,$83333,N/A,N/A,N/A,N/A,N/A,45,73.50%,N/A,41.50%,N/A,N/A,N/A,3.10%,N/A,Wabasha County,32.70%,59.10%,0.0%,0.0%,100.0%,0.0%,N/A,Central Standard Time,83,24,59,34,95,44,N/A,82,1006,3.4,36.38,MN-11242,44.3249057,-92.4908777,N/A,N/A,N/A,64%,60%
Elgin,Minnesota,1189,1292,Rochester,223062,$69167,22.01%,32,N/A,N/A,N/A,42,80.91%,$627,41.74%,N/A,N/A,3.82%,3.37%,84.7%,Wabasha County,32.70%,59.10%,0.0%,0.0%,93.36%,4.96%,0.0%,Central Standard Time,83,24,59,34,106,46,9,84,1006,3.4,0.92,MN-18530,44.1307812,-92.2544292,N/A,N/A,N/A,64%,60%
Elgin township,Minnesota,1189,1292,Rochester,223062,$69167,22.01%,32,N/A,N/A,N/A,42,80.91%,$627,41.74%,N/A,N/A,3.82%,3.37%,84.7%,Wabasha County,32.70%,59.10%,0.0%,0.0%,93.36%,4.96%,0.0%,Central Standard Time,83,24,59,34,106,46,N/A,84,1006,3.4,0.92,MN-18530,44.1307812,-92.2544292,N/A,N/A,N/A,64%,60%
Gillford,Minnesota,532,15,Rochester,223062,$72143,21.35%,N/A,N/A,N/A,N/A,47,82.10%,N/A,25.70%,N/A,N/A,N/A,3.10%,N/A,Wabasha County,32.70%,59.10%,0.4%,0.0%,99.2%,0.2%,N/A,Central Standard Time,83,24,59,34,91,43,N/A,82,1006,3.4,35.47,MN-23786,44.3249671,-92.3697693,N/A,N/A,N/A,64%,60%
Glasgow,Minnesota,165,5,Rochester,223062,$62500,N/A,N/A,N/A,N/A,N/A,34,92.40%,N/A,29.60%,N/A,N/A,N/A,3.10%,N/A,Wabasha County,32.70%,59.10%,0.0%,0.0%,98.8%,0.0%,N/A,Central Standard Time,83,25,58,34,97,38,N/A,82,1006,3.4,33.0,MN-23894,44.3231997,-92.1294613,N/A,N/A,N/A,64%,60%
Greenfield township,Minnesota,1346,66,Rochester,223062,$69145,N/A,N/A,$899000,3730,$241,30,56.20%,N/A,30.00%,N/A,N/A,N/A,3.10%,N/A,Wabasha County,32.70%,59.10%,0.4%,0.0%,96.8%,1.8%,N/A,Central Standard Time,83,25,58,34,97,38,N/A,82,1006,3.4,20.37,MN-25640,44.3172859,-91.9955271,N/A,N/A,N/A,64%,60%
Hammond,Minnesota,109,681,Rochester,223062,$76563,6.38%,50,N/A,N/A,N/A,78,83.49%,$539,39.42%,N/A,N/A,4.59%,0.0%,69.7%,Wabasha County,32.70%,59.10%,0.0%,0.0%,100.0%,0.0%,0.0%,Central Standard Time,83,24,59,34,96,44,9,82,1006,3.4,0.16,MN-26828,44.2226237,-92.3743538,N/A,N/A,N/A,64%,60%
Highland,Minnesota,481,13,Rochester,223062,$65625,15.76%,N/A,N/A,N/A,N/A,36,86.70%,N/A,30.60%,N/A,N/A,N/A,3.10%,N/A,Wabasha County,32.70%,59.10%,1.0%,0.0%,99.0%,0.0%,N/A,Central Standard Time,83,25,58,34,102,42,9,83,1006,3.4,37.0,MN-28952,44.2366099,-92.1297118,N/A,N/A,N/A,64%,60%
Hyde Park,Minnesota,266,17,Rochester,223062,$46875,N/A,N/A,N/A,N/A,N/A,34,90.70%,N/A,38.10%,N/A,N/A,N/A,3.10%,N/A,Wabasha County,32.70%,59.10%,0.0%,0.0%,100.0%,0.0%,N/A,Central Standard Time,83,24,59,34,96,44,N/A,82,1006,3.4,15.65,MN-30680,44.2577567,-92.3593479,N/A,N/A,N/A,64%,60%
Kellogg,Minnesota,432,1394,Rochester,223062,$54423,13.46%,42,N/A,N/A,N/A,62,95.14%,$709,39.78%,N/A,N/A,7.98%,1.53%,72.98%,Wabasha County,32.70%,59.10%,0.93%,0.0%,93.98%,0.0%,0.69%,Central Standard Time,83,25,58,35,98,38,8,83,1006,3.4,0.31,MN-32642,44.3074113,-91.9989167,N/A,N/A,N/A,64%,60%
Lake township (Wabasha Cnty),Minnesota,5050,1127,Rochester,223062,$60481,29.08%,49,$355000,2178,$163,43,71.72%,$886,49.47%,77,1128,9.27%,3.87%,60.04%,Wabasha County,32.70%,59.10%,3.11%,1.62%,90.3%,4.3%,4.71%,Central Standard Time,83,25,58,33,88,42,N/A,83,1006,3.4,4.48,MN-34172,44.445196,-92.2795654,N/A,N/A,N/A,64%,60%
Mazeppa,Minnesota,935,866,Rochester,223062,$73529,18.7%,45,$334000,2369,$141,43,76.58%,$850,46.96%,N/A,N/A,17.02%,2.71%,69.82%,Wabasha County,32.70%,59.10%,0.11%,0.0%,99.14%,0.86%,0.53%,Central Standard Time,83,24,59,34,96,44,9,82,1006,3.4,1.08,MN-41282,44.2736892,-92.5402463,N/A,N/A,N/A,64%,60%
Mazeppa township,Minnesota,935,866,Rochester,223062,$73529,18.7%,45,$334000,2369,$141,43,76.58%,$850,46.96%,N/A,N/A,17.02%,2.71%,69.82%,Wabasha County,32.70%,59.10%,0.11%,0.0%,99.14%,0.86%,0.53%,Central Standard Time,82,24,58,34,96,44,N/A,82,1006,3.4,1.08,MN-41282,44.2736892,-92.5402463,N/A,N/A,N/A,64%,60%
Millville,Minnesota,267,1780,Rochester,223062,$56071,12.58%,35,N/A,N/A,N/A,69,79.03%,$525,46.73%,N/A,N/A,2.25%,0.0%,58.29%,Wabasha County,32.70%,59.10%,0.75%,0.0%,73.78%,25.47%,1.12%,Central Standard Time,83,24,59,34,96,44,8,84,1006,3.4,0.15,MN-42290,44.2445404,-92.2959819,N/A,N/A,N/A,64%,60%
Minneiska,Minnesota,97,187,Rochester,223062,$73250,28.92%,54,N/A,N/A,N/A,48,77.32%,N/A,21.69%,N/A,N/A,7.22%,3.28%,73.49%,Wabasha County,32.70%,59.10%,0.0%,0.0%,100.0%,0.0%,17.53%,Central Standard Time,83,25,58,34,104,37,8,83,1006,3.3,0.52,MN-43036,44.197282,-91.8757369,52%,64%,45%,64%,60%
Minneiska township,Minnesota,97,187,Rochester,223062,$73250,28.92%,54,N/A,N/A,N/A,48,77.32%,N/A,21.69%,N/A,N/A,7.22%,3.28%,73.49%,Wabasha County,32.70%,59.10%,0.0%,0.0%,100.0%,0.0%,17.53%,Central Standard Time,83,25,58,34,101,38,N/A,83,1006,3.4,0.52,MN-43036,44.197282,-91.8757369,52%,64%,45%,64%,60%
Mount Pleasant,Minnesota,433,12,Rochester,223062,$91389,19.43%,N/A,N/A,N/A,N/A,46,85.40%,N/A,27.00%,N/A,N/A,N/A,3.10%,N/A,Wabasha County,32.70%,59.10%,0.0%,0.0%,100.0%,0.0%,N/A,Central Standard Time,83,25,58,33,88,42,N/A,82,1006,3.4,36.08,MN-44620,44.4114968,-92.3699981,N/A,N/A,N/A,64%,60%
Oakwood,Minnesota,357,10,Rochester,223062,$75714,15.97%,N/A,N/A,N/A,N/A,36,85.50%,N/A,32.40%,N/A,N/A,N/A,3.10%,N/A,Wabasha County,32.70%,59.10%,0.0%,0.0%,100.0%,0.0%,N/A,Central Standard Time,83,24,59,34,99,44,N/A,84,1006,3.4,35.7,MN-48022,44.2370973,-92.2499839,N/A,N/A,N/A,64%,60%
Pepin,Minnesota,317,18,Rochester,223062,$55000,28.17%,N/A,N/A,N/A,N/A,34,77.70%,N/A,31.30%,N/A,N/A,N/A,3.10%,N/A,Wabasha County,32.70%,59.10%,0.0%,0.6%,98.1%,0.0%,N/A,Central Standard Time,83,25,58,34,93,39,N/A,82,1006,3.4,17.61,MN-50362,44.3948502,-92.1350168,N/A,N/A,N/A,64%,60%
Plainview,Minnesota,3292,1538,Rochester,223062,$58534,26.79%,36,$290000,2358,$123,30,80.44%,$619,38.53%,N/A,N/A,11.82%,3.71%,72.04%,Wabasha County,32.70%,59.10%,0.0%,0.15%,91.62%,6.35%,2.67%,Central Standard Time,83,24,59,34,105,46,9,77,1006,3.4,2.14,MN-51424,44.1648692,-92.1697231,N/A,N/A,N/A,64%,60%
Plainview township,Minnesota,3292,1538,Rochester,223062,$58534,26.79%,36,$290000,2358,$123,30,80.44%,$619,38.53%,N/A,N/A,11.82%,3.71%,72.04%,Wabasha County,32.70%,59.10%,0.0%,0.15%,91.62%,6.35%,2.67%,Central Standard Time,83,24,59,34,105,46,N/A,81,1006,3.4,2.14,MN-51424,44.1648692,-92.1697231,N/A,N/A,N/A,64%,60%
Zumbro,Minnesota,651,21,Rochester,223062,$82344,18.78%,N/A,N/A,N/A,N/A,37,69.50%,N/A,27.20%,N/A,N/A,N/A,3.10%,N/A,Wabasha County,32.70%,59.10%,1.4%,0.0%,93.4%,1.7%,N/A,Central Standard Time,83,24,59,34,97,45,N/A,82,1006,3.4,31.0,MN-72292,44.2258535,-92.4088436,N/A,N/A,N/A,64%,60%
Zumbro Falls,Minnesota,223,378,Rochester,223062,$68750,15.22%,34,$97000,1764,$55,71,88.34%,$900,51.12%,N/A,N/A,0.9%,23.4%,79.21%,Wabasha County,32.70%,59.10%,0.0%,5.83%,73.99%,2.69%,0.9%,Central Standard Time,83,24,59,34,96,44,8,82,1006,3.4,0.59,MN-72310,44.2845381,-92.4262891,N/A,N/A,N/A,64%,60%
