City,State,Population,People per sq mi,Metro Name,Metro population,Median household income,% with at least Bachelor's degree,Median age,Median home price,Median home sqft,Median home cost per sqft,Median home age,Homeownership Rate,Avg Apartment Monthly Rent,Single Population,Num Violent Crimes Per 100k residents,Num Property Crimes Per 100k residents,Poverty Rate,Unemployment rate,Labor Force Participation rate,County,% Democrat,% Republican,% Asian,% Black,% Non-Hispanic White,% Hispanic,Foreign Born %,Timezone,Hottest month's avg high (F),Coldest month's avg high (F),Hottest high minus coldest high,Hottest month's avg low (F),Coldest month's avg low (F),Annual Relative Humidity (afternoon),Summer Relative Humidity (afternoon),Annual dew point (F),Average summer dew point (F),Hottest month's avg heat index high (F),Annual Sunshine - Percentage of Possible,Summer Sunshine - Percentage of Possible,Winter Sunshine - Percentage of Possible,Annual rainfall (in),Summer rainfall (in),Winter rainfall (in),Percent of days that include precipitation,Percent of Summer days that include precipitation,Percent of Winter days that include precipitation,Annual snowfall (in),Days of snow per year,Average yearly windspeed (mph),Number of days with thunder per year,Air quality Index,Elevation (ft),UV Index,Land Area (sq mi),Fips Code,Latitude,Longitude
Chester township (Wabasha Cnty),Minnesota,473,13,Rochester,224330,N/A,N/A,N/A,N/A,N/A,N/A,N/A,N/A,N/A,N/A,N/A,N/A,N/A,N/A,N/A,Wabasha County,32.70%,59.10%,N/A,N/A,N/A,N/A,N/A,Central Standard Time,82,23,59,61,5,64%,60%,35,58,84,N/A,N/A,N/A,35.79,14.15,3.79,28.58%,32.97%,22.0%,53.5,20,8.5,40.7,82,888,3.4,36.38,MN-11242,44.3249057,-92.4908777
Elgin,Minnesota,1189,1292,Rochester,224330,$69167,22.01%,32,$280000,1273,$220,42,80.91%,$627,41.74%,N/A,N/A,3.82%,3.37%,84.7%,Wabasha County,32.70%,59.10%,0.0%,0.0%,93.36%,4.96%,0.0%,Central Standard Time,84,24,60,61,5,64%,60%,35,58,88,N/A,N/A,N/A,35.55,13.37,3.41,35.56%,38.02%,28.22%,53.5,20,8.5,40.7,84,1014,3.4,0.92,MN-18530,44.1307812,-92.2544292
Elgin township,Minnesota,1189,1292,Rochester,224330,$69167,22.01%,32,$280000,1273,$220,42,80.91%,$627,41.74%,N/A,N/A,3.82%,3.37%,84.7%,Wabasha County,32.70%,59.10%,0.0%,0.0%,93.36%,4.96%,0.0%,Central Standard Time,84,24,60,61,5,64%,60%,35,58,88,N/A,N/A,N/A,35.55,13.37,3.41,35.56%,38.02%,28.22%,53.5,20,8.5,40.7,84,1014,3.4,0.92,MN-18530,44.1307812,-92.2544292
Gillford,Minnesota,532,15,Rochester,224330,N/A,N/A,N/A,N/A,N/A,N/A,N/A,N/A,N/A,N/A,N/A,N/A,N/A,N/A,N/A,Wabasha County,32.70%,59.10%,N/A,N/A,N/A,N/A,N/A,Central Standard Time,84,24,60,61,5,64%,60%,35,58,88,N/A,N/A,N/A,36.5,14.56,3.94,25.67%,29.56%,22.22%,53.5,20,8.5,40.7,82,639,3.4,35.47,MN-23786,44.3249671,-92.3697693
Glasgow,Minnesota,165,5,Rochester,224330,N/A,N/A,N/A,N/A,N/A,N/A,N/A,N/A,N/A,N/A,N/A,N/A,N/A,N/A,N/A,Wabasha County,32.70%,59.10%,N/A,N/A,N/A,N/A,N/A,Central Standard Time,84,24,60,61,5,64%,60%,35,58,88,N/A,N/A,N/A,37.33,14.67,3.98,25.67%,29.56%,22.22%,53.5,20,8.5,40.7,82,690,3.4,33.0,MN-23894,44.3231997,-92.1294613
Greenfield township,Minnesota,1346,66,Rochester,224330,N/A,N/A,N/A,$318000,1656,$192,N/A,N/A,N/A,N/A,N/A,N/A,N/A,N/A,N/A,Wabasha County,32.70%,59.10%,N/A,N/A,N/A,N/A,N/A,Central Standard Time,82,24,58,63,9,64%,60%,35,58,84,N/A,N/A,N/A,37.53,15.23,3.47,32.52%,37.36%,27.78%,40.4,18,8.5,40.7,82,612,3.4,20.37,MN-25640,44.3172859,-91.9955271
Hammond,Minnesota,109,681,Rochester,224330,$76563,6.38%,50,N/A,N/A,N/A,N/A,83.49%,$539,39.42%,N/A,N/A,4.59%,0.0%,69.7%,Wabasha County,32.70%,59.10%,0.0%,0.0%,100.0%,0.0%,0.0%,Central Standard Time,84,24,60,61,5,64%,60%,35,58,88,N/A,N/A,N/A,37.33,14.67,3.98,25.67%,29.56%,22.22%,53.5,20,8.5,40.7,82,690,3.4,0.16,MN-26828,44.2226237,-92.3743538
Highland,Minnesota,481,13,Rochester,224330,N/A,N/A,N/A,N/A,N/A,N/A,N/A,N/A,N/A,N/A,N/A,N/A,N/A,N/A,N/A,Wabasha County,32.70%,59.10%,N/A,N/A,N/A,N/A,N/A,Central Standard Time,84,24,60,61,5,64%,60%,35,58,88,N/A,N/A,N/A,37.33,14.67,3.98,25.67%,29.56%,22.22%,53.5,20,8.5,40.7,83,690,3.4,37.0,MN-28952,44.2366099,-92.1297118
Hyde Park,Minnesota,266,17,Rochester,224330,N/A,N/A,N/A,N/A,N/A,N/A,N/A,N/A,N/A,N/A,N/A,N/A,N/A,N/A,N/A,Wabasha County,32.70%,59.10%,N/A,N/A,N/A,N/A,N/A,Central Standard Time,84,24,60,61,5,64%,60%,35,58,88,N/A,N/A,N/A,37.33,14.67,3.98,25.67%,29.56%,22.22%,53.5,20,8.5,40.7,82,690,3.4,15.65,MN-30680,44.2577567,-92.3593479
Kellogg,Minnesota,432,1394,Rochester,224330,$54423,13.46%,42,$232000,1856,$125,62,95.14%,$709,39.78%,N/A,N/A,7.98%,1.53%,72.98%,Wabasha County,32.70%,59.10%,0.93%,0.0%,93.98%,0.0%,0.69%,Central Standard Time,82,24,58,63,9,64%,60%,35,58,84,N/A,N/A,N/A,37.53,15.23,3.47,32.52%,37.36%,27.78%,40.4,18,8.5,40.7,83,612,3.4,0.31,MN-32642,44.3074113,-91.9989167
Lake township (Wabasha Cnty),Minnesota,5050,1127,Rochester,224330,$60481,29.08%,49,$335000,1925,$174,43,71.72%,$886,49.47%,77,1128,9.27%,3.87%,60.04%,Wabasha County,32.70%,59.10%,3.11%,1.62%,90.3%,4.3%,4.71%,Central Standard Time,84,24,60,61,5,64%,60%,35,58,88,N/A,N/A,N/A,36.5,14.56,3.94,25.67%,29.56%,22.22%,53.5,20,8.5,40.7,83,639,3.4,4.48,MN-34172,44.445196,-92.2795654
Mazeppa,Minnesota,935,866,Rochester,224330,$73529,18.7%,45,N/A,N/A,N/A,43,76.58%,$850,46.96%,N/A,N/A,17.02%,2.71%,69.82%,Wabasha County,32.70%,59.10%,0.11%,0.0%,99.14%,0.86%,0.53%,Central Standard Time,82,23,59,61,5,64%,60%,35,58,84,N/A,N/A,N/A,35.79,14.15,3.79,28.58%,32.97%,22.0%,53.5,20,8.5,40.7,82,888,3.4,1.08,MN-41282,44.2736892,-92.5402463
Mazeppa township,Minnesota,935,866,Rochester,224330,$73529,18.7%,45,N/A,N/A,N/A,43,76.58%,$850,46.96%,N/A,N/A,17.02%,2.71%,69.82%,Wabasha County,32.70%,59.10%,0.11%,0.0%,99.14%,0.86%,0.53%,Central Standard Time,82,23,59,61,5,64%,60%,35,58,84,N/A,N/A,N/A,35.79,14.15,3.79,28.58%,32.97%,22.0%,53.5,20,8.5,40.7,82,888,3.4,1.08,MN-41282,44.2736892,-92.5402463
Millville,Minnesota,267,1780,Rochester,224330,$56071,12.58%,35,$435000,3000,$145,69,79.03%,$525,46.73%,N/A,N/A,2.25%,0.0%,58.29%,Wabasha County,32.70%,59.10%,0.75%,0.0%,73.78%,25.47%,1.12%,Central Standard Time,84,24,60,61,5,64%,60%,35,58,88,N/A,N/A,N/A,37.33,14.67,3.98,25.67%,29.56%,22.22%,53.5,20,8.5,40.7,84,690,3.4,0.15,MN-42290,44.2445404,-92.2959819
Minneiska,Minnesota,97,187,Rochester,224330,$73250,28.92%,54,N/A,N/A,N/A,48,77.32%,N/A,21.69%,N/A,N/A,7.22%,3.28%,73.49%,Wabasha County,32.70%,59.10%,0.0%,0.0%,100.0%,0.0%,17.53%,Central Standard Time,85,25,60,66,9,64%,60%,35,58,89,52%,64%,45%,36.83,13.81,3.77,32.93%,33.63%,29.0%,41.4,20,8.5,40.7,83,612,3.3,0.52,MN-43036,44.197282,-91.8757369
Minneiska township,Minnesota,97,187,Rochester,224330,$73250,28.92%,54,N/A,N/A,N/A,48,77.32%,N/A,21.69%,N/A,N/A,7.22%,3.28%,73.49%,Wabasha County,32.70%,59.10%,0.0%,0.0%,100.0%,0.0%,17.53%,Central Standard Time,85,25,60,66,9,64%,60%,35,58,89,52%,64%,45%,36.83,13.81,3.77,32.93%,33.63%,29.0%,41.4,20,8.5,40.7,83,612,3.4,0.52,MN-43036,44.197282,-91.8757369
Mount Pleasant,Minnesota,433,12,Rochester,224330,N/A,N/A,N/A,N/A,N/A,N/A,N/A,N/A,N/A,N/A,N/A,N/A,N/A,N/A,N/A,Wabasha County,32.70%,59.10%,N/A,N/A,N/A,N/A,N/A,Central Standard Time,84,24,60,61,5,64%,60%,35,58,88,N/A,N/A,N/A,36.5,14.56,3.94,25.67%,29.56%,22.22%,53.5,20,8.5,40.7,82,639,3.4,36.08,MN-44620,44.4114968,-92.3699981
Oakwood,Minnesota,357,10,Rochester,224330,N/A,N/A,N/A,N/A,N/A,N/A,N/A,N/A,N/A,N/A,N/A,N/A,N/A,N/A,N/A,Wabasha County,32.70%,59.10%,N/A,N/A,N/A,N/A,N/A,Central Standard Time,84,24,60,61,5,64%,60%,35,58,88,N/A,N/A,N/A,37.33,14.67,3.98,25.67%,29.56%,22.22%,53.5,20,8.5,40.7,84,690,3.4,35.7,MN-48022,44.2370973,-92.2499839
Pepin,Minnesota,317,18,Rochester,224330,N/A,N/A,N/A,N/A,N/A,N/A,N/A,N/A,N/A,N/A,N/A,N/A,N/A,N/A,N/A,Wabasha County,32.70%,59.10%,N/A,N/A,N/A,N/A,N/A,Central Standard Time,84,24,60,61,5,64%,60%,35,58,88,N/A,N/A,N/A,36.45,14.52,3.92,30.3%,34.07%,23.11%,42.9,23,8.5,40.7,82,639,3.4,17.61,MN-50362,44.3948502,-92.1350168
Plainview,Minnesota,3292,1538,Rochester,224330,$58534,26.79%,36,$207000,1848,$112,30,80.44%,$619,38.53%,30,667,11.82%,3.71%,72.04%,Wabasha County,32.70%,59.10%,0.0%,0.15%,91.62%,6.35%,2.67%,Central Standard Time,84,24,60,61,5,64%,60%,35,58,88,N/A,N/A,N/A,35.55,13.37,3.41,35.56%,38.02%,28.22%,53.5,20,8.5,40.7,77,1014,3.4,2.14,MN-51424,44.1648692,-92.1697231
Plainview township,Minnesota,3292,1538,Rochester,224330,$58534,26.79%,36,$207000,1848,$112,30,80.44%,$619,38.53%,30,667,11.82%,3.71%,72.04%,Wabasha County,32.70%,59.10%,0.0%,0.15%,91.62%,6.35%,2.67%,Central Standard Time,84,24,60,61,5,64%,60%,35,58,88,N/A,N/A,N/A,35.55,13.37,3.41,35.56%,38.02%,28.22%,53.5,20,8.5,40.7,81,1014,3.4,2.14,MN-51424,44.1648692,-92.1697231
Zumbro,Minnesota,651,21,Rochester,224330,N/A,N/A,N/A,N/A,N/A,N/A,N/A,N/A,N/A,N/A,N/A,N/A,N/A,N/A,N/A,Wabasha County,32.70%,59.10%,N/A,N/A,N/A,N/A,N/A,Central Standard Time,84,24,60,61,5,64%,60%,35,58,88,N/A,N/A,N/A,35.55,13.37,3.41,35.56%,38.02%,28.22%,53.5,20,8.5,40.7,82,1014,3.4,31.0,MN-72292,44.2258535,-92.4088436
Zumbro Falls,Minnesota,223,378,Rochester,224330,$68750,15.22%,34,N/A,N/A,N/A,71,88.34%,$900,51.12%,N/A,N/A,0.9%,23.4%,79.21%,Wabasha County,32.70%,59.10%,0.0%,5.83%,73.99%,2.69%,0.9%,Central Standard Time,84,24,60,61,5,64%,60%,35,58,88,N/A,N/A,N/A,37.33,14.67,3.98,25.67%,29.56%,22.22%,53.5,20,8.5,40.7,82,690,3.4,0.59,MN-72310,44.2845381,-92.4262891
