City,State,Population,People per sq mi,Metro Name,Metro population,Median household income,% with at least Bachelor's degree,Median age,Median home price,Median home sqft,Median home cost per sqft,Median home age,Homeownership Rate,Avg Apartment Monthly Rent,Single Population,Num Violent Crimes Per 100k residents,Num Property Crimes Per 100k residents,Poverty Rate,Unemployment rate,Labor Force Participation rate,County,% Democrat,% Republican,% Asian,% Black,% Non-Hispanic White,% Hispanic,Foreign Born %,Timezone,Hottest month's avg high (F),Coldest month's avg high (F),Hottest high minus coldest high,Hottest month's avg low (F),Coldest month's avg low (F),Annual Relative Humidity (afternoon),Summer Relative Humidity (afternoon),Annual dew point (F),Average summer dew point (F),Hottest month's avg heat index high (F),Annual Sunshine - Percentage of Possible,Summer Sunshine - Percentage of Possible,Winter Sunshine - Percentage of Possible,Annual rainfall (in),Summer rainfall (in),Winter rainfall (in),Percent of days that include precipitation,Percent of Summer days that include precipitation,Percent of Winter days that include precipitation,Annual snowfall (in),Days of snow per year,Average yearly windspeed (mph),Number of days with thunder per year,Air quality Index,Elevation (ft),UV Index,Land Area (sq mi),Fips Code,Latitude,Longitude
Arlington,Nebraska,1451,2418,Omaha-Council Bluffs,959306,$69750,23.49%,39,$209000,1786,$117,47,85.21%,$975,37.57%,N/A,N/A,6.62%,4.06%,68.68%,Washington County,24.20%,68.50%,3.58%,0.0%,86.49%,8.55%,6.69%,Central Standard Time,87,33,54,66,13,59%,57%,40,62,92,61%,73%,53%,32.7,12.36,3.3,27.67%,33.74%,20.78%,30.8,20,N/A,45.9,83,1080,3.8,0.6,NE-01990,41.4548548,-96.356527
Blair,Nebraska,7725,1402,Omaha-Council Bluffs,959306,$68196,34.58%,39,$268000,1928,$139,46,74.26%,$816,43.32%,127,1518,13.03%,2.78%,64.64%,Washington County,24.20%,68.50%,0.12%,1.49%,94.11%,2.67%,0.88%,Central Standard Time,84,31,53,66,13,59%,57%,40,62,87,61%,73%,53%,34.88,13.55,3.35,28.14%,32.97%,22.11%,30.8,20,N/A,45.9,78,1197,3.8,5.51,NE-05350,41.541623,-96.1359957
Fontanelle,Nebraska,67,268,Omaha-Council Bluffs,959306,$48500,11.76%,60,N/A,N/A,N/A,72,100.0%,N/A,15.69%,N/A,N/A,11.94%,0.0%,84.31%,Washington County,24.20%,68.50%,0.0%,0.0%,100.0%,0.0%,0.0%,Central Standard Time,87,33,54,66,13,59%,57%,40,62,92,61%,73%,53%,33.47,12.9,3.33,27.67%,33.74%,20.78%,30.8,20,N/A,45.9,83,1248,3.8,0.25,NE-17040,41.538255,-96.4271871
Fort Calhoun,Nebraska,1118,1644,Omaha-Council Bluffs,959306,$80526,22.6%,44,N/A,N/A,N/A,30,58.7%,$934,44.89%,N/A,N/A,7.6%,1.8%,62.12%,Washington County,24.20%,68.50%,0.0%,0.63%,87.3%,5.19%,1.43%,Central Standard Time,84,31,53,66,13,59%,57%,40,62,87,61%,73%,53%,34.88,13.55,3.35,28.14%,32.97%,22.11%,26.5,19,N/A,45.9,80,1197,3.8,0.68,NE-17145,41.4562373,-96.0262729
Herman,Nebraska,389,2779,Omaha-Council Bluffs,959306,$67664,6.45%,22,N/A,N/A,N/A,78,56.45%,N/A,65.03%,N/A,N/A,9.51%,0.0%,73.2%,Washington County,24.20%,68.50%,0.51%,0.0%,94.6%,0.51%,0.51%,Central Standard Time,87,32,55,65,13,59%,57%,37,61,92,61%,73%,53%,29.47,11.36,2.4,28.52%,36.92%,16.44%,46.5,27,N/A,42.1,83,939,3.8,0.14,NE-22185,41.6738252,-96.2167185
Kennard,Nebraska,422,1407,Omaha-Council Bluffs,959306,$91250,16.13%,34,N/A,N/A,N/A,72,76.44%,$952,54.55%,N/A,N/A,2.66%,0.75%,77.62%,Washington County,24.20%,68.50%,0.0%,0.0%,99.29%,0.0%,0.0%,Central Standard Time,84,31,53,66,13,59%,57%,40,62,87,61%,73%,53%,34.88,13.55,3.35,28.14%,32.97%,22.11%,30.8,20,N/A,45.9,81,1197,3.8,0.3,NE-25230,41.4746972,-96.2036962
Township 1,Nebraska,1,100,Omaha-Council Bluffs,959306,N/A,N/A,N/A,N/A,N/A,N/A,N/A,N/A,N/A,N/A,N/A,N/A,N/A,N/A,N/A,Washington County,24.20%,68.50%,N/A,N/A,N/A,N/A,N/A,Central Standard Time,84,31,53,66,13,59%,57%,40,62,87,61%,73%,53%,34.88,13.55,3.35,28.19%,32.2%,23.44%,26.5,19,N/A,45.9,1,1197,3.8,0.01,NE-49125,41.4344974,-96.0267907
Township 2,Nebraska,2,67,Omaha-Council Bluffs,959306,N/A,N/A,N/A,N/A,N/A,N/A,N/A,N/A,N/A,N/A,N/A,N/A,N/A,N/A,N/A,Washington County,24.20%,68.50%,N/A,N/A,N/A,N/A,N/A,Central Standard Time,84,31,53,66,13,59%,57%,40,62,87,61%,73%,53%,34.88,13.55,3.35,28.14%,32.97%,22.11%,26.5,19,N/A,45.9,2,1197,3.8,0.03,NE-49126,41.4902563,-96.1076618
Township 5,Nebraska,5,10,Omaha-Council Bluffs,959306,N/A,N/A,N/A,N/A,N/A,N/A,N/A,N/A,N/A,N/A,N/A,N/A,N/A,N/A,N/A,Washington County,24.20%,68.50%,N/A,N/A,N/A,N/A,N/A,Central Standard Time,87,32,55,65,13,59%,57%,37,61,92,61%,73%,53%,32.73,12.3,3.26,28.52%,36.92%,16.44%,46.5,27,N/A,42.1,5,1167,3.8,0.5,NE-49129,41.6324043,-96.2573997
Township 6,Nebraska,6,15,Omaha-Council Bluffs,959306,N/A,N/A,N/A,N/A,N/A,N/A,N/A,N/A,N/A,N/A,N/A,N/A,N/A,N/A,N/A,Washington County,24.20%,68.50%,N/A,N/A,N/A,N/A,N/A,Central Standard Time,87,33,54,66,13,59%,57%,40,62,92,61%,73%,53%,33.47,12.9,3.33,27.67%,33.74%,20.78%,30.8,20,N/A,45.9,6,1248,3.8,0.4,NE-49130,41.5398705,-96.3062317
Township 7,Nebraska,7,44,Omaha-Council Bluffs,959306,N/A,N/A,N/A,N/A,N/A,N/A,N/A,N/A,N/A,N/A,N/A,N/A,N/A,N/A,N/A,Washington County,24.20%,68.50%,N/A,N/A,N/A,N/A,N/A,Central Standard Time,84,31,53,66,13,59%,57%,40,62,87,61%,73%,53%,35.21,13.61,3.63,28.14%,32.97%,22.11%,30.8,20,N/A,45.9,7,1140,3.8,0.16,NE-49131,41.4355998,-96.256941
