City,State,Population,People per sq mi,Metro Name,Metro population,Median household income,% with at least Bachelor's degree,Median age,Median home price,Median home sqft,Median home cost per sqft,Median home age,Homeownership Rate,Avg Apartment Monthly Rent,Single Population,Num Violent Crimes Per 100k residents,Num Property Crimes Per 100k residents,Poverty Rate,Unemployment rate,Labor Force Participation rate,County,% Democrat,% Republican,% Asian,% Black,% Non-Hispanic White,% Hispanic,Foreign Born %,Timezone,Hottest month's avg high (F),Coldest month's avg high (F),Hottest high minus coldest high,Annual rainfall (in),Annual snowfall (in),Average yearly windspeed (mph),Air quality Index,Elevation (ft),UV Index,Land Area (sq mi),Fips Code,Latitude,Longitude,Annual Sunshine - Percentage of Possible,Summer Sunshine - Percentage of Possible,Winter Sunshine - Percentage of Possible,Annual Relative Humidity (afternoon),Summer Relative Humidity (afternoon),Number of days with thunder per year,Annual dew point (F),Average summer dew point (F),Hottest month's avg low (F),Coldest month's avg low (F),Summer rainfall (in),Winter rainfall (in),Percent of days that include precipitation,Percent of Summer days that include precipitation,Percent of Winter days that include precipitation,Days of snow per year,Hottest month's avg heat index high (F)
Anthon,Iowa,572,806,Sioux City,152349,$50500,23.19%,46,N/A,N/A,N/A,73,83.22%,$825,50.6%,N/A,N/A,13.99%,7.72%,60.45%,Woodbury County,37.10%,56.60%,0.0%,0.0%,95.1%,4.9%,4.02%,Central Standard Time,85,28,57,33.44,30.4,N/A,88,1023,3.8,0.71,IA-02350,42.3880938,-95.8655487,60%,71%,54%,60%,59%,42.1,37,61,63,9,13.29,2.92,24.33%,29.78%,16.67%,11,89
Bronson,Iowa,325,929,Sioux City,152349,$77813,22.48%,36,$215000,1955,$110,65,98.77%,N/A,43.85%,N/A,N/A,1.54%,6.51%,83.98%,Woodbury County,37.10%,56.60%,0.0%,0.0%,96.31%,0.0%,0.0%,Central Standard Time,87,30,57,31.85,38.1,N/A,87,1005,3.8,0.35,IA-08650,42.409025,-96.2105313,60%,71%,54%,60%,59%,42.1,37,61,63,9,12.77,2.96,28.3%,33.08%,24.11%,22,93
Climbing Hill,Iowa,86,67,Sioux City,152349,$40500,10.47%,62,$375000,2534,$148,78,100.0%,N/A,48.84%,N/A,N/A,0.0%,12.5%,46.51%,Woodbury County,37.10%,56.60%,0.0%,0.0%,100.0%,0.0%,0.0%,Central Standard Time,86,30,56,33.44,38.1,N/A,86,1023,3.8,1.28,IA-14385,42.3393755,-96.0810855,60%,71%,54%,60%,59%,42.1,37,61,64,11,13.29,2.92,28.3%,33.08%,24.11%,22,91
Correctionville,Iowa,982,1637,Sioux City,152349,$45385,13.25%,42,$180000,1837,$98,70,93.28%,$530,43.83%,N/A,N/A,6.41%,4.07%,59.38%,Woodbury County,37.10%,56.60%,0.0%,0.0%,81.67%,17.21%,6.62%,Central Standard Time,82,26,56,34.28,30.4,N/A,88,1254,3.8,0.6,IA-16545,42.4775925,-95.7831576,60%,71%,54%,60%,59%,42.1,37,61,63,9,13.4,3.44,26.82%,32.42%,21.11%,11,84
Cushing,Iowa,239,747,Sioux City,152349,$54792,17.73%,33,N/A,N/A,N/A,67,74.48%,$520,53.61%,N/A,N/A,25.42%,0.88%,60.64%,Woodbury County,37.10%,56.60%,0.0%,0.0%,90.79%,2.93%,0.42%,Central Standard Time,82,26,56,34.28,38.8,N/A,88,1254,3.8,0.32,IA-17940,42.4650675,-95.6757272,60%,71%,54%,60%,59%,42.1,37,61,63,9,13.4,3.44,26.82%,32.42%,21.11%,16,84
Danbury,Iowa,402,980,Sioux City,152349,$57083,16.9%,41,N/A,N/A,N/A,73,82.59%,$466,47.55%,N/A,N/A,15.75%,2.7%,57.1%,Woodbury County,37.10%,56.60%,0.0%,0.0%,97.76%,2.24%,0.0%,Central Standard Time,85,29,56,32.95,30.4,N/A,88,1098,3.8,0.41,IA-18390,42.2364287,-95.7215815,60%,71%,54%,60%,59%,42.1,37,61,62,10,12.54,3.1,24.33%,29.78%,16.67%,11,89
Hornick,Iowa,286,1144,Sioux City,152349,$71667,8.6%,33,N/A,N/A,N/A,71,96.85%,$667,30.84%,N/A,N/A,8.04%,0.7%,72.43%,Woodbury County,37.10%,56.60%,0.0%,0.0%,98.25%,1.05%,4.2%,Central Standard Time,85,29,56,33.44,30.4,N/A,86,1023,3.8,0.25,IA-37200,42.2304872,-96.0971707,60%,71%,54%,60%,59%,42.1,37,61,62,10,13.29,2.92,22.74%,28.57%,15.89%,11,89
Lawton,Iowa,1055,1465,Sioux City,152349,$89531,31.08%,40,N/A,N/A,N/A,29,89.12%,$675,35.15%,N/A,N/A,8.25%,1.63%,72.12%,Woodbury County,37.10%,56.60%,0.38%,0.0%,95.83%,3.22%,1.52%,Central Standard Time,87,30,57,31.85,38.1,N/A,87,1005,3.8,0.72,IA-43905,42.4769741,-96.1850916,60%,71%,54%,60%,59%,42.1,37,61,63,9,12.77,2.96,28.3%,33.08%,24.11%,22,93
Moville,Iowa,1720,1870,Sioux City,152349,$77500,33.36%,34,$184000,1460,$126,52,83.31%,$607,45.17%,N/A,N/A,6.82%,1.51%,72.39%,Woodbury County,37.10%,56.60%,0.52%,2.09%,91.8%,2.79%,0.52%,Central Standard Time,87,30,57,33.44,38.1,N/A,87,1023,3.8,0.92,IA-54930,42.4902351,-96.0679235,60%,71%,54%,60%,59%,42.1,37,61,63,9,13.29,2.92,28.3%,33.08%,24.11%,22,93
Oto,Iowa,81,300,Sioux City,152349,$23750,10.53%,56,N/A,N/A,N/A,72,74.07%,$500,67.61%,N/A,N/A,31.65%,25.71%,49.3%,Woodbury County,37.10%,56.60%,0.0%,0.0%,88.89%,11.11%,3.7%,Central Standard Time,85,29,56,33.44,30.4,N/A,86,1023,3.8,0.27,IA-60240,42.2821678,-95.894552,60%,71%,54%,60%,59%,42.1,37,61,62,10,13.29,2.92,24.33%,29.78%,16.67%,11,89
Pierson,Iowa,347,723,Sioux City,152349,$58750,11.3%,33,N/A,N/A,N/A,78,80.69%,$713,27.13%,N/A,N/A,7.2%,8.33%,69.42%,Woodbury County,37.10%,56.60%,0.0%,0.0%,93.66%,3.46%,0.86%,Central Standard Time,82,26,56,34.28,34.3,N/A,88,1254,3.8,0.48,IA-62760,42.5435865,-95.8665381,60%,71%,54%,60%,59%,42.1,37,61,63,9,13.4,3.44,26.82%,32.42%,21.11%,13,84
Salix,Iowa,479,282,Sioux City,152349,$62500,8.75%,38,N/A,N/A,N/A,62,75.16%,$625,61.07%,N/A,N/A,6.39%,0.73%,73.26%,Woodbury County,37.10%,56.60%,1.04%,0.0%,93.95%,0.84%,1.04%,Central Standard Time,86,30,56,31.26,38.1,N/A,86,1002,3.8,1.7,IA-70320,42.3213928,-96.3156283,60%,71%,54%,60%,59%,42.1,37,61,64,11,12.55,3.16,28.3%,33.08%,24.11%,22,91
Sergeant Bluff,Iowa,4901,1650,Sioux City,152349,$94397,40.96%,37,$390000,2786,$140,27,78.02%,$1064,34.83%,180,861,5.32%,4.49%,75.81%,Woodbury County,37.10%,56.60%,1.49%,0.43%,89.8%,5.1%,3.33%,Central Standard Time,87,30,57,31.85,38.1,N/A,84,1005,3.8,2.97,IA-71625,42.3977691,-96.3517319,60%,71%,54%,60%,59%,42.1,37,61,63,9,12.77,2.96,28.3%,33.08%,24.11%,22,93
Sioux City,Iowa,82535,1412,Sioux City,152349,$57750,22.39%,34,$171000,1462,$117,65,66.22%,$797,52.68%,444,3890,13.91%,4.91%,69.92%,Woodbury County,37.10%,56.60%,3.09%,4.61%,66.7%,20.27%,10.42%,Central Standard Time,87,30,57,31.85,38.1,N/A,72,1005,3.8,58.46,IA-73335,42.49582,-96.3901319,60%,71%,54%,60%,59%,42.1,37,61,63,9,12.77,2.96,28.3%,33.08%,24.11%,22,93
Sloan,Iowa,1035,1784,Sioux City,152349,$70417,23.78%,41,$255000,2772,$92,55,81.64%,$820,40.36%,N/A,N/A,3.61%,9.25%,69.77%,Woodbury County,37.10%,56.60%,0.0%,0.0%,96.81%,1.93%,0.39%,Central Standard Time,86,30,56,33.44,38.1,N/A,86,1023,3.8,0.58,IA-73605,42.2330621,-96.22483,60%,71%,54%,60%,59%,42.1,37,61,64,11,13.29,2.92,28.3%,33.08%,24.11%,22,91
Smithland,Iowa,168,525,Sioux City,152349,$48194,0.81%,48,N/A,N/A,N/A,76,71.43%,$817,38.97%,N/A,N/A,8.93%,2.6%,57.89%,Woodbury County,37.10%,56.60%,0.0%,0.0%,100.0%,0.0%,0.0%,Central Standard Time,85,29,56,33.44,30.4,N/A,86,1023,3.8,0.32,IA-73650,42.2289031,-95.9315783,60%,71%,54%,60%,59%,42.1,37,61,62,10,13.29,2.92,24.33%,29.78%,16.67%,11,89
