City,State,Population,People per sq mi,Metro Name,Metro population,Median household income,% with at least Bachelor's degree,Median age,Median home price,Median home sqft,Median home cost per sqft,Median home age,Homeownership Rate,Avg Apartment Monthly Rent,Single Population,Num Violent Crimes Per 100k residents,Num Property Crimes Per 100k residents,Poverty Rate,Unemployment rate,Labor Force Participation rate,County,% Democrat,% Republican,% Asian,% Black,% Non-Hispanic White,% Hispanic,Foreign Born %,Timezone,Hottest month's avg high (F),Coldest month's avg high (F),Hottest high minus coldest high,Hottest month's avg low (F),Coldest month's avg low (F),Annual Relative Humidity (afternoon),Summer Relative Humidity (afternoon),Annual dew point (F),Average summer dew point (F),Hottest month's avg heat index high (F),Annual Sunshine - Percentage of Possible,Summer Sunshine - Percentage of Possible,Winter Sunshine - Percentage of Possible,Annual rainfall (in),Summer rainfall (in),Winter rainfall (in),Percent of days that include precipitation,Percent of Summer days that include precipitation,Percent of Winter days that include precipitation,Annual snowfall (in),Days of snow per year,Average yearly windspeed (mph),Number of days with thunder per year,Air quality Index,Elevation (ft),UV Index,Land Area (sq mi),Fips Code,Latitude,Longitude
Bay View Gardens,Illinois,287,504,Peoria,404226,$46875,10.09%,47,N/A,N/A,N/A,55,71.46%,$748,51.22%,N/A,N/A,17.77%,2.34%,52.03%,Woodford County,25.60%,66.50%,0.0%,0.0%,99.65%,0.0%,4.18%,Central Standard Time,87,34,53,67,18,61%,58%,40,62,92,54%,65%,46%,43.88,13.04,7.07,35.51%,36.15%,31.33%,30.1,19,N/A,47.8,78,639,3.7,0.57,IL-04273,40.8101929,-89.5272069
Benson,Illinois,482,3013,Peoria,404226,$74886,13.03%,46,N/A,N/A,N/A,66,88.7%,$975,46.26%,N/A,N/A,5.01%,2.83%,67.14%,Woodford County,25.60%,66.50%,0.0%,1.66%,97.72%,0.62%,0.62%,Central Standard Time,86,34,52,64,15,61%,58%,40,62,90,54%,65%,46%,39.44,12.15,5.77,31.53%,30.44%,31.67%,23.7,11,N/A,47.8,82,660,3.7,0.16,IL-05261,40.8507094,-89.1210967
Cazenovia,Illinois,1855,51,Peoria,404226,N/A,N/A,N/A,N/A,N/A,N/A,N/A,N/A,N/A,N/A,N/A,N/A,N/A,N/A,N/A,Woodford County,25.60%,66.50%,N/A,N/A,N/A,N/A,N/A,Central Standard Time,86,34,52,64,15,61%,58%,40,62,90,54%,65%,46%,40.56,11.82,7.02,31.53%,30.44%,31.67%,30.1,19,8.1,47.8,82,660,3.7,36.37,IL-11878,40.8795612,-89.3321077
Clayton township (Woodford Cnty),Illinois,610,693,Peoria,404226,N/A,N/A,N/A,N/A,N/A,N/A,N/A,N/A,N/A,N/A,N/A,N/A,N/A,N/A,N/A,Woodford County,25.60%,66.50%,N/A,N/A,N/A,N/A,N/A,Central Standard Time,86,34,52,64,15,61%,58%,40,62,90,54%,65%,46%,40.21,11.86,6.33,30.71%,30.55%,27.22%,23.7,11,8.1,47.8,82,687,3.7,0.88,IL-14793,40.8824417,-89.1036951
Congerville,Illinois,723,753,Peoria,404226,$78649,22.08%,27,$140000,1321,$106,47,91.79%,$920,24.61%,N/A,N/A,0.95%,0.65%,69.28%,Woodford County,25.60%,66.50%,0.83%,0.0%,84.79%,0.14%,0.28%,Central Standard Time,85,34,51,64,16,61%,58%,40,62,89,54%,65%,46%,39.41,11.94,6.35,31.26%,31.21%,28.67%,23.7,11,N/A,47.8,82,585,3.7,0.96,IL-16119,40.6167871,-89.2051292
Cruger,Illinois,1944,114,Peoria,404226,N/A,N/A,N/A,N/A,N/A,N/A,N/A,N/A,N/A,N/A,N/A,N/A,N/A,N/A,N/A,Woodford County,25.60%,66.50%,N/A,N/A,N/A,N/A,N/A,Central Standard Time,85,34,51,64,16,61%,58%,40,62,89,54%,65%,46%,40.8,12.45,6.77,32.16%,32.75%,29.78%,30.1,19,N/A,47.8,81,732,3.7,17.05,IL-17861,40.703759,-89.3026433
El Paso,Illinois,2871,1335,Peoria,404226,$70063,21.55%,38,$35000,921,$38,70,79.25%,$892,58.43%,1100,1430,10.58%,3.98%,60.06%,Woodford County,25.60%,66.50%,0.91%,2.82%,94.04%,0.35%,3.13%,Central Standard Time,86,34,52,64,15,61%,58%,40,62,90,54%,65%,46%,39.44,12.15,5.77,31.53%,30.44%,31.67%,23.7,11,N/A,47.8,83,660,3.7,2.15,IL-23737,40.7404923,-89.0182498
El Paso township,Illinois,2871,1335,Peoria,404226,$70063,21.55%,38,$35000,921,$38,70,79.25%,$892,58.43%,1100,1430,10.58%,3.98%,60.06%,Woodford County,25.60%,66.50%,0.91%,2.82%,94.04%,0.35%,3.13%,Central Standard Time,86,34,52,64,15,61%,58%,40,62,90,54%,65%,46%,39.44,12.15,5.77,31.53%,30.44%,31.67%,23.7,11,N/A,47.8,83,660,3.7,2.15,IL-23737,40.7404923,-89.0182498
Eureka,Illinois,5095,1901,Peoria,404226,$55172,31.95%,41,$170000,1717,$99,50,65.41%,$680,50.26%,473,758,13.94%,5.23%,58.89%,Woodford County,25.60%,66.50%,0.22%,1.88%,92.11%,2.24%,0.67%,Central Standard Time,85,34,51,64,16,61%,58%,40,62,89,54%,65%,46%,40.8,12.45,6.77,32.16%,32.75%,29.78%,23.7,11,N/A,47.8,81,732,3.7,2.68,IL-24543,40.7147649,-89.2773696
Germantown Hills,Illinois,3425,2088,Peoria,404226,$141719,56.59%,38,$404000,3311,$122,18,93.57%,N/A,36.61%,N/A,N/A,7.01%,3.5%,72.02%,Woodford County,25.60%,66.50%,0.0%,0.0%,95.85%,2.72%,1.81%,Central Standard Time,87,34,53,67,18,61%,58%,40,62,92,54%,65%,46%,42.0,12.6,6.82,35.51%,36.15%,31.33%,30.1,19,N/A,47.8,79,717,3.7,1.64,IL-29080,40.7721924,-89.464409
Goodfield,Illinois,986,609,Peoria,404226,$110417,36.85%,46,$339000,3168,$107,28,93.76%,$1107,31.1%,100,2304,2.43%,0.94%,55.48%,Woodford County,25.60%,66.50%,0.91%,0.0%,94.22%,2.03%,0.81%,Central Standard Time,85,34,51,64,16,61%,58%,40,62,89,54%,65%,46%,39.41,11.94,6.35,31.26%,31.21%,28.67%,23.7,11,N/A,47.8,82,585,3.7,1.62,IL-30445,40.6339529,-89.2562875
Greene township (Woodford Cnty),Illinois,557,16,Peoria,404226,N/A,N/A,N/A,N/A,N/A,N/A,N/A,N/A,N/A,N/A,N/A,N/A,N/A,N/A,N/A,Woodford County,25.60%,66.50%,N/A,N/A,N/A,N/A,N/A,Central Standard Time,86,34,52,64,15,61%,58%,40,62,90,54%,65%,46%,39.44,12.15,5.77,31.53%,30.44%,31.67%,23.7,11,N/A,47.8,83,660,3.7,34.81,IL-31355,40.7945361,-89.1021799
Kansas township (Woodford Cnty),Illinois,336,329,Peoria,404226,N/A,N/A,N/A,N/A,N/A,N/A,N/A,N/A,N/A,N/A,0,138,N/A,N/A,N/A,Woodford County,25.60%,66.50%,N/A,N/A,N/A,N/A,N/A,Central Standard Time,85,34,51,64,16,61%,58%,40,62,89,54%,65%,46%,39.41,11.94,6.35,31.26%,31.21%,28.67%,23.7,11,N/A,47.8,82,585,3.7,1.02,IL-39012,40.6379206,-89.106582
Kappa,Illinois,211,586,Peoria,404226,$77000,32.9%,48,N/A,N/A,N/A,36,88.0%,$850,40.86%,N/A,N/A,10.0%,1.55%,70.11%,Woodford County,25.60%,66.50%,1.42%,0.0%,94.31%,1.42%,1.42%,Central Standard Time,86,34,52,63,16,61%,58%,40,62,90,54%,65%,46%,40.6,12.03,7.01,29.26%,29.23%,26.22%,23.7,11,N/A,47.8,83,738,3.7,0.36,IL-39038,40.6754416,-89.0059661
Linn,Illinois,192,5,Peoria,404226,N/A,N/A,N/A,N/A,N/A,N/A,N/A,N/A,N/A,N/A,N/A,N/A,N/A,N/A,N/A,Woodford County,25.60%,66.50%,N/A,N/A,N/A,N/A,N/A,Central Standard Time,86,34,52,64,15,61%,58%,40,62,90,54%,65%,46%,40.56,11.82,7.02,31.53%,30.44%,31.67%,23.7,11,8.1,47.8,82,660,3.7,38.4,IL-43835,40.8817932,-89.2173269
Metamora,Illinois,4094,1812,Peoria,404226,$99091,54.58%,36,$230000,2255,$102,31,83.38%,$880,38.02%,N/A,N/A,5.47%,0.0%,69.96%,Woodford County,25.60%,66.50%,2.34%,0.05%,95.99%,0.85%,2.61%,Central Standard Time,85,34,51,64,16,61%,58%,40,62,89,54%,65%,46%,42.0,12.6,6.82,32.16%,32.75%,29.78%,30.1,19,N/A,47.8,81,717,3.7,2.26,IL-48606,40.7950653,-89.3671632
Metamora township,Illinois,4094,1812,Peoria,404226,$99091,54.58%,36,$230000,2255,$102,31,83.38%,$880,38.02%,N/A,N/A,5.47%,0.0%,69.96%,Woodford County,25.60%,66.50%,2.34%,0.05%,95.99%,0.85%,2.61%,Central Standard Time,85,34,51,64,16,61%,58%,40,62,89,54%,65%,46%,42.0,12.6,6.82,32.16%,32.75%,29.78%,30.1,19,N/A,47.8,81,717,3.7,2.26,IL-48606,40.7950653,-89.3671632
Minonk,Illinois,1909,795,Peoria,404226,$62000,18.1%,42,$110000,1341,$82,56,75.89%,$977,45.61%,N/A,N/A,10.44%,7.3%,60.92%,Woodford County,25.60%,66.50%,0.47%,0.0%,95.76%,2.72%,1.31%,Central Standard Time,86,34,52,64,15,61%,58%,40,62,90,54%,65%,46%,40.21,11.86,6.33,30.71%,30.55%,27.22%,23.7,11,8.1,47.8,82,687,3.7,2.4,IL-49568,40.9103692,-89.038153
Minonk township,Illinois,1909,795,Peoria,404226,$62000,18.1%,42,$110000,1341,$82,56,75.89%,$977,45.61%,N/A,N/A,10.44%,7.3%,60.92%,Woodford County,25.60%,66.50%,0.47%,0.0%,95.76%,2.72%,1.31%,Central Standard Time,86,34,52,64,15,61%,58%,40,62,90,54%,65%,46%,40.21,11.86,6.33,30.71%,30.55%,27.22%,23.7,11,8.1,47.8,82,687,3.7,2.4,IL-49568,40.9103692,-89.038153
Montgomery township (Woodford Cnty),Illinois,2404,258,Peoria,404226,N/A,N/A,N/A,$340000,1954,$174,N/A,N/A,N/A,N/A,150,1349,N/A,N/A,N/A,Woodford County,25.60%,66.50%,N/A,N/A,N/A,N/A,N/A,Central Standard Time,85,34,51,64,16,61%,58%,40,62,89,54%,65%,46%,39.41,11.94,6.35,31.26%,31.21%,28.67%,23.7,11,N/A,47.8,82,585,3.7,9.3,IL-50231,40.6305498,-89.2365507
Olio,Illinois,4964,158,Peoria,404226,N/A,N/A,N/A,N/A,N/A,N/A,N/A,N/A,N/A,N/A,N/A,N/A,N/A,N/A,N/A,Woodford County,25.60%,66.50%,N/A,N/A,N/A,N/A,N/A,Central Standard Time,85,34,51,64,16,61%,58%,40,62,89,54%,65%,46%,40.8,12.45,6.77,32.16%,32.75%,29.78%,23.7,11,N/A,47.8,81,732,3.7,31.42,IL-55821,40.7061546,-89.2263298
Palestine township,Illinois,1044,1322,Peoria,404226,N/A,N/A,N/A,N/A,N/A,N/A,N/A,N/A,N/A,N/A,235,1729,N/A,N/A,N/A,Woodford County,25.60%,66.50%,N/A,N/A,N/A,N/A,N/A,Central Standard Time,85,34,51,64,16,61%,58%,40,62,89,54%,65%,46%,40.8,12.45,6.77,32.16%,32.75%,29.78%,23.7,11,N/A,47.8,83,732,3.7,0.79,IL-57290,40.7048644,-89.1208722
Panola,Illinois,32,74,Peoria,404226,$78750,36.0%,54,N/A,N/A,N/A,16,100.0%,N/A,53.33%,N/A,N/A,0.0%,0.0%,51.72%,Woodford County,25.60%,66.50%,0.0%,0.0%,100.0%,0.0%,0.0%,Central Standard Time,86,34,52,64,15,61%,58%,40,62,90,54%,65%,46%,39.44,12.15,5.77,30.71%,30.55%,27.22%,23.7,11,N/A,47.8,83,660,3.7,0.43,IL-57524,40.7828411,-89.0202466
Panola township,Illinois,32,74,Peoria,404226,$78750,36.0%,54,N/A,N/A,N/A,16,100.0%,N/A,53.33%,N/A,N/A,0.0%,0.0%,51.72%,Woodford County,25.60%,66.50%,0.0%,0.0%,100.0%,0.0%,0.0%,Central Standard Time,86,34,52,64,15,61%,58%,40,62,90,54%,65%,46%,39.44,12.15,5.77,30.71%,30.55%,27.22%,23.7,11,N/A,47.8,83,660,3.7,0.43,IL-57524,40.7828411,-89.0202466
Partridge,Illinois,452,17,Peoria,404226,N/A,N/A,N/A,N/A,N/A,N/A,N/A,N/A,N/A,N/A,N/A,N/A,N/A,N/A,N/A,Woodford County,25.60%,66.50%,N/A,N/A,N/A,N/A,N/A,Central Standard Time,87,34,53,67,18,61%,58%,40,62,92,54%,65%,46%,40.79,12.39,6.8,32.49%,32.2%,29.44%,30.1,19,8.1,47.8,81,420,3.7,26.59,IL-58018,40.8753541,-89.4443177
Washburn,Illinois,1026,1425,Peoria,404226,$79306,17.03%,39,$126000,1909,$66,82,77.91%,$900,49.57%,N/A,N/A,8.97%,2.61%,66.67%,Woodford County,25.60%,66.50%,0.0%,0.29%,96.88%,1.66%,0.0%,Central Standard Time,86,34,52,64,15,61%,58%,40,62,90,54%,65%,46%,40.79,12.39,6.8,32.49%,32.2%,29.44%,30.1,19,8.1,47.8,82,420,3.7,0.72,IL-79007,40.9203148,-89.2917459
Worth township (Woodford Cnty),Illinois,8893,3752,Peoria,404226,N/A,N/A,N/A,$257000,1360,$189,N/A,N/A,N/A,N/A,294,664,N/A,N/A,N/A,Woodford County,25.60%,66.50%,N/A,N/A,N/A,N/A,N/A,Central Standard Time,87,34,53,67,18,61%,58%,40,62,92,54%,65%,46%,42.0,12.6,6.82,35.51%,36.15%,31.33%,30.1,19,N/A,47.8,79,717,3.7,2.37,IL-83544,40.7912967,-89.4458238
