City,State,Population,People per sq mi,Metro Name,Metro population,Median household income,% with at least Bachelor's degree,Median age,Median home price,Median home sqft,Median home cost per sqft,Median home age,Homeownership Rate,Avg Apartment Monthly Rent,Single Population,Num Violent Crimes Per 100k residents,Num Property Crimes Per 100k residents,Poverty Rate,Unemployment rate,Labor Force Participation rate,County,% Democrat,% Republican,% Asian,% Black,% Non-Hispanic White,% Hispanic,Foreign Born %,Timezone,Hottest month's avg high (F),Coldest month's avg high (F),Hottest high minus coldest high,Hottest month's avg low (F),Coldest month's avg low (F),Annual Relative Humidity (afternoon),Summer Relative Humidity (afternoon),Annual dew point (F),Average summer dew point (F),Hottest month's avg heat index high (F),Annual Sunshine - Percentage of Possible,Summer Sunshine - Percentage of Possible,Winter Sunshine - Percentage of Possible,Annual rainfall (in),Summer rainfall (in),Winter rainfall (in),Percent of days that include precipitation,Percent of Summer days that include precipitation,Percent of Winter days that include precipitation,Annual snowfall (in),Days of snow per year,Average yearly windspeed (mph),Number of days with thunder per year,Air quality Index,Elevation (ft),UV Index,Land Area (sq mi),Fips Code,Latitude,Longitude
Adelino,New Mexico,892,299,Albuquerque,913388,N/A,13.51%,42,N/A,N/A,N/A,37,89.64%,N/A,67.2%,N/A,N/A,16.57%,3.84%,59.29%,Valencia County,39.30%,47.90%,0.0%,0.0%,24.22%,75.78%,12.44%,Mountain Standard Time,94,51,43,63,18,29%,25%,30,45,92,76%,78%,73%,9.42,3.57,1.72,12.74%,20.11%,9.33%,7.4,3,N/A,39.2,76,4407,5.9,2.98,NM-00940,34.7063898,-106.731823
Albuquerque,New Mexico,562488,3004,Albuquerque,913388,$65604,38.65%,39,N/A,N/A,N/A,38,63.54%,$1085,59.17%,1351,N/A,15.96%,5.32%,64.3%,Bernalillo County,52.20%,34.50%,3.25%,3.33%,38.05%,47.91%,10.38%,Mountain Standard Time,95,50,45,54,21,29%,25%,30,45,94,76%,78%,73%,9.64,4.01,1.53,15.34%,23.63%,12.44%,7.8,6,N/A,39.2,60,4719,6.3,187.27,NM-02000,35.105341,-106.6464846
Algodones,New Mexico,1198,164,Albuquerque,913388,$63750,22.07%,55,N/A,N/A,N/A,40,75.82%,N/A,42.87%,N/A,N/A,16.61%,7.01%,50.68%,Sandoval County,44.90%,42.00%,0.83%,0.0%,19.7%,67.53%,1.67%,Mountain Standard Time,93,47,46,64,21,29%,25%,30,45,91,76%,78%,73%,8.37,3.43,1.34,14.11%,23.08%,11.67%,5.4,1,N/A,39.2,84,4926,6.3,7.31,NM-02210,35.3803736,-106.4730935
Belen,New Mexico,7427,392,Albuquerque,913388,$40354,14.28%,39,N/A,N/A,N/A,41,67.45%,$877,63.88%,2029,5243,28.46%,6.16%,49.06%,Valencia County,39.30%,47.90%,1.24%,0.36%,27.97%,70.45%,8.13%,Mountain Standard Time,94,51,43,63,18,29%,25%,30,45,92,76%,78%,73%,9.42,3.57,1.72,12.74%,20.11%,9.33%,7.4,3,N/A,39.2,62,4407,5.9,18.95,NM-06480,34.6621491,-106.767894
Bernalillo,New Mexico,9068,1854,Albuquerque,913388,$61624,24.03%,46,N/A,N/A,N/A,28,70.94%,$1061,52.12%,821,2240,15.73%,5.85%,51.74%,Sandoval County,44.90%,42.00%,0.12%,0.54%,27.83%,66.18%,12.76%,Mountain Standard Time,94,47,47,63,23,29%,25%,30,45,92,76%,78%,73%,9.81,3.88,1.75,17.12%,25.93%,13.44%,9.5,4,N/A,39.2,67,4770,6.3,4.89,NM-06970,35.3126647,-106.5537249
Bosque Farms,New Mexico,4042,1026,Albuquerque,913388,$63889,27.46%,48,N/A,N/A,N/A,41,93.16%,$869,39.13%,472,1102,20.76%,7.06%,60.06%,Valencia County,39.30%,47.90%,1.26%,0.0%,40.97%,52.89%,3.59%,Mountain Standard Time,94,51,43,63,18,29%,25%,30,45,92,76%,78%,73%,9.34,3.92,1.57,12.74%,20.11%,9.33%,7.4,3,N/A,39.2,71,4455,5.9,3.94,NM-08580,34.8538971,-106.7011592
Canon,New Mexico,292,18,Albuquerque,913388,N/A,N/A,N/A,N/A,N/A,N/A,N/A,N/A,N/A,N/A,N/A,N/A,N/A,N/A,N/A,Sandoval County,44.90%,42.00%,N/A,N/A,N/A,N/A,N/A,Mountain Standard Time,N/A,N/A,N/A,N/A,N/A,N/A,N/A,N/A,N/A,N/A,N/A,N/A,N/A,N/A,N/A,N/A,N/A,N/A,N/A,N/A,N/A,N/A,N/A,87,N/A,6.3,16.22,N/A,N/A,N/A
Carnuel,New Mexico,842,158,Albuquerque,913388,$89432,29.67%,56,N/A,N/A,N/A,45,87.46%,N/A,47.4%,N/A,N/A,13.66%,0.0%,44.41%,Bernalillo County,52.20%,34.50%,0.0%,3.92%,43.71%,43.94%,0.0%,Mountain Standard Time,89,45,44,60,27,29%,25%,30,45,86,76%,78%,73%,11.84,5.11,1.97,21.59%,32.64%,18.33%,12.3,7,N/A,39.2,87,5451,6.3,5.32,NM-12430,35.0609591,-106.4586615
Casa Colorada,New Mexico,320,58,Albuquerque,913388,N/A,28.57%,46,N/A,N/A,N/A,44,100.0%,N/A,71.05%,N/A,N/A,4.69%,6.9%,67.67%,Valencia County,39.30%,47.90%,0.0%,0.0%,51.25%,48.75%,0.0%,Mountain Standard Time,95,52,43,56,18,29%,25%,30,45,92,76%,78%,73%,9.42,3.57,1.72,12.74%,20.11%,9.33%,37.4,12,N/A,39.2,81,4407,5.9,5.52,NM-12786,34.553427,-106.7419668
Cedar Crest,New Mexico,746,238,Albuquerque,913388,$143750,50.08%,58,N/A,N/A,N/A,35,85.27%,N/A,42.52%,N/A,N/A,10.97%,2.03%,41.26%,Bernalillo County,52.20%,34.50%,0.67%,0.0%,78.15%,15.82%,0.67%,Mountain Standard Time,89,45,44,60,27,29%,25%,30,45,86,76%,78%,73%,15.54,5.23,3.97,21.59%,32.64%,18.33%,12.3,7,N/A,39.2,88,6204,6.3,3.13,NM-13200,35.1113974,-106.3801971
Cedro,New Mexico,417,77,Albuquerque,913388,$117846,35.49%,53,N/A,N/A,N/A,26,60.23%,N/A,33.42%,N/A,N/A,11.27%,8.5%,54.35%,Bernalillo County,52.20%,34.50%,5.04%,0.0%,64.75%,30.22%,5.04%,Mountain Standard Time,89,45,44,60,27,29%,25%,30,45,86,76%,78%,73%,16.0,6.28,3.36,21.59%,32.64%,18.33%,12.3,7,N/A,39.2,90,7005,6.3,5.39,NM-13450,35.0180559,-106.3508294
Chical,New Mexico,148,183,Albuquerque,913388,$83304,73.68%,35,N/A,N/A,N/A,7,100.0%,N/A,100.0%,N/A,N/A,56.76%,0.0%,68.0%,Valencia County,39.30%,47.90%,0.0%,0.0%,0.0%,0.0%,0.0%,Mountain Standard Time,94,51,43,63,18,29%,25%,30,45,92,76%,78%,73%,9.34,3.92,1.57,15.15%,23.74%,12.11%,7.4,3,N/A,39.2,77,4455,5.9,0.81,NM-14670,34.8657863,-106.6670912
Cochiti,New Mexico,481,617,Albuquerque,913388,$44688,8.8%,43,N/A,N/A,N/A,44,92.96%,N/A,76.38%,N/A,N/A,10.81%,7.92%,53.02%,Sandoval County,44.90%,42.00%,0.0%,0.0%,1.04%,5.61%,1.25%,Mountain Standard Time,94,50,44,57,19,29%,25%,30,45,92,76%,78%,73%,12.16,4.84,1.95,17.97%,27.91%,13.56%,35.2,14,N/A,39.2,81,5085,6.3,0.78,NM-16560,35.6103546,-106.3501431
Cochiti Lake,New Mexico,453,365,Albuquerque,913388,$54861,51.0%,67,N/A,N/A,N/A,32,87.39%,$1482,61.02%,N/A,N/A,6.62%,4.52%,37.53%,Sandoval County,44.90%,42.00%,0.88%,0.44%,62.25%,12.8%,3.31%,Mountain Standard Time,94,50,44,57,19,29%,25%,30,45,92,76%,78%,73%,12.16,4.84,1.95,17.97%,27.91%,13.56%,35.2,14,N/A,39.2,81,5085,6.3,1.24,NM-16585,35.6478349,-106.3425373
Corrales,New Mexico,8557,793,Albuquerque,913388,$114207,52.36%,56,N/A,N/A,N/A,34,91.98%,$1184,31.79%,137,711,6.95%,6.33%,52.79%,Sandoval County,44.90%,42.00%,1.04%,1.13%,65.5%,27.46%,6.36%,Mountain Standard Time,96,50,46,65,24,29%,25%,30,45,95,76%,78%,73%,9.66,4.06,1.76,13.34%,20.33%,11.11%,9.5,4,N/A,39.2,72,4596,6.3,10.79,NM-17960,35.2366486,-106.6191191
Cuba,New Mexico,476,146,Albuquerque,913388,N/A,17.13%,33,N/A,N/A,N/A,44,64.31%,$341,76.83%,1455,264,22.9%,0.0%,60.38%,Sandoval County,44.90%,42.00%,0.0%,0.0%,13.03%,70.59%,4.83%,Mountain Standard Time,87,43,44,47,16,29%,25%,30,45,84,76%,78%,73%,13.89,5.02,2.56,15.34%,21.54%,15.0%,110.1,32,N/A,39.2,93,6318,6.3,3.26,NM-19150,36.0145835,-106.9680066
Duran,New Mexico,17,4,Albuquerque,913388,N/A,0.0%,N/A,N/A,N/A,N/A,82,100.0%,N/A,0.0%,N/A,N/A,0.0%,0.0%,0.0%,Torrance County,28.20%,58.70%,0.0%,0.0%,47.06%,52.94%,0.0%,Mountain Standard Time,89,46,43,57,17,29%,25%,30,45,86,76%,78%,73%,13.63,6.31,1.53,14.82%,23.74%,10.89%,26.6,9,N/A,39.2,90,5625,6.1,4.69,NM-21810,34.4636213,-105.380715
Edgewood,New Mexico,6122,108,Albuquerque,913388,$81227,38.94%,39,$353000,1739,$203,24,89.27%,$938,36.46%,324,1233,8.49%,6.07%,59.01%,Santa Fe County,71.10%,20.10%,0.34%,0.2%,56.19%,35.45%,2.78%,Mountain Standard Time,88,45,43,48,15,29%,25%,30,45,85,76%,78%,73%,15.46,6.52,2.36,17.89%,25.71%,16.56%,12.3,7,N/A,39.2,88,6114,6.3,56.8,NM-22380,35.1317703,-106.2151181
Edith Endave,New Mexico,267,177,Albuquerque,913388,N/A,N/A,N/A,N/A,N/A,N/A,N/A,88.09%,N/A,N/A,N/A,N/A,N/A,N/A,N/A,Bernalillo County,52.20%,34.50%,N/A,N/A,N/A,N/A,N/A,Mountain Standard Time,92,48,44,53,21,29%,25%,30,45,90,76%,78%,73%,9.66,4.06,1.76,13.34%,20.33%,11.11%,9.5,4,N/A,39.2,84,4596,6.3,1.51,NM-22390,35.2104609,-106.5889815
El Cerro,New Mexico,3093,728,Albuquerque,913388,$112174,15.91%,48,N/A,N/A,N/A,36,89.64%,$1045,59.57%,N/A,N/A,3.25%,3.28%,54.35%,Valencia County,39.30%,47.90%,0.0%,0.0%,24.41%,72.94%,0.0%,Mountain Standard Time,94,51,43,63,18,29%,25%,30,45,92,76%,78%,73%,10.53,4.4,1.67,12.74%,20.11%,9.33%,7.4,3,N/A,39.2,76,4446,5.9,4.25,NM-22580,34.7806564,-106.6955186
El Cerro Mission,New Mexico,5101,868,Albuquerque,913388,$49719,7.53%,34,N/A,N/A,N/A,24,86.9%,$1289,43.95%,N/A,N/A,26.15%,17.99%,61.62%,Valencia County,39.30%,47.90%,0.0%,0.0%,19.04%,79.49%,20.76%,Mountain Standard Time,94,51,43,63,18,29%,25%,30,45,92,76%,78%,73%,10.53,4.4,1.67,12.74%,20.11%,9.33%,7.4,3,N/A,39.2,82,4446,5.9,5.88,NM-22582,34.7687328,-106.6446798
Encino,New Mexico,37,19,Albuquerque,913388,N/A,32.26%,52,N/A,N/A,N/A,47,100.0%,N/A,0.0%,N/A,N/A,2.7%,0.0%,54.84%,Torrance County,28.20%,58.70%,0.0%,0.0%,29.73%,70.27%,0.0%,Mountain Standard Time,89,46,43,57,17,29%,25%,30,45,86,76%,78%,73%,13.63,6.31,1.53,14.82%,23.74%,10.89%,26.6,9,N/A,39.2,90,5625,6.1,1.99,NM-24610,34.651828,-105.4585774
Estancia,New Mexico,1399,227,Albuquerque,913388,$34559,8.53%,46,N/A,N/A,N/A,55,85.25%,$823,49.52%,63,378,21.35%,42.56%,48.63%,Torrance County,28.20%,58.70%,0.0%,0.5%,31.45%,62.54%,11.44%,Mountain Standard Time,91,49,42,49,16,29%,25%,30,45,89,76%,78%,73%,12.63,5.62,1.63,16.85%,26.59%,13.67%,37.4,12,N/A,39.2,90,5616,6.1,6.17,NM-25380,34.7666654,-106.0301082
Highland Meadows,New Mexico,332,48,Albuquerque,913388,N/A,8.76%,30,N/A,N/A,N/A,32,78.7%,N/A,93.17%,N/A,N/A,42.77%,14.93%,25.38%,Valencia County,39.30%,47.90%,0.0%,0.0%,56.63%,37.65%,0.0%,Mountain Standard Time,90,49,41,52,17,29%,25%,30,45,88,76%,78%,73%,9.59,4.73,1.59,11.45%,21.1%,7.56%,15.6,3,N/A,39.2,83,5664,5.9,6.93,NM-32148,34.9399782,-107.1655733
Indian Hills,New Mexico,778,136,Albuquerque,913388,$41667,7.53%,36,N/A,N/A,N/A,31,91.6%,N/A,62.9%,N/A,N/A,23.52%,32.92%,54.58%,Torrance County,28.20%,58.70%,0.0%,0.0%,60.15%,39.2%,8.23%,Mountain Standard Time,88,45,43,48,15,29%,25%,30,45,85,76%,78%,73%,15.28,5.92,2.62,20.58%,32.31%,17.33%,12.3,7,N/A,39.2,87,6165,6.1,5.71,NM-34430,34.9831783,-106.139764
Isleta Village Proper,New Mexico,909,1245,Albuquerque,913388,$37224,15.83%,47,N/A,N/A,N/A,39,98.98%,N/A,74.73%,N/A,N/A,15.18%,6.8%,45.19%,Bernalillo County,52.20%,34.50%,0.0%,0.0%,0.0%,16.72%,2.2%,Mountain Standard Time,93,50,43,64,23,29%,25%,30,45,91,76%,78%,73%,9.34,3.92,1.57,15.15%,23.74%,12.11%,7.4,3,N/A,39.2,75,4455,6.3,0.73,NM-34620,34.9042734,-106.6990149
Jarales,New Mexico,1939,222,Albuquerque,913388,$52961,12.28%,58,N/A,N/A,N/A,32,86.0%,$560,33.82%,N/A,N/A,4.09%,0.0%,39.32%,Valencia County,39.30%,47.90%,0.0%,0.0%,25.48%,70.5%,19.08%,Mountain Standard Time,94,51,43,63,18,29%,25%,30,45,92,76%,78%,73%,9.42,3.57,1.72,12.74%,20.11%,9.33%,37.4,12,N/A,39.2,70,4407,5.9,8.72,NM-35110,34.6147284,-106.7630621
Jemez Pueblo,New Mexico,2273,1114,Albuquerque,913388,$59102,13.1%,31,N/A,N/A,N/A,41,86.35%,N/A,72.63%,N/A,N/A,20.9%,3.88%,66.62%,Sandoval County,44.90%,42.00%,0.0%,0.0%,0.18%,0.26%,0.0%,Mountain Standard Time,89,47,42,51,17,29%,25%,30,45,86,76%,78%,73%,15.34,6.29,2.48,14.11%,23.08%,11.67%,5.4,1,N/A,39.2,87,5403,6.3,2.04,NM-35250,35.6066118,-106.7333077
Jemez Springs,New Mexico,318,66,Albuquerque,913388,$97500,43.17%,56,N/A,N/A,N/A,42,98.58%,$1167,51.94%,N/A,N/A,18.55%,9.14%,56.45%,Sandoval County,44.90%,42.00%,0.0%,0.0%,62.89%,31.76%,1.89%,Mountain Standard Time,89,47,42,51,17,29%,25%,30,45,86,76%,78%,73%,14.81,6.27,2.55,31.01%,42.64%,29.78%,110.1,32,N/A,39.2,87,5727,6.3,4.8,NM-35320,35.7730993,-106.6910235
La Cueva,New Mexico,82,50,Albuquerque,913388,$250001,87.84%,59,N/A,N/A,N/A,48,100.0%,N/A,9.76%,N/A,N/A,0.0%,18.18%,40.24%,Sandoval County,44.90%,42.00%,0.0%,0.0%,100.0%,0.0%,0.0%,Mountain Standard Time,89,47,42,51,17,29%,25%,30,45,86,76%,78%,73%,14.81,6.27,2.55,31.01%,42.64%,29.78%,110.1,32,N/A,39.2,87,5727,6.3,1.65,NM-36880,35.8694472,-106.6485069
La Jara,New Mexico,163,11,Albuquerque,913388,N/A,36.81%,71,N/A,N/A,N/A,36,44.85%,N/A,43.56%,N/A,N/A,60.74%,0.0%,0.61%,Sandoval County,44.90%,42.00%,0.0%,0.0%,35.58%,48.47%,20.25%,Mountain Standard Time,87,43,44,47,16,29%,25%,30,45,84,76%,78%,73%,13.89,5.02,2.56,25.95%,26.7%,32.22%,110.1,32,N/A,39.2,93,6318,6.3,14.25,NM-37490,36.1054986,-106.9419089
Las Maravillas,New Mexico,1776,1758,Albuquerque,913388,$61200,23.69%,30,N/A,N/A,N/A,23,82.86%,N/A,65.03%,N/A,N/A,11.71%,5.72%,74.03%,Valencia County,39.30%,47.90%,0.0%,16.61%,39.81%,42.45%,2.42%,Mountain Standard Time,94,51,43,63,18,29%,25%,30,45,92,76%,78%,73%,8.48,3.52,1.3,12.74%,20.11%,9.33%,7.4,3,N/A,39.2,80,4425,5.9,1.01,NM-39430,34.7339487,-106.6690261
Los Chaves,New Mexico,4641,405,Albuquerque,913388,$81320,35.27%,47,N/A,N/A,N/A,33,97.08%,$860,43.72%,N/A,N/A,25.7%,2.52%,53.74%,Valencia County,39.30%,47.90%,0.0%,2.11%,34.99%,57.83%,1.55%,Mountain Standard Time,94,51,43,63,18,29%,25%,30,45,92,76%,78%,73%,8.48,3.52,1.3,12.74%,20.11%,9.33%,7.4,3,N/A,39.2,77,4425,5.9,11.45,NM-42740,34.7334096,-106.7611106
Los Lunas,New Mexico,17932,957,Albuquerque,913388,$63696,27.61%,37,N/A,N/A,N/A,23,75.9%,$1157,53.66%,1286,4074,18.37%,5.44%,49.52%,Valencia County,39.30%,47.90%,1.75%,1.83%,31.92%,57.67%,4.9%,Mountain Standard Time,94,51,43,63,18,29%,25%,30,45,92,76%,78%,73%,8.48,3.52,1.3,12.74%,20.11%,9.33%,7.4,3,N/A,39.2,70,4425,5.9,18.73,NM-43370,34.8115418,-106.7803807
Los Ranchos de Albuquerque,New Mexico,5869,1319,Albuquerque,913388,$70801,51.77%,46,N/A,N/A,N/A,51,81.31%,$990,55.22%,N/A,N/A,12.02%,1.26%,46.94%,Bernalillo County,52.20%,34.50%,0.37%,3.17%,48.1%,42.07%,2.9%,Mountain Standard Time,95,50,45,54,21,29%,25%,30,45,94,76%,78%,73%,9.69,3.87,1.66,9.51%,13.41%,8.0%,12.3,7,N/A,39.2,63,4644,6.3,4.45,NM-43930,35.1625514,-106.6480902
Madrone,New Mexico,345,112,Albuquerque,913388,$18241,0.0%,46,N/A,N/A,N/A,30,53.89%,N/A,68.21%,N/A,N/A,38.55%,3.7%,40.91%,Valencia County,39.30%,47.90%,0.0%,0.0%,20.58%,75.65%,26.96%,Mountain Standard Time,95,52,43,56,18,29%,25%,30,45,92,76%,78%,73%,9.42,3.57,1.72,12.74%,20.11%,9.33%,37.4,12,N/A,39.2,81,4407,5.9,3.08,NM-46170,34.579214,-106.7284799
Manzano Springs,New Mexico,30,13,Albuquerque,913388,N/A,0.0%,37,N/A,N/A,N/A,N/A,100.0%,N/A,36.36%,N/A,N/A,0.0%,0.0%,36.36%,Torrance County,28.20%,58.70%,0.0%,0.0%,26.67%,73.33%,0.0%,Mountain Standard Time,88,45,43,48,15,29%,25%,30,45,85,76%,78%,73%,15.28,5.92,2.62,20.58%,32.31%,17.33%,12.3,7,N/A,39.2,88,6165,6.1,2.28,NM-46770,34.9613571,-106.2326462
McIntosh,New Mexico,1310,56,Albuquerque,913388,$65116,0.0%,37,N/A,N/A,N/A,36,74.12%,N/A,51.71%,N/A,N/A,34.05%,12.45%,44.27%,Torrance County,28.20%,58.70%,0.0%,0.0%,59.16%,26.79%,5.11%,Mountain Standard Time,91,49,42,49,16,29%,25%,30,45,89,76%,78%,73%,12.63,5.62,1.63,16.85%,26.59%,13.67%,37.4,12,N/A,39.2,90,5616,6.1,23.29,NM-46030,34.8819359,-106.0559386
Meadow Lake,New Mexico,3959,343,Albuquerque,913388,$38872,15.77%,37,N/A,N/A,N/A,28,86.76%,$783,49.25%,N/A,N/A,30.21%,6.05%,57.18%,Valencia County,39.30%,47.90%,0.0%,0.51%,13.56%,83.58%,25.94%,Mountain Standard Time,94,51,43,63,18,29%,25%,30,45,92,76%,78%,73%,10.53,4.4,1.67,12.74%,20.11%,9.33%,7.4,3,N/A,39.2,86,4446,5.9,11.54,NM-47220,34.802358,-106.5701496
Monterey Park,New Mexico,814,307,Albuquerque,913388,$28293,7.35%,35,N/A,N/A,N/A,39,98.27%,N/A,68.37%,N/A,N/A,39.23%,12.92%,66.77%,Valencia County,39.30%,47.90%,0.0%,0.0%,0.0%,92.87%,29.12%,Mountain Standard Time,94,51,43,63,18,29%,25%,30,45,92,76%,78%,73%,10.53,4.4,1.67,12.74%,20.11%,9.33%,7.4,3,N/A,39.2,82,4446,5.9,2.65,NM-49515,34.7510737,-106.6530641
Moriarty,New Mexico,2074,299,Albuquerque,913388,$27446,3.28%,32,N/A,N/A,N/A,34,70.57%,$725,63.16%,279,3013,39.99%,16.38%,51.3%,Torrance County,28.20%,58.70%,0.0%,2.56%,40.98%,50.48%,3.18%,Mountain Standard Time,88,45,43,48,15,29%,25%,30,45,85,76%,78%,73%,12.5,5.61,1.56,16.85%,26.59%,13.67%,12.3,7,N/A,39.2,77,5688,6.1,6.94,NM-50160,35.003366,-106.044434
Mountainair,New Mexico,1308,828,Albuquerque,913388,$41678,9.91%,27,N/A,N/A,N/A,51,89.48%,$906,62.08%,N/A,N/A,25.99%,11.01%,45.18%,Torrance County,28.20%,58.70%,0.0%,14.83%,35.55%,53.59%,5.58%,Mountain Standard Time,89,47,42,54,22,29%,25%,30,45,85,76%,78%,73%,13.28,5.82,1.84,19.95%,29.56%,15.89%,37.4,12,N/A,39.2,90,6036,6.1,1.58,NM-50370,34.52119,-106.2393235
North Valley,New Mexico,11474,1651,Albuquerque,913388,$67115,24.25%,45,N/A,N/A,N/A,44,76.68%,$1063,49.24%,N/A,N/A,20.09%,6.32%,54.28%,Bernalillo County,52.20%,34.50%,0.13%,2.88%,36.51%,56.34%,6.36%,Mountain Standard Time,95,50,45,54,21,29%,25%,30,45,94,76%,78%,73%,9.69,3.87,1.66,16.16%,24.84%,12.78%,12.3,7,N/A,39.2,62,4644,6.3,6.95,NM-52750,35.1736553,-106.6230988
Pajarito Mesa,New Mexico,129,6,Albuquerque,913388,N/A,0.0%,19,N/A,N/A,N/A,34,88.39%,N/A,40.22%,N/A,N/A,44.96%,0.0%,45.95%,Bernalillo County,52.20%,34.50%,0.0%,0.0%,0.0%,100.0%,29.46%,Mountain Standard Time,93,50,43,64,23,29%,25%,30,45,91,76%,78%,73%,8.77,3.66,1.42,15.15%,23.74%,12.11%,7.4,3,N/A,39.2,73,4485,6.3,21.27,NM-54940,34.9854982,-106.7817192
Paradise Hills,New Mexico,4662,4571,Albuquerque,913388,$74403,31.0%,44,N/A,N/A,N/A,45,68.81%,$1256,59.87%,N/A,N/A,13.2%,5.77%,55.7%,Bernalillo County,52.20%,34.50%,0.73%,1.76%,49.14%,39.83%,2.38%,Mountain Standard Time,94,49,45,66,25,29%,25%,30,45,92,76%,78%,73%,9.69,4.09,1.55,9.51%,13.41%,8.0%,9.5,4,N/A,39.2,72,4941,6.3,1.02,NM-55270,35.1981434,-106.7023971
Pena Blanca,New Mexico,642,93,Albuquerque,913388,N/A,N/A,N/A,N/A,N/A,N/A,N/A,N/A,N/A,N/A,N/A,N/A,N/A,N/A,N/A,Sandoval County,44.90%,42.00%,N/A,N/A,N/A,N/A,N/A,Mountain Standard Time,N/A,N/A,N/A,N/A,N/A,N/A,N/A,N/A,N/A,N/A,N/A,N/A,N/A,N/A,N/A,N/A,N/A,N/A,N/A,N/A,N/A,N/A,N/A,81,N/A,6.3,6.9,N/A,N/A,N/A
Peralta,New Mexico,3385,762,Albuquerque,913388,$67703,24.79%,39,N/A,N/A,N/A,41,85.91%,$1327,42.03%,613,1031,11.08%,5.11%,63.85%,Valencia County,39.30%,47.90%,0.86%,0.0%,43.25%,46.62%,3.28%,Mountain Standard Time,94,51,43,63,18,29%,25%,30,45,92,76%,78%,73%,10.53,4.4,1.67,12.74%,20.11%,9.33%,7.4,3,N/A,39.2,71,4446,5.9,4.44,NM-56180,34.8283398,-106.6859627
Placitas (Sandoval Cnty),New Mexico,4375,147,Albuquerque,913388,$110268,60.21%,63,N/A,N/A,N/A,21,85.49%,$1869,28.5%,N/A,N/A,1.99%,3.04%,49.3%,Sandoval County,44.90%,42.00%,1.49%,0.0%,74.24%,15.22%,4.75%,Mountain Standard Time,91,46,45,58,23,29%,25%,30,45,89,76%,78%,73%,10.29,4.37,1.57,14.11%,23.08%,11.67%,5.4,1,N/A,39.2,83,5106,6.3,29.72,NM-58070,35.3226435,-106.4436502
Ponderosa,New Mexico,252,28,Albuquerque,913388,$49583,12.5%,54,N/A,N/A,N/A,30,100.0%,N/A,56.38%,N/A,N/A,38.89%,0.0%,49.38%,Sandoval County,44.90%,42.00%,0.0%,0.0%,45.63%,34.13%,9.92%,Mountain Standard Time,89,47,42,51,17,29%,25%,30,45,86,76%,78%,73%,15.34,6.29,2.48,31.01%,42.64%,29.78%,5.4,1,N/A,39.2,84,5403,6.3,9.13,NM-58980,35.6554943,-106.6544586
Ponderosa Pine,New Mexico,1091,135,Albuquerque,913388,$83864,46.6%,56,N/A,N/A,N/A,37,94.79%,N/A,29.9%,N/A,N/A,10.54%,7.36%,39.8%,Bernalillo County,52.20%,34.50%,0.55%,0.0%,80.29%,14.02%,4.49%,Mountain Standard Time,89,45,44,60,27,29%,25%,30,45,86,76%,78%,73%,16.0,6.28,3.36,20.58%,32.31%,17.33%,12.3,7,N/A,39.2,90,7005,6.3,8.07,NM-59120,34.9720192,-106.3369175
Pueblitos,New Mexico,534,250,Albuquerque,913388,$64821,10.55%,40,N/A,N/A,N/A,37,69.27%,N/A,34.86%,N/A,N/A,11.61%,15.31%,73.39%,Valencia County,39.30%,47.90%,0.0%,0.0%,16.85%,81.46%,6.18%,Mountain Standard Time,94,51,43,63,18,29%,25%,30,45,92,76%,78%,73%,9.42,3.57,1.72,12.74%,20.11%,9.33%,37.4,12,N/A,39.2,73,4407,5.9,2.14,NM-59820,34.6108454,-106.7817721
Pueblo of Sandia Village,New Mexico,394,346,Albuquerque,913388,N/A,N/A,N/A,N/A,N/A,N/A,N/A,N/A,N/A,N/A,N/A,N/A,N/A,N/A,N/A,Sandoval County,44.90%,42.00%,N/A,N/A,N/A,N/A,N/A,Mountain Standard Time,N/A,N/A,N/A,N/A,N/A,N/A,N/A,N/A,N/A,N/A,N/A,N/A,N/A,N/A,N/A,N/A,N/A,N/A,N/A,N/A,N/A,N/A,N/A,83,N/A,6.3,1.14,N/A,N/A,N/A
Rio Communities,New Mexico,4924,640,Albuquerque,913388,$46223,20.09%,49,N/A,N/A,N/A,38,70.0%,$870,53.99%,N/A,N/A,15.06%,14.31%,42.02%,Valencia County,39.30%,47.90%,1.73%,3.61%,37.41%,49.07%,9.65%,Mountain Standard Time,94,51,43,63,18,29%,25%,30,45,92,76%,78%,73%,9.42,3.57,1.72,12.74%,20.11%,9.33%,37.4,12,N/A,39.2,77,4407,5.9,7.69,NM-63145,34.6459515,-106.7163626
Rio Rancho,New Mexico,1626,16,Albuquerque,913388,$90172,22.49%,45,N/A,N/A,N/A,22,88.59%,N/A,49.05%,190,1483,20.42%,3.98%,56.65%,Sandoval County,44.90%,42.00%,0.0%,2.83%,26.32%,68.82%,9.16%,Mountain Standard Time,96,50,46,65,24,29%,25%,30,45,95,76%,78%,73%,9.19,3.7,1.48,13.34%,20.33%,11.11%,9.5,4,N/A,39.2,69,5208,6.3,103.36,NM-63530,35.3003867,-106.7984907
San Antonito (Bernalillo Cnty),New Mexico,706,289,Albuquerque,913388,$61250,53.54%,57,N/A,N/A,N/A,38,95.22%,N/A,40.93%,N/A,N/A,22.24%,7.03%,56.48%,Bernalillo County,52.20%,34.50%,0.0%,0.0%,56.66%,34.42%,2.83%,Mountain Standard Time,89,45,44,60,27,29%,25%,30,45,86,76%,78%,73%,14.05,5.11,3.18,21.59%,32.64%,18.33%,12.3,7,N/A,39.2,88,6303,6.3,2.44,NM-66330,35.1575187,-106.3475117
San Felipe Pueblo,New Mexico,1420,119,Albuquerque,913388,$55385,4.71%,36,N/A,N/A,N/A,42,82.74%,N/A,78.99%,N/A,N/A,19.23%,26.27%,51.94%,Sandoval County,44.90%,42.00%,0.0%,0.0%,0.0%,0.7%,0.0%,Mountain Standard Time,93,47,46,64,21,29%,25%,30,45,91,76%,78%,73%,11.3,4.4,1.95,14.11%,23.08%,11.67%,5.4,1,N/A,39.2,84,5571,6.3,11.98,NM-67450,35.4337778,-106.4250152
San Ysidro,New Mexico,190,81,Albuquerque,913388,N/A,12.1%,52,$332000,2322,$143,47,54.34%,$1518,63.53%,502,0,41.3%,0.0%,30.25%,Sandoval County,44.90%,42.00%,0.0%,0.0%,20.0%,64.74%,0.0%,Mountain Standard Time,89,47,42,51,17,29%,25%,30,45,86,76%,78%,73%,15.34,6.29,2.48,14.11%,23.08%,11.67%,5.4,1,N/A,39.2,87,5403,6.3,2.34,NM-71020,35.5605531,-106.7735026
Sandia Heights,New Mexico,3083,1631,Albuquerque,913388,$151538,72.18%,63,N/A,N/A,N/A,36,97.24%,$3000,27.55%,N/A,N/A,4.47%,0.94%,43.06%,Bernalillo County,52.20%,34.50%,4.44%,0.0%,74.96%,12.0%,4.77%,Mountain Standard Time,89,45,44,60,27,29%,25%,30,45,86,76%,78%,73%,11.1,4.22,2.18,16.99%,25.71%,13.78%,12.3,7,N/A,39.2,84,5448,6.3,1.89,NM-66765,35.1746271,-106.4884096
Sandia Knolls,New Mexico,1436,513,Albuquerque,913388,$102801,43.79%,46,N/A,N/A,N/A,35,84.37%,$1030,53.61%,N/A,N/A,2.51%,2.27%,68.58%,Bernalillo County,52.20%,34.50%,0.49%,0.0%,75.28%,21.24%,2.99%,Mountain Standard Time,89,45,44,60,27,29%,25%,30,45,86,76%,78%,73%,13.03,5.26,2.32,21.59%,32.64%,18.33%,12.3,7,N/A,39.2,90,6228,6.3,2.8,NM-66890,35.160434,-106.2987514
Sandia Park,New Mexico,383,525,Albuquerque,913388,$134118,62.86%,42,N/A,N/A,N/A,45,94.74%,N/A,44.11%,N/A,N/A,0.0%,0.0%,61.28%,Bernalillo County,52.20%,34.50%,5.22%,0.0%,90.34%,4.44%,5.74%,Mountain Standard Time,89,45,44,60,27,29%,25%,30,45,86,76%,78%,73%,15.54,5.23,3.97,21.59%,32.64%,18.33%,12.3,7,N/A,39.2,88,6204,6.3,0.73,NM-66960,35.1647705,-106.3657445
Santa Ana Pueblo,New Mexico,1028,139,Albuquerque,913388,$72188,10.95%,34,N/A,N/A,N/A,33,88.98%,N/A,72.34%,N/A,N/A,6.5%,4.14%,69.05%,Sandoval County,44.90%,42.00%,0.0%,0.0%,0.0%,2.63%,0.29%,Mountain Standard Time,93,47,46,64,21,29%,25%,30,45,91,76%,78%,73%,8.37,3.43,1.34,14.11%,23.08%,11.67%,5.4,1,N/A,39.2,83,4926,6.3,7.38,NM-70250,35.3495712,-106.5201655
Santo Domingo Pueblo,New Mexico,2162,1060,Albuquerque,913388,$85865,3.22%,31,N/A,N/A,N/A,54,92.5%,N/A,79.47%,N/A,N/A,17.9%,8.79%,58.62%,Sandoval County,44.90%,42.00%,0.0%,0.0%,0.0%,29.51%,0.0%,Mountain Standard Time,94,50,44,57,19,29%,25%,30,45,92,76%,78%,73%,12.16,4.84,1.95,14.11%,23.08%,11.67%,5.4,1,N/A,39.2,81,5085,6.3,2.04,NM-70810,35.5175072,-106.3669504
Sausal,New Mexico,783,346,Albuquerque,913388,$95705,12.91%,28,N/A,N/A,N/A,28,79.4%,$800,56.18%,N/A,N/A,13.79%,16.67%,53.13%,Valencia County,39.30%,47.90%,0.0%,0.0%,22.48%,77.52%,0.0%,Mountain Standard Time,94,51,43,63,18,29%,25%,30,45,92,76%,78%,73%,9.42,3.57,1.72,12.74%,20.11%,9.33%,7.4,3,N/A,39.2,63,4407,5.9,2.26,NM-71145,34.6803558,-106.7589908
Sedillo,New Mexico,610,222,Albuquerque,913388,$139375,61.52%,37,N/A,N/A,N/A,20,95.04%,N/A,42.86%,N/A,N/A,2.95%,0.0%,58.1%,Bernalillo County,52.20%,34.50%,0.0%,0.0%,62.79%,37.21%,0.0%,Mountain Standard Time,89,45,44,60,27,29%,25%,30,45,86,76%,78%,73%,14.34,5.13,3.18,21.59%,32.64%,18.33%,12.3,7,N/A,39.2,89,6426,6.3,2.75,NM-71700,35.090625,-106.2869353
South Valley,New Mexico,36605,1261,Albuquerque,913388,$51062,14.73%,41,N/A,N/A,N/A,52,74.77%,$942,56.07%,N/A,N/A,19.2%,5.54%,54.93%,Bernalillo County,52.20%,34.50%,0.21%,1.04%,15.82%,80.82%,14.35%,Mountain Standard Time,93,50,43,64,23,29%,25%,30,45,91,76%,78%,73%,9.57,3.82,1.59,14.85%,23.19%,12.44%,7.4,3,N/A,39.2,58,4530,6.3,29.02,NM-74520,35.0093511,-106.681947
Tajique,New Mexico,156,58,Albuquerque,913388,N/A,0.0%,58,N/A,N/A,N/A,N/A,53.67%,N/A,42.31%,N/A,N/A,14.74%,0.0%,74.36%,Torrance County,28.20%,58.70%,0.0%,0.0%,0.0%,100.0%,14.74%,Mountain Standard Time,89,46,43,50,19,29%,25%,30,45,85,76%,78%,73%,12.7,5.14,1.62,19.95%,29.56%,15.89%,37.4,12,N/A,39.2,90,5757,6.1,2.7,NM-76060,34.7600392,-106.3010199
Tijeras,New Mexico,483,427,Albuquerque,913388,$75398,22.83%,52,N/A,N/A,N/A,39,72.57%,$919,37.88%,N/A,N/A,17.75%,5.88%,55.81%,Bernalillo County,52.20%,34.50%,0.0%,0.0%,41.41%,56.73%,2.9%,Mountain Standard Time,89,45,44,60,27,29%,25%,30,45,86,76%,78%,73%,14.51,5.71,2.91,21.59%,32.64%,18.33%,12.3,7,N/A,39.2,88,5826,6.3,1.13,NM-77880,35.0883757,-106.376202
Tome,New Mexico,1525,276,Albuquerque,913388,$84243,17.87%,60,N/A,N/A,N/A,36,79.87%,N/A,50.79%,N/A,N/A,4.17%,1.8%,57.55%,Valencia County,39.30%,47.90%,1.64%,0.0%,58.36%,39.93%,5.38%,Mountain Standard Time,94,51,43,63,18,29%,25%,30,45,92,76%,78%,73%,8.48,3.52,1.3,12.74%,20.11%,9.33%,7.4,3,N/A,39.2,76,4425,5.9,5.52,NM-78650,34.7389864,-106.7251534
Torreon (Sandoval Cnty),New Mexico,594,43,Albuquerque,913388,N/A,7.63%,28,N/A,N/A,N/A,40,90.4%,N/A,50.45%,N/A,N/A,28.32%,4.04%,51.26%,Sandoval County,44.90%,42.00%,0.0%,0.0%,22.73%,7.07%,2.69%,Mountain Standard Time,90,43,47,58,16,29%,25%,30,45,88,76%,78%,73%,11.29,4.47,1.79,15.34%,21.54%,15.0%,110.1,32,N/A,39.2,92,6126,6.3,13.88,NM-79070,35.7931536,-107.212402
Torreon (Torrance Cnty),New Mexico,150,18,Albuquerque,913388,$41573,0.0%,36,N/A,N/A,N/A,32,100.0%,N/A,30.69%,N/A,N/A,0.0%,0.0%,30.69%,Torrance County,28.20%,58.70%,0.0%,0.0%,100.0%,0.0%,0.0%,Mountain Standard Time,89,46,43,50,19,29%,25%,30,45,85,76%,78%,73%,16.46,6.67,2.71,19.95%,29.56%,15.89%,37.4,12,N/A,39.2,90,6102,6.1,8.28,NM-79140,34.7241961,-106.3007833
Valencia,New Mexico,2219,1121,Albuquerque,913388,$70521,25.38%,35,N/A,N/A,N/A,39,84.31%,$676,62.11%,N/A,N/A,24.02%,9.58%,54.18%,Valencia County,39.30%,47.90%,0.0%,0.0%,35.83%,64.17%,2.84%,Mountain Standard Time,94,51,43,63,18,29%,25%,30,45,92,76%,78%,73%,10.53,4.4,1.67,12.74%,20.11%,9.33%,7.4,3,N/A,39.2,71,4446,5.9,1.98,NM-81800,34.8052973,-106.6869111
Willard,New Mexico,246,267,Albuquerque,913388,N/A,37.66%,38,N/A,N/A,N/A,49,82.26%,N/A,59.05%,N/A,N/A,19.51%,15.83%,53.1%,Torrance County,28.20%,58.70%,0.0%,0.0%,4.07%,90.24%,0.0%,Mountain Standard Time,89,47,42,54,22,29%,25%,30,45,85,76%,78%,73%,12.7,5.14,1.62,19.95%,29.56%,15.89%,37.4,12,N/A,39.2,90,5757,6.1,0.92,NM-85160,34.5948791,-106.032289
Zia Pueblo,New Mexico,793,29,Albuquerque,913388,$56250,7.32%,29,N/A,N/A,N/A,37,86.98%,N/A,76.2%,N/A,N/A,8.32%,9.48%,60.31%,Sandoval County,44.90%,42.00%,0.25%,0.0%,0.0%,1.89%,0.0%,Mountain Standard Time,93,47,46,64,21,29%,25%,30,45,91,76%,78%,73%,15.34,6.29,2.48,14.11%,23.08%,11.67%,5.4,1,N/A,39.2,87,5403,6.3,27.03,NM-86420,35.5200144,-106.7149409
