City,State,Population,People per sq mi,Metro Name,Metro population,Median household income,% with at least Bachelor's degree,Median age,Median home price,Median home sqft,Median home cost per sqft,Median home age,Homeownership Rate,Avg Apartment Monthly Rent,Single Population,Num Violent Crimes Per 100k residents,Num Property Crimes Per 100k residents,Poverty Rate,Unemployment rate,Labor Force Participation rate,County,% Democrat,% Republican,% Asian,% Black,% Non-Hispanic White,% Hispanic,Foreign Born %,Timezone,Hottest month's avg high (F),Coldest month's avg high (F),Hottest high minus coldest high,Annual rainfall (in),Annual days of precipitation,Annual snowfall (in),Avg Summer Dew Point,Avg Annual Dew Point,Average yearly windspeed (mph),Air quality Index,Elevation (ft),UV Index,Land Area (sq mi),Fips Code,Latitude,Longitude,Annual Sunshine - Percentage of Possible,Summer Sunshine - Percentage of Possible,Winter Sunshine - Percentage of Possible
Asheville,North Carolina,92328,2031,Asheville,466634,$53621,49.93%,40,$444000,1500,$296,45,50.86%,$1084,59.82%,742,6325,13.28%,3.66%,64.01%,Buncombe County,54.30%,40.10%,1.52%,11.11%,77.72%,6.73%,7.34%,Eastern Standard Time,84,47,37,44,118,10,62.9,45.6,5,62,2207,4.8,45.47,NC-02140,35.5706235,-82.5537152,59%,59%,57%
Avery Creek,North Carolina,3256,1882,Asheville,466634,$90333,42.29%,41,$570000,2664,$214,25,91.34%,$1250,58.13%,N/A,N/A,2.4%,2.47%,78.15%,Buncombe County,54.30%,40.10%,1.5%,16.55%,81.94%,0.0%,9.0%,Eastern Standard Time,83,48,35,48,125,9,62.8,45.4,N/A,76,2207,4.8,1.73,NC-02760,35.4650809,-82.5718462,59%,59%,57%
Balfour,North Carolina,1177,727,Asheville,466634,$60833,50.64%,40,$354000,1445,$245,47,87.6%,$763,50.44%,N/A,N/A,9.35%,0.0%,65.49%,Henderson County,34.10%,61.60%,0.0%,1.87%,85.73%,11.21%,8.84%,Eastern Standard Time,84,48,36,50,127,8,63,45.6,N/A,66,2207,4.8,1.62,NC-03220,35.3493637,-82.4824607,59%,59%,57%
Barker Heights,North Carolina,1289,1302,Asheville,466634,$31472,6.48%,45,N/A,N/A,N/A,64,43.83%,$733,47.14%,N/A,N/A,31.03%,0.0%,61.35%,Henderson County,34.10%,61.60%,1.24%,10.78%,63.23%,21.8%,14.27%,Eastern Standard Time,84,48,36,50,125,9,63,45.6,N/A,65,2207,4.8,0.99,NC-03640,35.3104215,-82.4411941,59%,59%,57%
Bent Creek,North Carolina,1652,748,Asheville,466634,$82629,37.86%,42,$505000,2053,$246,46,96.6%,$1304,47.37%,N/A,N/A,3.95%,7.91%,73.64%,Buncombe County,54.30%,40.10%,0.73%,0.06%,84.75%,13.5%,10.65%,Eastern Standard Time,84,47,37,44,114,10,62.8,45.4,N/A,73,2207,4.8,2.21,NC-05049,35.5081282,-82.6176988,59%,59%,57%
Biltmore Forest,North Carolina,1679,577,Asheville,466634,$164000,84.28%,50,N/A,N/A,N/A,61,94.52%,$1104,33.97%,0,1134,2.56%,1.93%,49.59%,Buncombe County,54.30%,40.10%,1.43%,0.0%,96.84%,0.54%,3.51%,Eastern Standard Time,83,48,35,44,122,10,62.8,45.4,5,73,2207,4.8,2.91,NC-05880,35.5348068,-82.5403422,59%,59%,57%
Black Mountain,North Carolina,8177,1219,Asheville,466634,$55975,57.13%,60,$555000,1907,$291,36,67.86%,$1228,49.96%,97,2308,3.91%,2.08%,44.46%,Buncombe County,54.30%,40.10%,0.17%,2.9%,94.68%,1.31%,2.59%,Eastern Standard Time,84,48,36,45,126,12,62.4,44.8,5,82,2207,4.8,6.71,NC-06140,35.614286,-82.3273949,59%,59%,57%
Canton,North Carolina,4313,1159,Asheville,466634,$47899,11.1%,42,$455000,2630,$173,67,65.12%,$676,53.55%,367,5196,8.58%,7.69%,60.62%,Haywood County,34.10%,61.60%,0.0%,0.79%,94.37%,3.45%,2.99%,Eastern Standard Time,82,47,35,47,138,11,62,44.6,5,74,2207,4.7,3.72,NC-10240,35.5363877,-82.8384786,59%,59%,57%
Clyde,North Carolina,1483,1705,Asheville,466634,$57721,20.97%,39,$299000,1384,$216,34,86.11%,$837,43.22%,N/A,N/A,6.74%,1.77%,67.54%,Haywood County,34.10%,61.60%,0.0%,0.07%,79.1%,20.84%,5.39%,Eastern Standard Time,81,47,34,47,138,11,61.2,44,5,79,2207,4.7,0.87,NC-13280,35.5330767,-82.9108065,59%,59%,57%
Dana,North Carolina,3830,430,Asheville,466634,$47547,15.79%,37,$481000,2021,$238,32,78.77%,$810,41.99%,N/A,N/A,14.88%,3.28%,63.77%,Henderson County,34.10%,61.60%,0.0%,3.03%,68.36%,27.1%,10.5%,Eastern Standard Time,84,48,36,50,125,9,63,45.6,5,75,2207,4.8,8.9,NC-16220,35.3239527,-82.3722239,59%,59%,57%
East Flat Rock,North Carolina,6108,1427,Asheville,466634,$50784,13.89%,34,$285000,1113,$256,36,50.24%,$778,55.03%,N/A,N/A,12.69%,3.9%,73.4%,Henderson County,34.10%,61.60%,1.67%,4.75%,69.56%,23.84%,14.29%,Eastern Standard Time,84,48,36,53,127,8,63.8,46.1,5,71,2207,4.8,4.28,NC-19420,35.2801953,-82.4170072,59%,59%,57%
Edneyville,North Carolina,2782,259,Asheville,466634,$73859,23.38%,34,N/A,N/A,N/A,29,64.88%,$738,46.36%,N/A,N/A,19.91%,0.99%,75.31%,Henderson County,34.10%,61.60%,1.22%,2.01%,79.26%,17.51%,4.82%,Eastern Standard Time,84,48,36,50,125,9,63,45.6,5,77,2207,4.8,10.74,NC-20280,35.4024935,-82.3371593,59%,59%,57%
Etowah,North Carolina,7840,444,Asheville,466634,$64892,27.17%,56,$458000,1810,$253,29,88.24%,$824,28.06%,N/A,N/A,3.39%,0.67%,51.1%,Henderson County,34.10%,61.60%,1.67%,2.16%,85.28%,2.93%,3.55%,Eastern Standard Time,84,48,36,55,128,8,62.9,45.7,5,79,2207,4.8,17.66,NC-21880,35.3060965,-82.5902072,59%,59%,57%
Fairview,North Carolina,2741,441,Asheville,466634,$58966,32.72%,35,$569000,2332,$244,29,80.37%,$567,38.99%,N/A,N/A,9.48%,3.33%,59.75%,Buncombe County,54.30%,40.10%,0.0%,0.0%,92.78%,7.22%,0.44%,Eastern Standard Time,84,48,36,44,125,11,62.8,45.5,5,78,2207,4.8,6.22,NC-22440,35.5225181,-82.4013093,59%,59%,57%
Flat Rock,North Carolina,3354,414,Asheville,466634,$90642,60.42%,64,$433000,2033,$213,28,93.37%,$1664,24.34%,N/A,N/A,4.29%,6.07%,42.36%,Henderson County,34.10%,61.60%,0.03%,0.0%,99.31%,0.45%,2.42%,Eastern Standard Time,84,48,36,52,126,9,63.6,45.4,5,73,2207,4.8,8.1,NC-23600,35.267776,-82.452637,59%,59%,57%
Fletcher,North Carolina,8287,1295,Asheville,466634,$62007,32.73%,45,$375000,1682,$223,21,83.92%,$1108,44.08%,N/A,N/A,7.92%,1.93%,60.13%,Henderson County,34.10%,61.60%,3.37%,4.8%,85.78%,5.8%,7.05%,Eastern Standard Time,83,48,35,48,125,9,62.5,45.4,5,66,2207,4.8,6.4,NC-23760,35.4315762,-82.5038102,59%,59%,57%
Fruitland,North Carolina,2216,276,Asheville,466634,$41419,19.78%,55,$452000,1548,$292,30,79.45%,$672,37.92%,N/A,N/A,8.07%,1.79%,47.47%,Henderson County,34.10%,61.60%,2.53%,5.82%,81.77%,8.84%,4.38%,Eastern Standard Time,84,48,36,50,125,9,63,45.6,N/A,75,2207,4.8,8.04,NC-25160,35.3927449,-82.4119389,59%,59%,57%
Gerton,North Carolina,258,69,Asheville,466634,$43750,47.92%,49,N/A,N/A,N/A,62,84.11%,N/A,44.18%,N/A,N/A,9.3%,0.0%,42.97%,Henderson County,34.10%,61.60%,0.0%,0.0%,100.0%,0.0%,0.0%,Eastern Standard Time,84,48,36,48,125,9,62.6,44.9,5,77,2207,4.8,3.72,NC-25900,35.4757849,-82.3504088,59%,59%,57%
Hendersonville,North Carolina,14020,1892,Asheville,466634,$41185,36.11%,51,$360000,1579,$228,41,44.58%,$943,53.1%,428,4777,18.94%,1.75%,51.94%,Henderson County,34.10%,61.60%,1.18%,7.95%,81.25%,7.01%,5.35%,Eastern Standard Time,84,48,36,52,126,9,63,45.6,5,66,2207,4.8,7.41,NC-30720,35.324627,-82.4572947,59%,59%,57%
Hoopers Creek,North Carolina,1392,201,Asheville,466634,$55286,26.53%,42,$539000,1599,$337,27,84.7%,$946,37.04%,N/A,N/A,6.94%,7.12%,52.36%,Henderson County,34.10%,61.60%,0.0%,0.0%,97.92%,2.08%,0.0%,Eastern Standard Time,83,48,35,48,125,9,63,45.6,N/A,73,2207,4.8,6.94,NC-32580,35.4480366,-82.4293421,59%,59%,57%
Horse Shoe,North Carolina,2174,291,Asheville,466634,$69464,35.36%,48,$457000,2285,$200,28,88.32%,$866,32.51%,N/A,N/A,12.59%,6.05%,55.26%,Henderson County,34.10%,61.60%,0.0%,2.48%,95.35%,0.87%,4.09%,Eastern Standard Time,84,48,36,52,129,9,62.9,45.6,5,76,2207,4.8,7.46,NC-32740,35.342298,-82.5568863,59%,59%,57%
Hot Springs,North Carolina,530,185,Asheville,466634,$34271,26.43%,47,$380000,1735,$219,55,66.47%,$490,50.0%,N/A,N/A,27.17%,1.67%,50.96%,Madison County,34.80%,60.20%,0.0%,0.0%,99.25%,0.0%,0.0%,Eastern Standard Time,86,47,39,42,127,15,62,44.7,5,81,2207,4.5,2.87,NC-32840,35.8933874,-82.8302714,59%,59%,57%
Lake Junaluska,North Carolina,3252,611,Asheville,466634,$73441,40.74%,48,$524000,2569,$204,43,87.02%,$790,41.12%,N/A,N/A,4.7%,5.28%,59.37%,Haywood County,34.10%,61.60%,0.0%,0.0%,98.4%,0.0%,1.08%,Eastern Standard Time,81,47,34,48,138,11,61.9,44.5,5,83,2207,4.7,5.32,NC-36480,35.5305142,-82.9748239,59%,59%,57%
Laurel Park,North Carolina,2533,905,Asheville,466634,$73916,56.66%,61,$628000,3124,$201,38,87.22%,$871,40.48%,N/A,N/A,4.93%,1.86%,46.91%,Henderson County,34.10%,61.60%,0.59%,1.82%,93.05%,4.54%,4.7%,Eastern Standard Time,84,49,35,55,128,8,63,45.6,5,73,2207,4.8,2.8,NC-37160,35.3117993,-82.5039196,59%,59%,57%
Maggie Valley,North Carolina,1843,555,Asheville,466634,$52836,38.31%,55,$344000,1502,$229,23,80.79%,$861,46.59%,1138,8373,6.62%,4.94%,52.53%,Haywood County,34.10%,61.60%,0.0%,0.27%,90.34%,7.98%,4.29%,Eastern Standard Time,81,47,34,48,137,11,61.1,43.9,5,85,2207,4.7,3.32,NC-40600,35.5210628,-83.0464685,59%,59%,57%
Mars Hill,North Carolina,3035,1525,Asheville,466634,$56000,46.73%,25,$490000,1546,$317,44,55.37%,$939,67.7%,N/A,N/A,18.22%,5.19%,50.27%,Madison County,34.80%,60.20%,0.79%,6.52%,86.1%,5.44%,5.93%,Eastern Standard Time,84,47,37,45,130,15,62.5,45,5,80,2207,4.5,1.99,NC-41620,35.828195,-82.548823,59%,59%,57%
Marshall,North Carolina,658,165,Asheville,466634,$34583,25.05%,41,$313000,1237,$253,46,73.24%,$415,59.15%,N/A,N/A,22.35%,1.29%,54.44%,Madison County,34.80%,60.20%,0.61%,0.76%,91.34%,1.37%,0.15%,Eastern Standard Time,84,47,37,40,127,17,63.9,46.3,5,79,2207,4.5,3.98,NC-41580,35.7972777,-82.681804,59%,59%,57%
Mills River,North Carolina,7319,328,Asheville,466634,$66223,39.59%,46,$940000,3275,$287,28,80.3%,$1046,44.39%,N/A,N/A,6.87%,1.77%,60.43%,Henderson County,34.10%,61.60%,2.45%,4.4%,86.8%,2.31%,6.11%,Eastern Standard Time,83,47,36,48,130,9,62.9,45.6,5,78,2207,4.8,22.31,NC-43260,35.3852999,-82.5854149,59%,59%,57%
Montreat,North Carolina,362,133,Asheville,466634,$190750,83.78%,20,N/A,N/A,N/A,66,100.0%,N/A,88.4%,N/A,N/A,0.0%,16.08%,41.16%,Buncombe County,54.30%,40.10%,4.97%,3.59%,81.22%,3.04%,8.56%,Eastern Standard Time,83,47,36,45,126,12,61.4,43.8,5,82,2207,4.8,2.73,NC-44100,35.6478051,-82.3000189,59%,59%,57%
Mountain Home,North Carolina,4352,1154,Asheville,466634,$45667,23.78%,44,$476000,1859,$256,39,72.64%,$931,36.87%,N/A,N/A,12.61%,1.98%,67.9%,Henderson County,34.10%,61.60%,0.0%,0.55%,76.06%,20.82%,15.44%,Eastern Standard Time,84,48,36,50,128,8,62.7,45.2,5,70,2207,4.8,3.77,NC-44700,35.3707569,-82.502117,59%,59%,57%
Royal Pines,North Carolina,4499,1660,Asheville,466634,$84415,50.28%,48,$555000,2456,$226,43,88.82%,$1100,35.39%,N/A,N/A,3.98%,0.0%,65.89%,Buncombe County,54.30%,40.10%,8.8%,0.0%,84.35%,5.16%,6.96%,Eastern Standard Time,83,48,35,47,125,9,62.8,45.4,5,69,2207,4.8,2.71,NC-58260,35.4782966,-82.5038099,59%,59%,57%
Saluda,North Carolina,779,499,Asheville,466634,$42197,45.17%,64,N/A,N/A,N/A,60,73.88%,$946,44.16%,N/A,N/A,22.06%,5.41%,42.53%,Polk County,34.20%,61.90%,0.9%,3.21%,92.94%,1.67%,1.67%,Eastern Standard Time,84,47,37,50,125,9,63.7,46.2,5,71,2207,5,1.56,NC-58920,35.2375204,-82.3469039,59%,59%,57%
Swannanoa,North Carolina,4360,683,Asheville,466634,$45000,16.25%,38,$350000,1341,$261,43,61.92%,$641,55.33%,N/A,N/A,24.96%,1.8%,51.69%,Buncombe County,54.30%,40.10%,0.0%,3.69%,74.29%,19.91%,5.64%,Eastern Standard Time,84,48,36,44,125,10,62.5,45.4,5,81,2207,4.8,6.38,NC-66280,35.6009674,-82.3916522,59%,59%,57%
Valley Hill,North Carolina,2215,955,Asheville,466634,$75372,43.57%,58,N/A,N/A,N/A,45,67.39%,$1252,30.51%,N/A,N/A,7.42%,0.0%,67.18%,Henderson County,34.10%,61.60%,0.0%,0.18%,80.09%,17.65%,5.37%,Eastern Standard Time,84,49,35,55,128,8,63,45.6,N/A,73,2207,4.8,2.32,NC-69640,35.2958549,-82.4912649,59%,59%,57%
Waynesville,North Carolina,10145,1146,Asheville,466634,$40911,28.03%,45,$286000,1324,$216,48,51.63%,$794,48.49%,611,6751,20.39%,2.33%,56.36%,Haywood County,34.10%,61.60%,0.62%,2.69%,89.08%,4.17%,3.33%,Eastern Standard Time,81,47,34,47,138,11,61.9,44.5,5,80,2207,4.7,8.85,NC-71500,35.4854782,-82.9995028,59%,59%,57%
Weaverville,North Carolina,3956,1028,Asheville,466634,$71806,58.86%,55,$483000,1996,$242,30,80.08%,$1506,39.75%,99,3812,5.07%,1.32%,60.32%,Buncombe County,54.30%,40.10%,0.61%,0.25%,96.97%,0.58%,1.92%,Eastern Standard Time,84,47,37,41,126,14,63.6,46.2,5,74,2207,4.8,3.85,NC-71560,35.6963345,-82.5586058,59%,59%,57%
West Canton,North Carolina,1432,1045,Asheville,466634,$31833,9.28%,42,N/A,N/A,N/A,48,75.77%,$691,50.33%,N/A,N/A,17.18%,7.57%,58.87%,Haywood County,34.10%,61.60%,1.26%,0.77%,95.81%,0.0%,1.26%,Eastern Standard Time,82,47,35,47,138,11,61.7,44.3,N/A,75,2207,4.7,1.37,NC-72150,35.5383888,-82.8670837,59%,59%,57%
Woodfin,North Carolina,6689,728,Asheville,466634,$50794,36.97%,39,$500000,1597,$313,31,54.81%,$1167,55.43%,N/A,N/A,20.89%,2.81%,57.55%,Buncombe County,54.30%,40.10%,4.02%,2.12%,77.49%,12.9%,8.73%,Eastern Standard Time,85,47,38,41,114,10,63.5,46,5,65,2207,4.8,9.19,NC-75280,35.6456102,-82.5914046,59%,59%,57%
