City,State,Population,People per sq mi,Metro Name,Metro population,Median household income,% with at least Bachelor's degree,Median age,Median home price,Median home sqft,Median home cost per sqft,Median home age,Homeownership Rate,Avg Apartment Monthly Rent,Single Population,Num Violent Crimes Per 100k residents,Num Property Crimes Per 100k residents,Poverty Rate,Unemployment rate,Labor Force Participation rate,County,% Democrat,% Republican,% Asian,% Black,% Non-Hispanic White,% Hispanic,Foreign Born %,Timezone,Hottest month's avg high (F),Coldest month's avg high (F),Hottest high minus coldest high,Hottest month's avg low (F),Coldest month's avg low (F),Annual Relative Humidity (afternoon),Summer Relative Humidity (afternoon),Annual dew point (F),Average summer dew point (F),Hottest month's avg heat index high (F),Annual Sunshine - Percentage of Possible,Summer Sunshine - Percentage of Possible,Winter Sunshine - Percentage of Possible,Annual rainfall (in),Summer rainfall (in),Winter rainfall (in),Percent of days that include precipitation,Percent of Summer days that include precipitation,Percent of Winter days that include precipitation,Annual snowfall (in),Days of snow per year,Average yearly windspeed (mph),Number of days with thunder per year,Air quality Index,Elevation (ft),UV Index,Land Area (sq mi),Fips Code,Latitude,Longitude
Acworth,Georgia,22330,2476,Atlanta-Sandy Springs-Roswell,6026734,$72788,32.54%,36,$375000,1953,$192,23,62.43%,$1304,51.92%,69,1906,8.6%,4.06%,70.49%,Cobb County,47.90%,45.80%,2.32%,23.88%,53.78%,16.12%,17.17%,Eastern Standard Time,90,53,37,68,31,55%,57%,49,66,99,60%,63%,53%,54.11,12.91,15.68,32.58%,36.04%,36.67%,3.0,0,8.3,49.0,51,939,4.9,9.02,GA-00408,34.0565353,-84.6717462
Adairsville,Georgia,4856,519,Atlanta-Sandy Springs-Roswell,6026734,$75964,23.07%,40,$309000,1956,$158,21,74.83%,$1175,44.76%,141,1675,10.13%,1.87%,60.47%,Bartow County,20.70%,75.30%,0.0%,8.03%,64.04%,9.56%,1.13%,Eastern Standard Time,91,53,38,69,32,55%,57%,49,66,101,60%,63%,53%,50.89,10.16,15.85,33.53%,35.38%,39.89%,3.0,0,8.3,49.0,54,873,5.3,9.36,GA-00436,34.3708462,-84.921195
Aldora,Georgia,12,50,Atlanta-Sandy Springs-Roswell,6026734,$31250,0.0%,39,N/A,N/A,N/A,77,0.0%,$700,50.0%,N/A,N/A,33.33%,25.0%,80.0%,Lamar County,29.80%,68.20%,0.0%,0.0%,100.0%,0.0%,0.0%,Eastern Standard Time,91,57,34,70,35,52%,54%,53,69,99,63%,67%,56%,51.83,13.1,16.15,35.51%,38.46%,38.67%,2.0,0,5.9,53.1,58,705,5.4,0.24,GA-01248,33.0509282,-84.17597
Alpharetta,Georgia,65187,2423,Atlanta-Sandy Springs-Roswell,6026734,$133920,70.53%,40,$735000,2860,$257,25,71.1%,$1589,37.54%,111,1470,4.28%,4.78%,71.83%,Fulton County,67.70%,26.80%,22.23%,12.07%,53.56%,7.6%,27.14%,Eastern Standard Time,90,52,38,70,33,55%,57%,49,66,99,60%,63%,53%,54.17,13.85,15.16,33.59%,37.8%,37.44%,3.0,0,8.3,49.0,51,936,5.1,26.9,GA-01696,34.0703768,-84.2738383
Atlanta,Georgia,492204,3638,Atlanta-Sandy Springs-Roswell,6026734,$69164,55.64%,33,$400000,1444,$277,36,47.08%,$1342,69.21%,N/A,N/A,18.52%,6.12%,66.45%,Fulton County,67.70%,26.80%,5.01%,48.19%,39.07%,5.05%,8.34%,Eastern Standard Time,90,54,36,70,33,55%,57%,49,66,99,60%,63%,53%,51.39,13.48,14.17,32.99%,37.14%,36.44%,2.0,0,8.3,49.0,32,834,5.1,135.31,GA-04000,33.7628064,-84.4220411
Auburn,Georgia,7424,1100,Atlanta-Sandy Springs-Roswell,6026734,$66551,13.04%,34,$397000,2193,$181,30,80.52%,$982,41.19%,N/A,N/A,6.21%,6.01%,68.12%,Barrow County,22.60%,72.60%,4.78%,7.46%,66.46%,19.32%,10.17%,Eastern Standard Time,88,51,37,70,34,55%,57%,49,66,94,60%,63%,53%,52.73,13.56,15.2,34.47%,37.69%,39.56%,2.0,0,8.3,49.0,56,888,5,6.75,GA-04140,34.0156928,-83.8318909
Austell,Georgia,8194,1382,Atlanta-Sandy Springs-Roswell,6026734,$59459,21.81%,33,$314000,1653,$190,29,55.06%,$1258,55.79%,N/A,N/A,5.07%,5.21%,72.98%,Cobb County,47.90%,45.80%,0.0%,61.94%,25.09%,7.96%,4.58%,Eastern Standard Time,90,54,36,70,33,55%,57%,49,66,99,60%,63%,53%,52.04,13.24,14.96,32.99%,37.14%,36.44%,2.0,0,8.3,49.0,48,999,4.9,5.93,GA-04252,33.8200425,-84.6450179
Avondale Estates,Georgia,3494,2864,Atlanta-Sandy Springs-Roswell,6026734,$122009,76.28%,48,$635000,2309,$275,56,89.79%,$1647,40.06%,N/A,N/A,3.25%,0.68%,63.24%,DeKalb County,79.10%,16.20%,0.6%,7.18%,84.75%,1.43%,8.36%,Eastern Standard Time,90,52,38,70,33,55%,57%,49,66,99,60%,63%,53%,52.93,13.48,15.84,33.59%,37.8%,37.44%,2.0,0,8.3,49.0,35,912,5.2,1.22,GA-04644,33.7699258,-84.2647738
Ball Ground,Georgia,2423,383,Atlanta-Sandy Springs-Roswell,6026734,$92404,28.93%,36,$354000,1678,$211,16,82.2%,$1188,36.3%,N/A,N/A,8.34%,4.96%,68.57%,Cherokee County,22.40%,71.50%,0.0%,0.0%,93.4%,2.31%,2.06%,Eastern Standard Time,85,48,37,66,30,55%,57%,49,66,89,60%,63%,53%,58.4,13.28,16.95,30.68%,34.29%,34.22%,3.0,0,8.3,49.0,67,1341,5.2,6.33,GA-05036,34.3425137,-84.3638907
Barnesville,Georgia,6335,1044,Atlanta-Sandy Springs-Roswell,6026734,$37688,16.38%,28,$140000,1728,$81,47,51.53%,$720,67.43%,268,2055,20.47%,4.79%,49.86%,Lamar County,29.80%,68.20%,0.76%,46.61%,47.81%,1.26%,2.18%,Eastern Standard Time,91,57,34,70,35,52%,54%,53,69,99,63%,67%,56%,51.83,13.1,16.15,35.51%,38.46%,38.67%,2.0,0,5.9,53.1,58,705,5.4,6.07,GA-05344,33.0509541,-84.1528111
Belvedere Park,Georgia,14497,2959,Atlanta-Sandy Springs-Roswell,6026734,$56636,34.44%,40,$292000,1202,$243,58,56.67%,$1152,65.64%,N/A,N/A,15.0%,8.76%,69.14%,DeKalb County,79.10%,16.20%,1.02%,66.68%,25.86%,3.15%,6.55%,Eastern Standard Time,90,52,38,70,33,55%,57%,49,66,99,60%,63%,53%,52.93,13.48,15.84,33.59%,37.8%,37.44%,2.0,0,8.3,49.0,38,912,5.2,4.9,GA-06884,33.7488545,-84.2599472
Berkeley Lake,Georgia,2503,1430,Atlanta-Sandy Springs-Roswell,6026734,$138182,59.95%,58,N/A,N/A,N/A,31,97.55%,$2154,28.92%,N/A,N/A,1.76%,2.91%,62.2%,Gwinnett County,50.20%,44.40%,9.91%,1.48%,81.9%,4.63%,12.27%,Eastern Standard Time,90,52,38,70,33,55%,57%,49,66,99,60%,63%,53%,54.17,13.85,15.16,33.59%,37.8%,37.44%,2.0,0,8.3,49.0,44,936,5,1.75,GA-07248,33.9805109,-84.1839049
Bethlehem,Georgia,891,345,Atlanta-Sandy Springs-Roswell,6026734,$60076,21.61%,32,$327000,1730,$189,27,71.02%,$1107,44.58%,N/A,N/A,0.56%,2.26%,59.91%,Barrow County,22.60%,72.60%,1.01%,4.94%,50.17%,40.97%,14.48%,Eastern Standard Time,90,54,36,69,34,55%,57%,49,66,99,60%,63%,53%,52.62,13.84,15.59,34.63%,38.02%,40.0%,2.0,0,8.3,49.0,58,909,5,2.58,GA-07612,33.9367935,-83.7102435
Between,Georgia,453,384,Atlanta-Sandy Springs-Roswell,6026734,$113462,34.81%,37,N/A,N/A,N/A,22,95.19%,$1417,41.98%,N/A,N/A,4.64%,1.71%,78.07%,Walton County,20.40%,76.50%,0.0%,0.66%,94.26%,1.32%,4.42%,Eastern Standard Time,90,54,36,69,34,55%,57%,49,66,99,60%,63%,53%,50.81,13.03,14.71,30.58%,33.41%,36.22%,2.0,0,8.3,49.0,55,858,5,1.18,GA-07640,33.8177575,-83.8043249
Bonanza,Georgia,3832,3650,Atlanta-Sandy Springs-Roswell,6026734,$62375,21.72%,33,$235000,1556,$151,23,63.62%,$1391,63.78%,N/A,N/A,9.94%,9.44%,70.74%,Clayton County,83.60%,13.50%,3.68%,60.83%,20.41%,14.69%,7.62%,Eastern Standard Time,90,53,37,70,32,55%,57%,49,66,99,60%,63%,53%,53.57,13.86,16.65,31.12%,35.27%,37.11%,2.0,0,8.3,49.0,43,852,5.1,1.05,GA-09272,33.4588673,-84.3378166
Bowdon,Georgia,2705,796,Atlanta-Sandy Springs-Roswell,6026734,$36413,15.83%,37,$175000,1651,$106,44,61.04%,$666,54.01%,N/A,N/A,24.48%,6.79%,58.06%,Carroll County,28.00%,67.50%,0.0%,11.2%,79.48%,3.33%,1.11%,Eastern Standard Time,90,54,36,69,31,55%,57%,49,66,99,60%,63%,53%,54.73,13.24,16.53,33.86%,35.6%,40.89%,2.0,0,8.3,49.0,60,966,5.3,3.4,GA-09544,33.5378373,-85.2539759
Braswell,Georgia,347,110,Atlanta-Sandy Springs-Roswell,6026734,$45313,18.36%,35,N/A,N/A,N/A,18,59.2%,$800,53.28%,0,0,17.75%,2.16%,55.6%,Paulding County,27.50%,68.20%,0.0%,5.76%,88.47%,3.75%,1.44%,Eastern Standard Time,90,53,37,68,31,55%,57%,49,66,99,60%,63%,53%,49.86,11.56,14.9,34.33%,37.47%,38.56%,2.0,0,8.3,49.0,60,660,5.3,3.16,GA-10104,33.9836242,-84.9591169
Bremen,Georgia,7066,666,Atlanta-Sandy Springs-Roswell,6026734,$72835,27.17%,35,$363000,2327,$156,29,76.24%,$698,35.26%,N/A,N/A,2.8%,2.01%,69.51%,Haralson County,13.00%,84.40%,0.42%,3.57%,92.85%,0.0%,0.64%,Eastern Standard Time,90,54,36,69,31,55%,57%,49,66,99,60%,63%,53%,54.45,12.72,16.39,33.86%,35.6%,40.89%,2.0,0,8.3,49.0,57,1062,4.9,10.61,GA-10132,33.7084975,-85.1495097
Buford,Georgia,16811,926,Atlanta-Sandy Springs-Roswell,6026734,$54321,27.82%,36,$480000,2449,$196,27,69.9%,$1119,47.66%,N/A,N/A,13.01%,4.38%,57.71%,Gwinnett County,50.20%,44.40%,3.37%,13.74%,45.05%,35.21%,20.84%,Eastern Standard Time,89,52,37,68,31,55%,57%,49,66,96,60%,63%,53%,57.2,16.22,16.58,34.47%,37.69%,39.56%,3.0,0,8.3,49.0,53,1053,5,18.15,GA-11784,34.1191543,-83.9903927
Candler-McAfee,Georgia,22880,3287,Atlanta-Sandy Springs-Roswell,6026734,$46217,22.82%,40,$285000,1696,$168,57,54.9%,$1166,71.44%,N/A,N/A,16.95%,12.77%,60.77%,DeKalb County,79.10%,16.20%,0.15%,80.47%,11.71%,2.47%,4.22%,Eastern Standard Time,90,52,38,70,33,55%,57%,49,66,99,60%,63%,53%,52.93,13.48,15.84,33.59%,37.8%,37.44%,2.0,0,8.3,49.0,36,912,5.2,6.96,GA-12834,33.7266427,-84.2722627
Canton,Georgia,32342,1767,Atlanta-Sandy Springs-Roswell,6026734,$67355,29.06%,34,$440000,2391,$184,17,49.46%,$1367,45.09%,N/A,N/A,15.12%,8.9%,69.63%,Cherokee County,22.40%,71.50%,1.33%,13.25%,58.32%,26.31%,14.76%,Eastern Standard Time,89,53,36,68,29,55%,57%,49,66,96,60%,63%,53%,52.79,12.21,15.56,30.68%,34.29%,34.22%,3.0,0,8.3,49.0,59,1053,5.2,18.3,GA-12988,34.2466994,-84.489677
Carrollton,Georgia,26773,1195,Atlanta-Sandy Springs-Roswell,6026734,$44049,31.49%,27,$295000,1891,$156,35,40.94%,$889,66.43%,N/A,N/A,32.93%,6.98%,58.5%,Carroll County,28.00%,67.50%,0.78%,36.42%,49.56%,10.95%,6.07%,Eastern Standard Time,90,54,36,69,31,55%,57%,49,66,99,60%,63%,53%,53.91,11.81,16.6,33.86%,35.6%,40.89%,2.0,0,8.3,49.0,54,909,5.3,22.41,GA-13492,33.5817535,-85.083747
Centralhatchee,Georgia,563,172,Atlanta-Sandy Springs-Roswell,6026734,$43625,16.16%,41,N/A,N/A,N/A,37,96.36%,$1083,49.27%,N/A,N/A,22.56%,11.06%,48.29%,Heard County,17.60%,79.80%,0.0%,19.72%,74.25%,1.78%,0.0%,Eastern Standard Time,90,54,36,68,32,55%,57%,49,66,99,60%,63%,53%,55.62,12.87,18.04,32.36%,35.05%,37.89%,2.0,0,8.3,49.0,60,726,5,3.28,GA-15026,33.3688982,-85.1037216
Chamblee,Georgia,29894,3887,Atlanta-Sandy Springs-Roswell,6026734,$72960,47.37%,34,$469000,1832,$256,43,34.06%,$1494,60.09%,N/A,N/A,14.37%,2.8%,77.87%,DeKalb County,79.10%,16.20%,8.98%,17.2%,35.66%,35.57%,30.08%,Eastern Standard Time,90,52,38,70,33,55%,57%,49,66,99,60%,63%,53%,49.9,12.8,13.73,33.59%,37.8%,37.44%,2.0,0,8.3,49.0,40,915,5.2,7.69,GA-15172,33.8842541,-84.3007652
Chattahoochee Hills,Georgia,3048,52,Atlanta-Sandy Springs-Roswell,6026734,$69738,49.62%,51,$591000,1925,$307,31,78.67%,$1016,37.87%,N/A,N/A,8.4%,2.68%,52.04%,Fulton County,67.70%,26.80%,0.0%,19.29%,67.65%,12.8%,2.1%,Eastern Standard Time,90,54,36,68,32,55%,57%,49,66,99,60%,63%,53%,54.53,13.84,16.82,34.27%,37.58%,39.33%,2.0,0,8.3,49.0,54,861,5.1,58.18,GA-15552,33.550628,-84.760488
Clarkston,Georgia,14455,7814,Atlanta-Sandy Springs-Roswell,6026734,$48643,25.19%,26,$320000,1435,$223,44,6.17%,$1109,54.04%,568,2936,25.9%,10.06%,72.67%,DeKalb County,79.10%,16.20%,23.11%,63.68%,7.3%,2.14%,49.44%,Eastern Standard Time,90,52,38,70,33,55%,57%,49,66,99,60%,63%,53%,53.75,13.15,16.57,33.59%,37.8%,37.44%,2.0,0,8.3,49.0,36,915,5.2,1.85,GA-16544,33.8116501,-84.2403868
College Park,Georgia,14032,1265,Atlanta-Sandy Springs-Roswell,6026734,$43554,29.1%,32,$323000,1900,$170,49,24.62%,$955,68.88%,1158,6794,19.74%,11.84%,74.78%,Fulton County,67.70%,26.80%,1.45%,81.53%,10.07%,3.91%,6.14%,Eastern Standard Time,90,54,36,72,36,55%,57%,49,66,99,60%,63%,53%,51.33,13.56,15.32,31.51%,36.59%,35.89%,2.0,0,8.3,49.0,24,924,5.1,11.09,GA-17776,33.6363641,-84.4639172
Concord,Georgia,414,493,Atlanta-Sandy Springs-Roswell,6026734,$51250,11.86%,40,$315000,1909,$165,34,53.41%,$983,51.96%,N/A,N/A,7.25%,0.0%,62.11%,Pike County,14.20%,83.40%,0.0%,24.88%,73.91%,0.0%,0.97%,Eastern Standard Time,91,57,34,70,35,55%,57%,49,66,101,60%,63%,53%,52.38,12.56,16.68,35.51%,38.46%,38.67%,2.0,0,8.3,49.0,60,669,5.3,0.84,GA-19168,33.0916564,-84.4387313
Conley,Georgia,6930,3609,Atlanta-Sandy Springs-Roswell,6026734,$44960,11.74%,39,$125000,1106,$113,43,66.92%,$950,58.45%,N/A,N/A,15.89%,2.02%,62.64%,Clayton County,83.60%,13.50%,1.02%,50.81%,8.2%,31.86%,11.69%,Eastern Standard Time,90,54,36,72,36,55%,57%,49,66,99,60%,63%,53%,51.33,13.56,15.32,31.51%,36.59%,35.89%,2.0,0,8.3,49.0,25,924,5.1,1.92,GA-19280,33.6397661,-84.3376215
Conyers,Georgia,17101,1457,Atlanta-Sandy Springs-Roswell,6026734,$47280,28.25%,37,$287000,1952,$147,30,38.31%,$1105,67.87%,N/A,N/A,17.49%,9.65%,66.84%,Rockdale County,61.10%,35.40%,2.11%,64.79%,21.67%,11.5%,10.03%,Eastern Standard Time,90,53,37,70,32,55%,57%,49,66,99,60%,63%,53%,50.81,13.58,15.44,31.12%,35.27%,37.11%,2.0,0,8.3,49.0,47,675,4.9,11.74,GA-19336,33.6645944,-83.9966914
Covington,Georgia,14065,896,Atlanta-Sandy Springs-Roswell,6026734,$43881,27.34%,35,$273000,1655,$165,32,41.46%,$1032,61.7%,N/A,N/A,20.99%,4.85%,61.45%,Newton County,49.60%,47.30%,0.53%,47.86%,43.85%,6.65%,4.47%,Eastern Standard Time,93,58,35,68,30,55%,57%,49,66,106,60%,63%,53%,50.81,13.58,15.44,18.41%,20.77%,21.78%,2.0,0,8.3,49.0,48,675,4.9,15.7,GA-20064,33.6048589,-83.8463983
Cumming,Georgia,6886,958,Atlanta-Sandy Springs-Roswell,6026734,$63438,33.72%,40,$548000,2825,$194,24,42.99%,$1123,56.56%,N/A,N/A,19.67%,5.25%,62.18%,Forsyth County,23.70%,70.60%,8.32%,7.01%,62.62%,18.52%,17.35%,Eastern Standard Time,89,52,37,68,31,55%,57%,49,66,96,60%,63%,53%,58.54,14.74,16.41,30.82%,32.53%,36.44%,3.0,0,8.3,49.0,58,1044,5.2,7.19,GA-20932,34.2062378,-84.1340643
Dacula,Georgia,6696,1247,Atlanta-Sandy Springs-Roswell,6026734,$87666,19.59%,34,$416000,2391,$174,22,79.98%,$1387,27.06%,N/A,N/A,2.56%,8.6%,67.77%,Gwinnett County,50.20%,44.40%,0.61%,46.82%,42.08%,4.24%,15.85%,Eastern Standard Time,88,51,37,70,34,55%,57%,49,66,94,60%,63%,53%,52.73,13.56,15.2,34.47%,37.69%,39.56%,2.0,0,8.3,49.0,56,888,5,5.37,GA-21184,33.981525,-83.8951397
Dallas,Georgia,13704,1857,Atlanta-Sandy Springs-Roswell,6026734,$50245,16.92%,33,$308000,1740,$177,19,45.28%,$1235,56.28%,N/A,N/A,16.46%,2.92%,62.65%,Paulding County,27.50%,68.20%,1.37%,30.74%,50.81%,10.63%,8.9%,Eastern Standard Time,90,53,37,68,31,55%,57%,49,66,99,60%,63%,53%,54.11,12.91,15.68,32.58%,36.04%,36.67%,2.0,0,8.3,49.0,57,939,5.1,7.38,GA-21324,33.9152941,-84.841523
Dawsonville,Georgia,3594,418,Atlanta-Sandy Springs-Roswell,6026734,$75234,27.19%,33,$415000,2184,$190,15,69.53%,$870,43.13%,N/A,N/A,6.41%,4.71%,67.69%,Dawson County,12.30%,83.80%,4.31%,3.42%,85.59%,4.65%,8.54%,Eastern Standard Time,89,52,37,68,31,55%,57%,49,66,96,60%,63%,53%,63.35,14.8,18.64,30.82%,32.53%,36.44%,3.0,0,8.3,49.0,72,1335,5.1,8.59,GA-21940,34.4135047,-84.122582
Decatur,Georgia,24334,5290,Atlanta-Sandy Springs-Roswell,6026734,$123617,74.57%,39,$344000,1445,$238,50,70.55%,$1456,41.72%,N/A,N/A,7.3%,4.44%,67.23%,DeKalb County,79.10%,16.20%,3.91%,15.55%,66.86%,6.87%,8.6%,Eastern Standard Time,90,52,38,70,33,55%,57%,49,66,99,60%,63%,53%,52.93,13.48,15.84,33.59%,37.8%,37.44%,2.0,0,8.3,49.0,36,912,5.2,4.6,GA-22052,33.7710279,-84.2961709
Doraville,Georgia,10611,2161,Atlanta-Sandy Springs-Roswell,6026734,$56542,32.0%,36,$330000,1549,$213,50,49.58%,$1395,49.31%,N/A,N/A,22.78%,1.87%,72.16%,DeKalb County,79.10%,16.20%,18.53%,5.56%,30.14%,45.16%,40.99%,Eastern Standard Time,90,52,38,70,33,55%,57%,49,66,99,60%,63%,53%,54.66,14.22,15.08,33.59%,37.8%,37.44%,2.0,0,8.3,49.0,38,942,5.2,4.91,GA-23536,33.9072457,-84.2710744
Douglasville,Georgia,34410,1506,Atlanta-Sandy Springs-Roswell,6026734,$61729,34.93%,37,$315000,2006,$157,22,51.22%,$1173,57.38%,525,5816,11.49%,6.42%,68.11%,Douglas County,53.70%,43.00%,1.73%,62.74%,25.66%,8.09%,9.45%,Eastern Standard Time,90,54,36,70,33,55%,57%,49,66,99,60%,63%,53%,52.04,13.24,14.96,33.81%,37.69%,37.22%,2.0,0,8.3,49.0,52,999,5.2,22.85,GA-23900,33.7383923,-84.7054666
Druid Hills,Georgia,8611,2899,Atlanta-Sandy Springs-Roswell,6026734,$137576,86.96%,40,$1150000,2693,$427,61,69.05%,$1714,45.38%,N/A,N/A,7.5%,3.54%,62.53%,DeKalb County,79.10%,16.20%,9.49%,3.27%,76.88%,6.31%,13.46%,Eastern Standard Time,90,52,38,70,33,55%,57%,49,66,99,60%,63%,53%,53.75,13.15,16.57,33.59%,37.8%,37.44%,2.0,0,8.3,49.0,38,915,5.2,2.97,GA-24264,33.7842574,-84.3272264
Duluth,Georgia,31506,3083,Atlanta-Sandy Springs-Roswell,6026734,$77516,53.24%,40,$453000,2299,$197,26,56.39%,$1511,43.95%,N/A,N/A,9.0%,4.45%,71.36%,Gwinnett County,50.20%,44.40%,23.87%,20.62%,34.78%,15.73%,33.35%,Eastern Standard Time,90,52,38,70,33,55%,57%,49,66,99,60%,63%,53%,53.8,13.87,15.09,33.59%,37.8%,37.44%,2.0,0,8.3,49.0,47,978,5,10.22,GA-24600,34.0053407,-84.1491687
Dunwoody,Georgia,51103,3922,Atlanta-Sandy Springs-Roswell,6026734,$97868,71.31%,37,$650000,2569,$253,36,59.47%,$1610,43.54%,128,3840,6.17%,2.16%,68.78%,DeKalb County,79.10%,16.20%,17.06%,12.9%,57.65%,8.9%,21.77%,Eastern Standard Time,90,52,38,70,33,55%,57%,49,66,99,60%,63%,53%,54.66,14.22,15.08,33.59%,37.8%,37.44%,2.0,0,8.3,49.0,42,942,5.2,13.03,GA-24768,33.9418665,-84.3122047
East Griffin,Georgia,1424,996,Atlanta-Sandy Springs-Roswell,6026734,$33017,5.81%,29,$169000,1119,$151,58,35.12%,$865,50.66%,N/A,N/A,36.45%,5.77%,56.57%,Spalding County,36.40%,60.90%,2.25%,16.29%,47.82%,28.16%,8.15%,Eastern Standard Time,91,57,34,70,35,55%,57%,49,66,101,60%,63%,53%,52.82,13.0,16.25,35.51%,38.46%,38.67%,2.0,0,8.3,49.0,53,711,5.2,1.43,GA-25440,33.2439155,-84.2316223
East Newnan,Georgia,740,261,Atlanta-Sandy Springs-Roswell,6026734,$19063,16.27%,46,$175000,967,$181,54,70.67%,N/A,51.04%,N/A,N/A,50.81%,10.78%,28.37%,Coweta County,26.70%,68.40%,0.0%,38.65%,41.49%,11.89%,11.89%,Eastern Standard Time,90,54,36,68,32,55%,57%,49,66,99,60%,63%,53%,56.16,13.63,18.15,32.36%,35.05%,37.89%,2.0,0,8.3,49.0,55,798,5.1,2.83,GA-25692,33.3460951,-84.7763271
East Point,Georgia,37895,2580,Atlanta-Sandy Springs-Roswell,6026734,$50371,35.23%,35,$300000,1676,$179,51,43.97%,$1156,71.55%,N/A,N/A,23.23%,7.33%,69.96%,Fulton County,67.70%,26.80%,1.56%,76.74%,12.55%,7.87%,6.17%,Eastern Standard Time,90,54,36,72,36,55%,57%,49,66,99,60%,63%,53%,51.33,13.56,15.32,31.51%,36.59%,35.89%,2.0,0,8.3,49.0,35,924,5.1,14.69,GA-25720,33.6696005,-84.4700271
Emerson,Georgia,1812,210,Atlanta-Sandy Springs-Roswell,6026734,$63750,28.77%,41,N/A,N/A,N/A,33,81.16%,$987,45.01%,436,2308,14.37%,5.12%,61.9%,Bartow County,20.70%,75.30%,0.17%,5.46%,84.6%,8.83%,3.64%,Eastern Standard Time,89,53,36,68,29,55%,57%,49,66,96,60%,63%,53%,52.96,13.12,15.07,34.33%,37.47%,38.56%,3.0,0,8.3,49.0,54,891,5.3,8.61,GA-27344,34.1303218,-84.7483185
Ephesus,Georgia,551,149,Atlanta-Sandy Springs-Roswell,6026734,$72000,12.87%,30,N/A,N/A,N/A,39,89.38%,$631,39.57%,N/A,N/A,10.89%,6.14%,67.23%,Heard County,17.60%,79.80%,0.0%,0.0%,98.55%,0.0%,2.54%,Eastern Standard Time,90,54,36,69,31,55%,57%,49,66,99,60%,63%,53%,54.73,13.24,16.53,36.38%,42.09%,40.56%,2.0,0,8.3,49.0,60,966,5,3.69,GA-27708,33.4069373,-85.2567628
Euharlee,Georgia,4252,787,Atlanta-Sandy Springs-Roswell,6026734,$86783,17.6%,35,$274000,1391,$197,26,89.49%,$884,47.43%,N/A,N/A,3.47%,4.74%,69.41%,Bartow County,20.70%,75.30%,0.54%,15.73%,76.25%,0.0%,0.71%,Eastern Standard Time,90,53,37,68,31,55%,57%,49,66,99,60%,63%,53%,49.86,11.56,14.9,34.33%,37.47%,38.56%,3.0,0,8.3,49.0,57,660,5.3,5.4,GA-27988,34.1441334,-84.9326779
Experiment,Georgia,2249,757,Atlanta-Sandy Springs-Roswell,6026734,$28641,5.09%,40,$143000,1430,$100,63,44.58%,$902,62.82%,N/A,N/A,38.14%,5.91%,44.67%,Spalding County,36.40%,60.90%,0.0%,48.29%,46.73%,3.16%,2.53%,Eastern Standard Time,91,56,35,70,34,55%,57%,49,66,101,60%,63%,53%,52.82,13.0,16.25,35.51%,38.46%,38.67%,2.0,0,8.3,49.0,51,711,5.2,2.97,GA-28296,33.2789868,-84.2759873
Fairburn,Georgia,16215,960,Atlanta-Sandy Springs-Roswell,6026734,$58741,30.3%,30,$302000,1899,$159,19,49.99%,$1221,69.06%,473,3049,25.26%,5.05%,71.55%,Fulton County,67.70%,26.80%,0.47%,71.71%,10.34%,17.34%,10.39%,Eastern Standard Time,90,54,36,72,36,55%,57%,49,66,99,60%,63%,53%,53.82,13.84,16.25,34.27%,37.58%,39.33%,2.0,0,8.3,49.0,45,870,5.1,16.89,GA-28380,33.5496232,-84.591351
Fayetteville,Georgia,18633,1438,Atlanta-Sandy Springs-Roswell,6026734,$73998,37.39%,43,$485000,2725,$178,23,69.84%,$1291,48.09%,N/A,N/A,8.17%,7.22%,60.4%,Fayette County,37.90%,57.00%,6.61%,38.99%,40.14%,5.96%,10.31%,Eastern Standard Time,91,56,35,70,34,55%,57%,49,66,101,60%,63%,53%,53.3,12.64,16.58,35.51%,38.46%,38.67%,2.0,0,8.3,49.0,51,840,5.1,12.96,GA-28968,33.4500083,-84.4709541
Flovilla,Georgia,995,508,Atlanta-Sandy Springs-Roswell,6026734,$34690,8.94%,41,N/A,N/A,N/A,42,61.09%,$945,61.01%,N/A,N/A,23.32%,8.35%,51.33%,Butts County,27.00%,70.60%,1.21%,37.99%,34.07%,2.61%,1.21%,Eastern Standard Time,93,58,35,68,30,52%,54%,53,69,104,63%,67%,56%,45.3,10.88,13.92,18.41%,20.77%,21.78%,2.0,0,5.9,53.1,55,474,5.2,1.96,GA-30312,33.252406,-83.902902
Forest Park,Georgia,19856,2133,Atlanta-Sandy Springs-Roswell,6026734,$37370,8.92%,31,$178000,1211,$147,54,38.16%,$900,66.54%,720,4454,20.82%,8.56%,56.89%,Clayton County,83.60%,13.50%,5.63%,52.07%,16.08%,23.2%,14.85%,Eastern Standard Time,90,54,36,72,36,55%,57%,49,66,99,60%,63%,53%,51.33,13.56,15.32,31.51%,36.59%,35.89%,2.0,0,8.3,49.0,18,924,5.1,9.31,GA-30536,33.6209268,-84.3590585
Franklin,Georgia,1056,329,Atlanta-Sandy Springs-Roswell,6026734,$21518,19.06%,45,N/A,N/A,N/A,50,32.21%,$359,74.32%,N/A,N/A,29.74%,9.16%,44.47%,Heard County,17.60%,79.80%,0.28%,26.7%,69.22%,0.19%,0.28%,Eastern Standard Time,90,54,36,68,32,55%,57%,49,66,99,60%,63%,53%,55.62,12.87,18.04,36.38%,42.09%,40.56%,2.0,0,8.3,49.0,59,726,5,3.21,GA-31292,33.2797415,-85.0985168
Gay,Georgia,129,150,Atlanta-Sandy Springs-Roswell,6026734,$81875,12.61%,49,N/A,N/A,N/A,N/A,57.38%,$988,17.65%,N/A,N/A,2.33%,0.96%,88.14%,Meriwether County,41.30%,56.70%,0.0%,0.0%,75.97%,23.26%,13.95%,Eastern Standard Time,91,56,35,70,34,53%,54%,53,69,100,60%,63%,53%,52.38,12.56,16.68,35.51%,38.46%,38.67%,2.0,0,6.0,53.8,59,669,3.6,0.86,GA-32384,33.0936728,-84.57548
Good Hope,Georgia,437,238,Atlanta-Sandy Springs-Roswell,6026734,$54632,22.64%,41,$496000,2725,$182,25,90.26%,$992,33.13%,N/A,N/A,23.8%,0.0%,58.77%,Walton County,20.40%,76.50%,0.0%,24.03%,75.97%,0.0%,0.0%,Eastern Standard Time,90,54,36,69,34,55%,57%,49,66,99,60%,63%,53%,47.99,13.0,14.15,30.58%,33.41%,36.22%,2.0,0,8.3,49.0,60,678,5,1.84,GA-33896,33.7849904,-83.6093795
Grantville,Georgia,3133,541,Atlanta-Sandy Springs-Roswell,6026734,$66875,10.76%,33,$266000,1503,$177,19,58.51%,$1175,50.74%,728,1274,12.44%,9.55%,75.86%,Coweta County,26.70%,68.40%,0.77%,37.12%,58.63%,0.93%,1.4%,Eastern Standard Time,90,54,36,68,32,55%,57%,49,66,99,60%,63%,53%,56.09,14.7,17.2,32.36%,35.05%,37.89%,2.0,0,8.3,49.0,55,729,5.1,5.79,GA-34428,33.237109,-84.8292932
Grayson,Georgia,4478,1784,Atlanta-Sandy Springs-Roswell,6026734,$113652,42.46%,31,$445000,2681,$166,10,96.49%,$2136,32.33%,N/A,N/A,1.36%,1.5%,67.46%,Gwinnett County,50.20%,44.40%,3.06%,70.84%,21.97%,4.2%,35.04%,Eastern Standard Time,90,52,38,70,33,55%,57%,49,66,99,60%,63%,53%,53.1,13.58,15.18,33.59%,37.8%,37.44%,2.0,0,8.3,49.0,52,912,5,2.51,GA-34596,33.8903531,-83.9576788
Greenville,Georgia,1186,507,Atlanta-Sandy Springs-Roswell,6026734,$48287,11.97%,42,$251000,2008,$125,48,47.21%,$733,52.2%,N/A,N/A,15.35%,4.07%,62.1%,Meriwether County,41.30%,56.70%,0.0%,67.79%,28.16%,1.43%,1.52%,Eastern Standard Time,91,56,35,70,34,53%,54%,53,69,100,60%,63%,53%,52.38,12.56,16.68,35.51%,38.46%,38.67%,2.0,0,6.0,53.8,59,669,3.6,2.34,GA-35016,33.0322407,-84.7162216
Gresham Park,Georgia,8569,3049,Atlanta-Sandy Springs-Roswell,6026734,$58125,31.61%,41,$321000,1551,$207,53,56.03%,$1302,66.85%,N/A,N/A,19.57%,5.51%,63.39%,DeKalb County,79.10%,16.20%,1.3%,76.52%,12.77%,5.4%,2.57%,Eastern Standard Time,90,54,36,72,36,55%,57%,49,66,99,60%,63%,53%,52.93,13.48,15.84,31.51%,36.59%,35.89%,2.0,0,8.3,49.0,36,912,5.2,2.81,GA-35240,33.7053263,-84.3155304
Griffin,Georgia,23300,1665,Atlanta-Sandy Springs-Roswell,6026734,$38972,21.07%,32,$201000,1436,$140,47,39.75%,$916,62.86%,N/A,N/A,25.82%,4.63%,60.03%,Spalding County,36.40%,60.90%,1.49%,52.78%,37.21%,4.51%,3.12%,Eastern Standard Time,91,56,35,70,34,55%,57%,49,66,101,60%,63%,53%,52.82,13.0,16.25,35.51%,38.46%,38.67%,2.0,0,8.3,49.0,53,711,5.2,13.99,GA-35324,33.2418622,-84.2746357
Hampton,Georgia,8166,966,Atlanta-Sandy Springs-Roswell,6026734,$59946,25.27%,30,$315000,2086,$151,17,77.23%,$1154,56.47%,99,795,14.58%,5.94%,61.28%,Henry County,50.40%,46.00%,0.31%,60.74%,35.43%,2.63%,6.96%,Eastern Standard Time,90,53,37,70,32,55%,57%,49,66,99,60%,63%,53%,52.82,13.0,16.25,31.12%,35.27%,37.11%,2.0,0,8.3,49.0,52,711,5.3,8.45,GA-36276,33.3773927,-84.2969433
Hapeville,Georgia,6553,2719,Atlanta-Sandy Springs-Roswell,6026734,$72426,34.17%,34,$312000,1328,$235,52,48.2%,$1168,59.08%,N/A,N/A,21.78%,5.32%,79.31%,Fulton County,67.70%,26.80%,5.57%,33.36%,19.4%,33.76%,27.36%,Eastern Standard Time,90,54,36,72,36,55%,57%,49,66,99,60%,63%,53%,51.33,13.56,15.32,31.51%,36.59%,35.89%,2.0,0,8.3,49.0,17,924,5.1,2.41,GA-36472,33.6608735,-84.4093208
Haralson,Georgia,206,264,Atlanta-Sandy Springs-Roswell,6026734,N/A,8.92%,48,N/A,N/A,N/A,39,87.19%,$1069,41.08%,N/A,N/A,11.65%,2.41%,47.7%,Coweta County,26.70%,68.40%,0.97%,9.71%,77.18%,9.22%,2.43%,Eastern Standard Time,91,56,35,70,34,55%,57%,49,66,101,60%,63%,53%,55.61,14.03,17.53,35.51%,38.46%,38.67%,2.0,0,8.3,49.0,58,762,5.1,0.78,GA-36528,33.2284598,-84.5690252
Heron Bay,Georgia,3705,822,Atlanta-Sandy Springs-Roswell,6026734,$105775,48.08%,36,$350000,2593,$135,15,96.96%,N/A,46.34%,N/A,N/A,0.7%,2.77%,75.49%,Henry County,50.40%,46.00%,0.0%,71.98%,27.04%,6.91%,3.02%,Eastern Standard Time,90,53,37,70,32,55%,57%,49,66,99,60%,63%,53%,51.34,13.4,15.22,31.12%,35.27%,37.11%,2.0,0,8.3,49.0,53,648,5.3,4.51,GA-38105,33.3392674,-84.1921366
Hilltop,Georgia,192,200,Atlanta-Sandy Springs-Roswell,6026734,N/A,0.0%,48,$118000,1595,$74,37,92.08%,N/A,60.99%,N/A,N/A,0.0%,0.0%,69.5%,Pike County,14.20%,83.40%,0.0%,57.81%,42.19%,0.0%,0.0%,Eastern Standard Time,91,57,34,70,35,55%,57%,49,66,101,60%,63%,53%,52.38,12.56,16.68,35.51%,38.46%,38.67%,2.0,0,8.3,49.0,60,669,5.3,0.96,GA-38866,33.1063818,-84.438249
Hiram,Georgia,4763,1212,Atlanta-Sandy Springs-Roswell,6026734,$77547,41.17%,36,$303000,1751,$173,19,68.71%,$1616,52.02%,N/A,N/A,2.82%,5.02%,72.48%,Paulding County,27.50%,68.20%,9.47%,40.37%,32.79%,8.78%,21.42%,Eastern Standard Time,90,53,37,68,31,55%,57%,49,66,99,60%,63%,53%,52.04,13.24,14.96,32.58%,36.04%,36.67%,2.0,0,8.3,49.0,55,999,5.1,3.93,GA-39076,33.8673141,-84.7517117
Holly Springs,Georgia,15784,2204,Atlanta-Sandy Springs-Roswell,6026734,$98651,42.29%,40,$462000,2322,$199,15,75.33%,$1447,35.88%,N/A,N/A,3.81%,5.13%,71.82%,Cherokee County,22.40%,71.50%,2.77%,11.59%,75.77%,6.58%,7.3%,Eastern Standard Time,89,53,36,68,29,55%,57%,49,66,96,60%,63%,53%,52.79,12.21,15.56,32.58%,36.04%,36.67%,3.0,0,8.3,49.0,55,1053,5.2,7.16,GA-39524,34.1681007,-84.4848576
Irondale,Georgia,8127,2572,Atlanta-Sandy Springs-Roswell,6026734,$51332,18.37%,33,$223000,1420,$157,28,62.29%,$1198,55.88%,N/A,N/A,17.42%,6.69%,61.64%,Clayton County,83.60%,13.50%,1.08%,60.72%,11.48%,20.88%,9.36%,Eastern Standard Time,90,53,37,70,32,55%,57%,49,66,99,60%,63%,53%,53.57,13.86,16.65,31.12%,35.27%,37.11%,2.0,0,8.3,49.0,44,852,5.1,3.16,GA-41347,33.4772586,-84.3600294
Jackson,Georgia,5435,894,Atlanta-Sandy Springs-Roswell,6026734,$41739,11.92%,34,$249000,1682,$148,41,47.76%,$783,66.82%,N/A,N/A,33.03%,7.56%,49.95%,Butts County,27.00%,70.60%,0.22%,45.21%,49.66%,3.37%,1.67%,Eastern Standard Time,93,58,35,68,30,52%,54%,53,69,104,63%,67%,56%,51.34,13.4,15.22,18.41%,20.77%,21.78%,2.0,0,5.9,53.1,53,648,5.2,6.08,GA-41596,33.2919444,-83.9678653
Jasper,Georgia,4054,474,Atlanta-Sandy Springs-Roswell,6026734,$46765,20.27%,34,$370000,2056,$180,23,41.33%,$851,46.55%,N/A,N/A,21.99%,1.78%,57.68%,Pickens County,14.10%,82.90%,1.65%,0.62%,89.15%,2.24%,1.65%,Eastern Standard Time,85,48,37,66,30,55%,57%,49,66,89,60%,63%,53%,58.4,13.28,16.95,30.68%,34.29%,34.22%,3.0,0,8.3,49.0,69,1341,5.1,8.56,GA-41932,34.4946883,-84.4873735
Jenkinsburg,Georgia,356,274,Atlanta-Sandy Springs-Roswell,6026734,$65260,25.09%,44,N/A,N/A,N/A,32,84.41%,$1036,49.84%,N/A,N/A,7.58%,3.13%,51.95%,Butts County,27.00%,70.60%,0.0%,21.91%,72.47%,2.81%,0.56%,Eastern Standard Time,93,58,35,68,30,55%,57%,49,66,106,60%,63%,53%,51.34,13.4,15.22,18.41%,20.77%,21.78%,2.0,0,8.3,49.0,46,648,5.2,1.3,GA-42156,33.3225173,-84.0387611
Jersey,Georgia,140,179,Atlanta-Sandy Springs-Roswell,6026734,$42917,18.07%,31,N/A,N/A,N/A,36,78.99%,$817,52.58%,N/A,N/A,3.57%,0.0%,60.82%,Walton County,20.40%,76.50%,0.0%,0.0%,100.0%,0.0%,0.0%,Eastern Standard Time,90,54,36,69,34,55%,57%,49,66,99,60%,63%,53%,50.81,13.03,14.71,30.58%,33.41%,36.22%,2.0,0,8.3,49.0,56,858,5,0.78,GA-42184,33.717686,-83.8000381
Johns Creek,Georgia,82068,2664,Atlanta-Sandy Springs-Roswell,6026734,$133948,69.11%,42,$736000,3315,$222,26,77.31%,$1799,35.19%,N/A,N/A,3.64%,3.61%,66.99%,Fulton County,67.70%,26.80%,26.17%,10.16%,52.66%,6.93%,31.16%,Eastern Standard Time,90,52,38,70,33,55%,57%,49,66,99,60%,63%,53%,54.17,13.85,15.16,33.59%,37.8%,37.44%,2.0,0,8.3,49.0,51,936,5.1,30.81,GA-42425,34.033332,-84.202669
Jonesboro,Georgia,4492,1507,Atlanta-Sandy Springs-Roswell,6026734,$31033,4.51%,32,$245000,1750,$140,49,31.17%,$965,69.04%,N/A,N/A,38.27%,4.73%,31.36%,Clayton County,83.60%,13.50%,4.47%,61.84%,16.74%,14.83%,13.58%,Eastern Standard Time,90,53,37,70,32,55%,57%,49,66,99,60%,63%,53%,53.57,13.86,16.65,31.12%,35.27%,37.11%,2.0,0,8.3,49.0,31,852,5.1,2.98,GA-42604,33.5210303,-84.354717
Kennesaw,Georgia,33036,3399,Atlanta-Sandy Springs-Roswell,6026734,$73977,44.7%,36,$395000,2057,$192,24,68.75%,$1470,50.0%,138,1397,13.54%,5.8%,70.7%,Cobb County,47.90%,45.80%,5.65%,20.52%,55.71%,14.94%,14.87%,Eastern Standard Time,90,53,37,68,31,55%,57%,49,66,99,60%,63%,53%,53.26,12.49,15.28,32.58%,36.04%,36.67%,2.0,0,8.3,49.0,49,954,4.9,9.72,GA-43192,34.0260299,-84.6177093
Kingston,Georgia,779,618,Atlanta-Sandy Springs-Roswell,6026734,$42273,1.73%,49,$285000,1759,$162,43,73.14%,$773,57.5%,N/A,N/A,22.68%,9.09%,59.1%,Bartow County,20.70%,75.30%,0.0%,32.73%,58.66%,3.34%,0.0%,Eastern Standard Time,90,53,37,68,31,55%,57%,49,66,99,60%,63%,53%,52.69,13.11,15.22,34.33%,37.47%,38.56%,3.0,0,8.3,49.0,55,705,5.3,1.26,GA-43668,34.2319732,-84.9444927
Lake City,Georgia,3054,1651,Atlanta-Sandy Springs-Roswell,6026734,$51250,10.7%,38,N/A,N/A,N/A,49,64.67%,$1041,68.7%,174,3708,14.76%,3.32%,62.37%,Clayton County,83.60%,13.50%,30.88%,41.62%,12.41%,14.24%,33.43%,Eastern Standard Time,90,53,37,70,32,55%,57%,49,66,99,60%,63%,53%,53.57,13.86,16.65,31.12%,35.27%,37.11%,2.0,0,8.3,49.0,19,852,5.1,1.85,GA-44508,33.6064653,-84.3410961
Lakeview Estates,Georgia,2965,5814,Atlanta-Sandy Springs-Roswell,6026734,$40578,3.87%,35,N/A,N/A,N/A,39,62.96%,$652,58.99%,N/A,N/A,37.67%,2.3%,68.83%,Rockdale County,61.10%,35.40%,0.0%,2.36%,3.61%,92.28%,48.53%,Eastern Standard Time,90,52,38,70,33,55%,57%,49,66,99,60%,63%,53%,50.81,13.03,14.71,33.59%,37.8%,37.44%,2.0,0,8.3,49.0,49,858,4.9,0.51,GA-44956,33.7046541,-84.0367728
Lawrenceville,Georgia,30299,2225,Atlanta-Sandy Springs-Roswell,6026734,$51242,26.03%,33,$380000,2123,$179,33,48.4%,$1185,54.1%,N/A,N/A,17.51%,6.8%,68.43%,Gwinnett County,50.20%,44.40%,6.62%,35.41%,31.03%,23.75%,26.44%,Eastern Standard Time,90,52,38,70,33,55%,57%,49,66,99,60%,63%,53%,53.1,13.58,15.18,33.59%,37.8%,37.44%,2.0,0,8.3,49.0,48,912,5,13.62,GA-45488,33.9522363,-83.9932122
Lilburn,Georgia,14424,2121,Atlanta-Sandy Springs-Roswell,6026734,$58900,24.28%,36,$383000,2140,$179,35,55.55%,$1211,46.07%,180,2772,19.68%,4.4%,64.63%,Gwinnett County,50.20%,44.40%,16.13%,13.21%,22.3%,45.81%,34.14%,Eastern Standard Time,90,52,38,70,33,55%,57%,49,66,99,60%,63%,53%,53.1,13.58,15.18,33.59%,37.8%,37.44%,2.0,0,8.3,49.0,43,912,5,6.8,GA-46356,33.8896434,-84.1363514
Lithia Springs,Georgia,15825,1171,Atlanta-Sandy Springs-Roswell,6026734,$49568,28.31%,32,$310000,1962,$158,31,48.23%,$1165,55.69%,N/A,N/A,16.99%,4.49%,70.42%,Douglas County,53.70%,43.00%,1.31%,53.9%,28.48%,16.4%,12.91%,Eastern Standard Time,90,54,36,70,33,55%,57%,49,66,99,60%,63%,53%,52.04,13.24,14.96,33.81%,37.69%,37.22%,2.0,0,8.3,49.0,48,999,5.2,13.51,GA-46832,33.7811151,-84.6487376
Lithonia,Georgia,2579,2773,Atlanta-Sandy Springs-Roswell,6026734,$33278,15.54%,28,$270000,2045,$132,47,22.83%,$967,73.93%,N/A,N/A,39.2%,8.96%,71.37%,DeKalb County,79.10%,16.20%,4.11%,83.87%,6.67%,3.92%,8.3%,Eastern Standard Time,90,52,38,70,33,55%,57%,49,66,99,60%,63%,53%,50.81,13.03,14.71,33.59%,37.8%,37.44%,2.0,0,8.3,49.0,46,858,5.2,0.93,GA-46860,33.7127799,-84.10599
Locust Grove,Georgia,8816,761,Atlanta-Sandy Springs-Roswell,6026734,$57799,22.64%,37,$344000,2219,$155,18,75.77%,$1162,58.34%,N/A,N/A,23.01%,8.5%,67.26%,Henry County,50.40%,46.00%,0.6%,40.38%,47.71%,8.9%,8.17%,Eastern Standard Time,90,53,37,70,32,55%,57%,49,66,99,60%,63%,53%,51.34,13.4,15.22,31.12%,35.27%,37.11%,2.0,0,8.3,49.0,52,648,5.3,11.59,GA-47140,33.3445369,-84.1071448
Loganville,Georgia,13810,1864,Atlanta-Sandy Springs-Roswell,6026734,$72820,26.4%,35,$411000,2569,$160,19,70.56%,$1180,47.97%,N/A,N/A,9.54%,4.5%,68.86%,Walton County,20.40%,76.50%,3.5%,32.85%,49.91%,9.36%,17.98%,Eastern Standard Time,90,52,38,70,33,55%,57%,49,66,99,60%,63%,53%,50.81,13.03,14.71,33.59%,37.8%,37.44%,2.0,0,8.3,49.0,52,858,5,7.41,GA-47196,33.8352556,-83.8959004
Lone Oak,Georgia,90,143,Atlanta-Sandy Springs-Roswell,6026734,N/A,15.28%,54,N/A,N/A,N/A,51,77.92%,N/A,69.41%,N/A,N/A,11.11%,0.0%,41.18%,Meriwether County,41.30%,56.70%,0.0%,5.56%,94.44%,0.0%,0.0%,Eastern Standard Time,90,54,36,68,32,53%,54%,53,69,98,60%,63%,53%,53.96,12.7,17.08,32.36%,35.05%,37.89%,2.0,0,6.0,53.8,59,723,3.6,0.63,GA-47252,33.1723523,-84.8173311
Lovejoy,Georgia,10208,3508,Atlanta-Sandy Springs-Roswell,6026734,$54232,30.71%,27,$326000,2159,$151,15,53.95%,$1183,73.83%,N/A,N/A,17.09%,6.28%,61.57%,Clayton County,83.60%,13.50%,0.3%,78.46%,12.89%,8.95%,8.2%,Eastern Standard Time,90,53,37,70,32,55%,57%,49,66,99,60%,63%,53%,53.57,13.86,16.65,31.12%,35.27%,37.11%,2.0,0,8.3,49.0,49,852,5.1,2.91,GA-47616,33.4426528,-84.3176262
Luthersville,Georgia,795,252,Atlanta-Sandy Springs-Roswell,6026734,$53929,8.03%,44,$260000,1769,$147,42,52.52%,$861,58.18%,N/A,N/A,17.13%,2.65%,51.52%,Meriwether County,41.30%,56.70%,0.0%,50.06%,47.55%,1.13%,0.5%,Eastern Standard Time,91,56,35,70,34,55%,57%,49,66,101,60%,63%,53%,56.16,13.63,18.15,32.36%,35.05%,37.89%,2.0,0,8.3,49.0,59,798,3.6,3.16,GA-48008,33.2095835,-84.7442654
Mableton,Georgia,41632,2014,Atlanta-Sandy Springs-Roswell,6026734,$69395,37.06%,38,$346000,1870,$185,38,69.04%,$1262,45.68%,N/A,N/A,9.55%,6.53%,70.94%,Cobb County,47.90%,45.80%,1.95%,41.9%,31.19%,23.01%,16.97%,Eastern Standard Time,90,54,36,70,33,55%,57%,49,66,99,60%,63%,53%,47.73,11.61,13.71,32.99%,37.14%,36.44%,2.0,0,8.3,49.0,42,768,4.9,20.67,GA-48288,33.81334,-84.565541
Madison,Georgia,4404,502,Atlanta-Sandy Springs-Roswell,6026734,$67833,40.31%,45,$650000,3333,$195,39,42.73%,$940,48.85%,N/A,N/A,7.22%,1.71%,59.12%,Morgan County,28.10%,69.20%,0.0%,37.87%,59.49%,3.54%,0.09%,Eastern Standard Time,90,54,36,69,34,52%,54%,53,69,97,63%,67%,56%,47.99,13.0,14.15,30.58%,33.41%,36.22%,2.0,0,5.9,53.1,49,678,5.2,8.78,GA-49196,33.579278,-83.4757833
Manchester,Georgia,3647,455,Atlanta-Sandy Springs-Roswell,6026734,$36536,12.08%,30,$134000,1314,$102,61,50.08%,$848,63.19%,404,3612,23.94%,5.79%,55.5%,Meriwether County,41.30%,56.70%,1.29%,54.95%,38.96%,3.26%,1.78%,Eastern Standard Time,90,57,33,68,34,53%,54%,53,69,98,63%,67%,56%,52.38,12.56,16.68,29.81%,35.6%,34.56%,2.0,0,6.0,53.8,58,669,3.6,8.01,GA-49532,32.8565539,-84.6330144
Mansfield,Georgia,575,528,Atlanta-Sandy Springs-Roswell,6026734,$42266,15.32%,31,$312000,1914,$163,50,72.61%,$1094,34.73%,N/A,N/A,28.4%,8.37%,58.9%,Newton County,49.60%,47.30%,0.0%,5.04%,76.17%,13.22%,0.0%,Eastern Standard Time,93,58,35,68,30,55%,57%,49,66,106,60%,63%,53%,50.81,13.58,15.44,18.41%,20.77%,21.78%,2.0,0,8.3,49.0,55,675,4.9,1.09,GA-49616,33.5179698,-83.7348662
Marietta,Georgia,60962,2602,Atlanta-Sandy Springs-Roswell,6026734,$62585,45.16%,35,$425000,2146,$198,35,46.32%,$1236,59.99%,427,3147,12.88%,4.2%,67.65%,Cobb County,47.90%,45.80%,2.08%,31.91%,45.3%,16.29%,16.61%,Eastern Standard Time,90,54,36,70,33,55%,57%,49,66,99,60%,63%,53%,50.61,12.1,14.68,32.99%,37.14%,36.44%,2.0,0,8.3,49.0,45,942,4.9,23.43,GA-49756,33.9533483,-84.5422963
McDonough,Georgia,28574,2224,Atlanta-Sandy Springs-Roswell,6026734,$73215,27.73%,31,$347000,2313,$150,16,58.77%,$1274,58.36%,274,2781,11.33%,7.27%,69.18%,Henry County,50.40%,46.00%,1.82%,69.22%,14.28%,10.2%,10.51%,Eastern Standard Time,90,53,37,70,32,55%,57%,49,66,99,60%,63%,53%,51.34,13.4,15.22,31.12%,35.27%,37.11%,2.0,0,8.3,49.0,45,648,5.3,12.85,GA-48624,33.4397251,-84.150547
Meansville,Georgia,154,308,Atlanta-Sandy Springs-Roswell,6026734,$77813,20.77%,59,$195000,1127,$173,74,74.05%,$1083,37.93%,N/A,N/A,1.95%,5.56%,50.0%,Pike County,14.20%,83.40%,0.0%,1.3%,98.7%,0.0%,0.0%,Eastern Standard Time,91,57,34,70,35,52%,54%,53,69,99,63%,67%,56%,51.83,13.1,16.15,35.51%,38.46%,38.67%,2.0,0,5.9,53.1,59,705,5.3,0.5,GA-50596,33.0508105,-84.3082844
Milner,Georgia,555,263,Atlanta-Sandy Springs-Roswell,6026734,$56250,14.89%,40,$265000,1472,$180,28,62.66%,$861,50.0%,N/A,N/A,8.29%,5.81%,59.31%,Lamar County,29.80%,68.20%,0.0%,5.77%,87.21%,5.77%,0.54%,Eastern Standard Time,91,57,34,70,35,52%,54%,53,69,99,63%,67%,56%,51.83,13.1,16.15,35.51%,38.46%,38.67%,2.0,0,5.9,53.1,57,705,5.4,2.11,GA-51604,33.1175238,-84.1931832
Milton,Georgia,40487,1052,Atlanta-Sandy Springs-Roswell,6026734,$136020,74.86%,41,$938000,3737,$251,20,80.68%,$1475,32.3%,37,726,4.27%,4.2%,72.6%,Fulton County,67.70%,26.80%,17.43%,11.66%,61.93%,5.65%,22.75%,Eastern Standard Time,89,52,37,68,31,55%,57%,49,66,96,60%,63%,53%,54.17,13.85,15.16,33.59%,37.8%,37.44%,3.0,0,8.3,49.0,55,936,5.1,38.49,GA-51670,34.1353012,-84.3138473
Molena,Georgia,725,388,Atlanta-Sandy Springs-Roswell,6026734,$34196,10.45%,41,N/A,N/A,N/A,N/A,81.41%,$1269,56.58%,N/A,N/A,16.51%,10.61%,47.48%,Pike County,14.20%,83.40%,0.0%,12.14%,69.66%,0.0%,0.0%,Eastern Standard Time,91,57,34,70,35,53%,54%,53,69,100,63%,67%,56%,52.38,12.56,16.68,35.51%,38.46%,38.67%,2.0,0,6.0,53.8,60,669,5.3,1.87,GA-52108,33.0121636,-84.5005401
Monroe,Georgia,14675,936,Atlanta-Sandy Springs-Roswell,6026734,$39015,13.62%,32,$328000,1929,$170,42,39.92%,$942,70.27%,527,2591,33.73%,10.07%,55.49%,Walton County,20.40%,76.50%,1.19%,53.59%,36.08%,6.13%,3.28%,Eastern Standard Time,90,54,36,69,34,55%,57%,49,66,99,60%,63%,53%,52.62,13.84,15.59,30.58%,33.41%,36.22%,2.0,0,8.3,49.0,56,909,5,15.68,GA-52192,33.7989791,-83.7159548
Monticello,Georgia,2535,609,Atlanta-Sandy Springs-Roswell,6026734,$43207,16.68%,45,$280000,1854,$151,51,61.53%,$783,59.42%,N/A,N/A,15.91%,3.68%,53.07%,Jasper County,25.50%,72.10%,0.0%,45.88%,48.48%,1.14%,1.38%,Eastern Standard Time,93,58,35,68,30,52%,54%,53,69,104,63%,67%,56%,45.3,10.88,13.92,18.41%,20.77%,21.78%,2.0,0,5.9,53.1,55,474,5.3,4.16,GA-52416,33.2955002,-83.6860554
Moreland,Georgia,601,668,Atlanta-Sandy Springs-Roswell,6026734,$80000,24.68%,32,$703000,3270,$215,37,84.7%,$978,38.81%,N/A,N/A,5.49%,3.46%,59.36%,Coweta County,26.70%,68.40%,0.17%,9.32%,75.21%,1.0%,1.33%,Eastern Standard Time,90,54,36,68,32,55%,57%,49,66,99,60%,63%,53%,56.16,13.63,18.15,32.36%,35.05%,37.89%,2.0,0,8.3,49.0,54,798,5.1,0.9,GA-52668,33.286085,-84.7699537
Morrow,Georgia,6572,1944,Atlanta-Sandy Springs-Roswell,6026734,$70075,20.45%,26,$231000,1805,$128,45,76.27%,$1218,56.55%,419,9062,14.3%,10.08%,67.73%,Clayton County,83.60%,13.50%,32.85%,40.52%,5.11%,21.99%,30.83%,Eastern Standard Time,90,53,37,70,32,55%,57%,49,66,99,60%,63%,53%,53.57,13.86,16.65,31.12%,35.27%,37.11%,2.0,0,8.3,49.0,19,852,5.1,3.38,GA-53004,33.5815459,-84.3391728
Mount Zion,Georgia,2300,237,Atlanta-Sandy Springs-Roswell,6026734,$47429,18.1%,39,$280000,1772,$158,33,69.87%,$1100,35.13%,328,383,12.7%,4.95%,65.24%,Carroll County,28.00%,67.50%,0.0%,10.09%,79.39%,5.65%,4.43%,Eastern Standard Time,90,54,36,69,31,55%,57%,49,66,99,60%,63%,53%,53.91,11.81,16.6,33.86%,35.6%,40.89%,2.0,0,8.3,49.0,62,909,5.3,9.71,GA-53620,33.6408596,-85.180348
Mountain Park,Georgia,1051,2285,Atlanta-Sandy Springs-Roswell,6026734,$112679,62.22%,54,$442000,2056,$215,36,91.37%,$1543,35.33%,N/A,N/A,3.9%,3.09%,73.88%,Fulton County,67.70%,26.80%,0.0%,1.52%,94.2%,1.9%,5.04%,Eastern Standard Time,90,52,38,70,33,55%,57%,49,66,99,60%,63%,53%,53.15,12.88,15.12,33.59%,37.8%,37.44%,3.0,0,8.3,49.0,53,852,5.1,0.46,GA-53172,34.0829751,-84.4132664
Mountain Park CDP,Georgia,12680,2190,Atlanta-Sandy Springs-Roswell,6026734,$81119,44.96%,47,$442000,2056,$215,42,79.09%,$1587,41.44%,N/A,N/A,8.71%,2.7%,59.87%,Gwinnett County,50.20%,44.40%,21.97%,21.08%,44.44%,9.57%,27.83%,Eastern Standard Time,90,52,38,70,33,55%,57%,49,66,99,60%,63%,53%,53.1,13.58,15.18,33.59%,37.8%,37.44%,2.0,0,8.3,49.0,45,912,5,5.79,GA-53186,33.8457769,-84.1313366
Nelson,Georgia,965,635,Atlanta-Sandy Springs-Roswell,6026734,$65156,19.62%,39,$318000,1529,$208,25,81.03%,$938,40.68%,N/A,N/A,5.28%,3.12%,62.1%,Pickens County,14.10%,82.90%,1.55%,2.28%,87.15%,2.38%,1.87%,Eastern Standard Time,85,48,37,66,30,55%,57%,49,66,89,60%,63%,53%,58.4,13.28,16.95,30.68%,34.29%,34.22%,3.0,0,8.3,49.0,68,1341,5.1,1.52,GA-54572,34.378989,-84.3706903
Newborn,Georgia,795,497,Atlanta-Sandy Springs-Roswell,6026734,$58512,8.49%,40,$278000,2059,$135,48,88.05%,$926,46.58%,N/A,N/A,4.77%,9.17%,66.52%,Newton County,49.60%,47.30%,0.0%,19.87%,79.62%,0.5%,0.38%,Eastern Standard Time,93,58,35,68,30,55%,57%,49,66,106,60%,63%,53%,50.81,13.58,15.44,18.41%,20.77%,21.78%,2.0,0,8.3,49.0,55,675,4.9,1.6,GA-54656,33.5163389,-83.6958626
Newnan,Georgia,41598,2148,Atlanta-Sandy Springs-Roswell,6026734,$71630,37.16%,35,$323000,1900,$170,18,61.03%,$1198,51.14%,545,2676,9.26%,3.99%,68.04%,Coweta County,26.70%,68.40%,3.21%,34.05%,49.82%,8.59%,9.86%,Eastern Standard Time,90,54,36,68,32,55%,57%,49,66,99,60%,63%,53%,56.16,13.63,18.15,32.36%,35.05%,37.89%,2.0,0,8.3,49.0,54,798,5.1,19.37,GA-55020,33.3766906,-84.7761052
Norcross,Georgia,17413,2831,Atlanta-Sandy Springs-Roswell,6026734,$70403,37.15%,33,$406000,2020,$201,29,54.54%,$1354,43.31%,N/A,N/A,14.99%,3.21%,74.3%,Gwinnett County,50.20%,44.40%,13.35%,25.48%,20.39%,39.79%,31.34%,Eastern Standard Time,90,52,38,70,33,55%,57%,49,66,99,60%,63%,53%,54.66,14.22,15.08,33.59%,37.8%,37.44%,2.0,0,8.3,49.0,36,942,5,6.15,GA-55776,33.9378701,-84.2064276
North Decatur,Georgia,16369,3334,Atlanta-Sandy Springs-Roswell,6026734,$92627,76.95%,40,$450000,1557,$289,47,62.79%,$1365,53.1%,N/A,N/A,8.92%,4.76%,70.75%,DeKalb County,79.10%,16.20%,10.31%,13.73%,63.86%,7.05%,16.5%,Eastern Standard Time,90,52,38,70,33,55%,57%,49,66,99,60%,63%,53%,53.75,13.15,16.57,33.59%,37.8%,37.44%,2.0,0,8.3,49.0,38,915,5.2,4.91,GA-56112,33.807338,-84.2888897
North Druid Hills,Georgia,18143,4032,Atlanta-Sandy Springs-Roswell,6026734,$81830,75.9%,33,$530000,2218,$239,36,47.36%,$1604,64.92%,N/A,N/A,13.57%,3.51%,73.83%,DeKalb County,79.10%,16.20%,11.6%,18.66%,59.63%,6.86%,14.46%,Eastern Standard Time,90,52,38,70,33,55%,57%,49,66,99,60%,63%,53%,53.75,13.15,16.57,33.59%,37.8%,37.44%,2.0,0,8.3,49.0,33,915,5.2,4.5,GA-56168,33.8184975,-84.3254151
Orchard Hill,Georgia,229,636,Atlanta-Sandy Springs-Roswell,6026734,$30729,11.43%,37,N/A,N/A,N/A,49,69.42%,$767,55.03%,N/A,N/A,13.6%,6.9%,48.07%,Spalding County,36.40%,60.90%,0.0%,2.18%,94.76%,0.0%,2.18%,Eastern Standard Time,91,57,34,70,35,52%,54%,53,69,99,63%,67%,56%,51.83,13.1,16.15,35.51%,38.46%,38.67%,2.0,0,5.9,53.1,56,705,5.2,0.36,GA-58296,33.1850994,-84.212252
Oxford,Georgia,2022,940,Atlanta-Sandy Springs-Roswell,6026734,$46094,26.21%,24,$306000,1962,$156,52,55.67%,$1217,70.95%,85,470,13.97%,7.44%,55.96%,Newton County,49.60%,47.30%,4.2%,32.0%,56.48%,5.24%,4.25%,Eastern Standard Time,93,58,35,68,30,55%,57%,49,66,106,60%,63%,53%,50.81,13.58,15.44,18.41%,20.77%,21.78%,2.0,0,8.3,49.0,49,675,4.9,2.15,GA-58744,33.6276711,-83.8720881
Palmetto,Georgia,4843,408,Atlanta-Sandy Springs-Roswell,6026734,$48266,19.79%,38,$270000,1824,$148,33,58.05%,$968,58.98%,274,2298,19.99%,7.6%,63.14%,Fulton County,67.70%,26.80%,4.05%,60.25%,25.09%,6.19%,9.27%,Eastern Standard Time,91,56,35,70,34,55%,57%,49,66,101,60%,63%,53%,55.93,14.69,16.88,34.27%,37.58%,39.33%,2.0,0,8.3,49.0,55,810,5.1,11.86,GA-58884,33.5310989,-84.6677018
Panthersville,Georgia,9143,2491,Atlanta-Sandy Springs-Roswell,6026734,$43750,24.42%,40,$248000,1687,$147,45,45.18%,$1014,70.58%,N/A,N/A,20.69%,8.33%,63.97%,DeKalb County,79.10%,16.20%,0.31%,93.54%,4.59%,1.19%,5.34%,Eastern Standard Time,90,54,36,72,36,55%,57%,49,66,99,60%,63%,53%,52.93,13.48,15.84,31.51%,36.59%,35.89%,2.0,0,8.3,49.0,31,912,5.2,3.67,GA-59080,33.7059217,-84.2763215
Peachtree City,Georgia,37867,1506,Atlanta-Sandy Springs-Roswell,6026734,$103374,59.0%,43,$542000,2569,$211,29,75.88%,$1678,38.13%,N/A,N/A,6.77%,3.45%,60.58%,Fayette County,37.90%,57.00%,7.75%,6.88%,73.16%,7.95%,14.76%,Eastern Standard Time,91,56,35,70,34,55%,57%,49,66,101,60%,63%,53%,48.4,12.17,14.69,35.51%,38.46%,38.67%,2.0,0,8.3,49.0,53,786,5.1,25.14,GA-59724,33.3941891,-84.5709915
Peachtree Corners,Georgia,42065,2611,Atlanta-Sandy Springs-Roswell,6026734,$68738,51.8%,36,$555000,2748,$202,33,56.86%,$1320,45.51%,N/A,N/A,8.12%,2.79%,70.02%,Gwinnett County,50.20%,44.40%,9.26%,24.38%,46.42%,16.17%,18.78%,Eastern Standard Time,90,52,38,70,33,55%,57%,49,66,99,60%,63%,53%,54.66,14.22,15.08,33.59%,37.8%,37.44%,2.0,0,8.3,49.0,42,942,5,16.11,GA-59735,33.9670123,-84.2319611
Pine Lake,Georgia,822,3425,Atlanta-Sandy Springs-Roswell,6026734,$66964,49.1%,45,$325000,1105,$294,70,51.08%,$1079,51.99%,N/A,N/A,6.69%,3.11%,70.51%,DeKalb County,79.10%,16.20%,0.49%,22.02%,74.82%,1.58%,0.49%,Eastern Standard Time,90,52,38,70,33,55%,57%,49,66,99,60%,63%,53%,53.75,13.15,16.57,33.59%,37.8%,37.44%,2.0,0,8.3,49.0,42,915,5.2,0.24,GA-61040,33.7904855,-84.206075
Porterdale,Georgia,1894,796,Atlanta-Sandy Springs-Roswell,6026734,$26481,9.38%,35,$133000,1478,$90,N/A,31.21%,$939,52.11%,N/A,N/A,35.37%,4.97%,46.96%,Newton County,49.60%,47.30%,0.0%,30.15%,60.56%,4.86%,1.64%,Eastern Standard Time,93,58,35,68,30,55%,57%,49,66,106,60%,63%,53%,50.81,13.58,15.44,18.41%,20.77%,21.78%,2.0,0,8.3,49.0,50,675,4.9,2.38,GA-62244,33.5738547,-83.8940689
Powder Springs,Georgia,16698,2263,Atlanta-Sandy Springs-Roswell,6026734,$78912,36.99%,38,$357000,2040,$175,27,76.98%,$1430,52.11%,N/A,N/A,8.64%,5.43%,68.49%,Cobb County,47.90%,45.80%,1.79%,53.67%,27.06%,18.07%,13.11%,Eastern Standard Time,90,53,37,68,31,55%,57%,49,66,99,60%,63%,53%,52.04,13.24,14.96,32.58%,36.04%,36.67%,2.0,0,8.3,49.0,48,999,4.9,7.38,GA-62524,33.8658842,-84.6840557
Redan,Georgia,32712,4044,Atlanta-Sandy Springs-Roswell,6026734,$57263,27.4%,38,$259000,1799,$144,36,53.36%,$1242,65.8%,N/A,N/A,16.33%,8.43%,72.02%,DeKalb County,79.10%,16.20%,0.17%,93.6%,2.29%,1.73%,13.18%,Eastern Standard Time,90,52,38,70,33,55%,57%,49,66,99,60%,63%,53%,52.93,13.48,15.84,33.59%,37.8%,37.44%,2.0,0,8.3,49.0,43,912,5.2,8.09,GA-63952,33.7393322,-84.1643518
Rest Haven,Georgia,36,225,Atlanta-Sandy Springs-Roswell,6026734,N/A,0.0%,54,N/A,N/A,N/A,29,60.47%,$1075,51.43%,N/A,N/A,0.0%,0.0%,68.57%,Gwinnett County,50.20%,44.40%,0.0%,0.0%,86.11%,8.33%,0.0%,Eastern Standard Time,89,52,37,68,31,55%,57%,49,66,96,60%,63%,53%,57.19,13.91,16.14,34.47%,37.69%,39.56%,3.0,0,8.3,49.0,55,1104,5,0.16,GA-64792,34.1362455,-83.9747144
Riverdale,Georgia,15013,3397,Atlanta-Sandy Springs-Roswell,6026734,$57920,18.02%,35,$227000,1746,$130,30,51.68%,$1011,57.99%,N/A,N/A,13.2%,2.92%,68.03%,Clayton County,83.60%,13.50%,6.96%,82.33%,5.35%,4.44%,15.06%,Eastern Standard Time,90,53,37,70,32,55%,57%,49,66,99,60%,63%,53%,53.82,13.84,16.25,31.12%,35.27%,37.11%,2.0,0,8.3,49.0,26,870,5.1,4.42,GA-65464,33.5638016,-84.4102834
Roopville,Georgia,367,465,Atlanta-Sandy Springs-Roswell,6026734,$61750,12.3%,29,N/A,N/A,N/A,45,42.97%,$1375,52.88%,N/A,N/A,4.9%,1.74%,42.91%,Carroll County,28.00%,67.50%,0.0%,15.53%,83.65%,0.27%,0.0%,Eastern Standard Time,90,54,36,69,31,55%,57%,49,66,99,60%,63%,53%,54.73,13.24,16.53,33.86%,35.6%,40.89%,2.0,0,8.3,49.0,60,966,5.3,0.79,GA-66696,33.4566386,-85.1304074
Roswell,Georgia,92688,2276,Atlanta-Sandy Springs-Roswell,6026734,$111214,61.91%,40,$559000,2473,$226,32,70.81%,$1447,42.64%,N/A,N/A,6.09%,4.03%,70.02%,Fulton County,67.70%,26.80%,4.07%,12.48%,61.86%,17.05%,19.43%,Eastern Standard Time,90,52,38,70,33,55%,57%,49,66,99,60%,63%,53%,53.15,12.88,15.12,33.59%,37.8%,37.44%,2.0,0,8.3,49.0,48,852,5.1,40.72,GA-67284,34.039149,-84.3512502
Russell,Georgia,1737,1497,Atlanta-Sandy Springs-Roswell,6026734,$46486,5.53%,29,$280000,1207,$232,34,30.42%,$1047,51.7%,N/A,N/A,18.94%,9.22%,63.51%,Barrow County,22.60%,72.60%,6.22%,16.47%,47.61%,7.77%,10.13%,Eastern Standard Time,93,55,38,70,34,55%,57%,49,66,106,60%,63%,53%,52.63,13.43,14.56,34.63%,38.02%,40.0%,4.3,1,8.3,49.0,53,678,5,1.16,GA-67676,33.9796749,-83.6918014
Rutledge,Georgia,1105,336,Atlanta-Sandy Springs-Roswell,6026734,$58750,17.1%,34,$420000,2414,$174,41,61.44%,$800,49.28%,N/A,N/A,16.83%,4.14%,66.87%,Morgan County,28.10%,69.20%,0.0%,48.33%,44.16%,0.0%,0.63%,Eastern Standard Time,90,54,36,69,34,55%,57%,49,66,99,60%,63%,53%,50.81,13.58,15.44,30.58%,33.41%,36.22%,2.0,0,8.3,49.0,56,675,5.2,3.29,GA-67760,33.626371,-83.611223
Sandy Springs,Georgia,106605,2831,Atlanta-Sandy Springs-Roswell,6026734,$86548,67.86%,37,$650000,2754,$236,34,53.23%,$1490,52.69%,129,1780,6.47%,3.4%,73.8%,Fulton County,67.70%,26.80%,7.52%,19.45%,58.63%,11.26%,17.69%,Eastern Standard Time,90,52,38,70,33,55%,57%,49,66,99,60%,63%,53%,53.15,12.88,15.12,33.59%,37.8%,37.44%,2.0,0,8.3,49.0,42,852,5.1,37.66,GA-68516,33.9366588,-84.3703254
Scottdale,Georgia,10582,3178,Atlanta-Sandy Springs-Roswell,6026734,$68317,48.76%,32,$330000,1675,$197,37,33.5%,$1215,57.8%,N/A,N/A,10.23%,3.94%,76.69%,DeKalb County,79.10%,16.20%,21.67%,26.64%,28.17%,17.74%,26.45%,Eastern Standard Time,90,52,38,70,33,55%,57%,49,66,99,60%,63%,53%,53.75,13.15,16.57,33.59%,37.8%,37.44%,2.0,0,8.3,49.0,37,915,5.2,3.33,GA-69392,33.7950056,-84.2633457
Senoia,Georgia,4862,789,Atlanta-Sandy Springs-Roswell,6026734,$99120,48.67%,36,$487000,2706,$180,17,84.29%,$1195,31.12%,N/A,N/A,6.75%,6.76%,73.19%,Coweta County,26.70%,68.40%,1.28%,16.93%,76.43%,1.93%,6.99%,Eastern Standard Time,91,56,35,70,34,55%,57%,49,66,101,60%,63%,53%,55.61,14.03,17.53,35.51%,38.46%,38.67%,2.0,0,8.3,49.0,57,762,5.1,6.16,GA-69672,33.3081763,-84.554647
Shady Dale,Georgia,288,324,Atlanta-Sandy Springs-Roswell,6026734,$53750,7.66%,41,N/A,N/A,N/A,34,88.97%,$925,64.68%,N/A,N/A,8.33%,2.52%,64.37%,Jasper County,25.50%,72.10%,0.0%,17.71%,34.38%,47.22%,28.82%,Eastern Standard Time,93,58,35,68,30,52%,54%,53,69,104,63%,67%,56%,45.3,10.88,13.92,18.41%,20.77%,21.78%,2.0,0,5.9,53.1,57,474,5.3,0.89,GA-69784,33.4008104,-83.5880106
Sharpsburg,Georgia,519,535,Atlanta-Sandy Springs-Roswell,6026734,$67763,18.46%,37,$438000,2342,$187,42,66.05%,$1060,38.9%,N/A,N/A,17.15%,3.36%,57.35%,Coweta County,26.70%,68.40%,1.16%,18.88%,71.87%,4.62%,5.39%,Eastern Standard Time,91,56,35,70,34,55%,57%,49,66,101,60%,63%,53%,48.4,12.17,14.69,35.51%,38.46%,38.67%,2.0,0,8.3,49.0,58,786,5.1,0.97,GA-69980,33.3370614,-84.6504854
Smyrna,Georgia,55460,3564,Atlanta-Sandy Springs-Roswell,6026734,$83029,55.84%,36,$448000,2093,$214,32,56.84%,$1396,50.78%,N/A,N/A,8.48%,3.97%,77.51%,Cobb County,47.90%,45.80%,7.99%,32.07%,43.91%,13.6%,15.81%,Eastern Standard Time,90,54,36,70,33,55%,57%,49,66,99,60%,63%,53%,50.61,12.1,14.68,32.99%,37.14%,36.44%,2.0,0,8.3,49.0,43,942,4.9,15.56,GA-71492,33.8633704,-84.5168344
Snellville,Georgia,20475,1956,Atlanta-Sandy Springs-Roswell,6026734,$83691,38.69%,40,$374000,2367,$158,33,79.6%,$1554,47.84%,273,3186,8.01%,4.89%,63.71%,Gwinnett County,50.20%,44.40%,8.07%,39.93%,37.14%,10.11%,20.46%,Eastern Standard Time,90,52,38,70,33,55%,57%,49,66,99,60%,63%,53%,53.1,13.58,15.18,33.59%,37.8%,37.44%,2.0,0,8.3,49.0,48,912,5,10.47,GA-71604,33.8561802,-84.0037831
Social Circle,Georgia,4892,336,Atlanta-Sandy Springs-Roswell,6026734,$76185,22.06%,40,$314000,1987,$158,24,78.8%,$1026,42.37%,N/A,N/A,4.61%,4.04%,66.22%,Walton County,20.40%,76.50%,0.0%,37.57%,56.75%,5.4%,3.58%,Eastern Standard Time,90,54,36,69,34,55%,57%,49,66,99,60%,63%,53%,50.81,13.58,15.44,30.58%,33.41%,36.22%,2.0,0,8.3,49.0,57,675,5,14.58,GA-71660,33.6505425,-83.7115944
Statham,Georgia,2771,698,Atlanta-Sandy Springs-Roswell,6026734,$57745,20.17%,34,$348000,2035,$171,28,67.53%,$938,52.09%,N/A,N/A,12.92%,3.88%,74.32%,Barrow County,22.60%,72.60%,0.87%,21.08%,63.44%,11.84%,5.49%,Eastern Standard Time,93,55,38,70,34,55%,57%,49,66,106,60%,63%,53%,52.63,13.43,14.56,34.63%,38.02%,40.0%,4.3,1,8.3,49.0,58,678,5,3.97,GA-73312,33.964724,-83.6018216
Stockbridge,Georgia,28567,2085,Atlanta-Sandy Springs-Roswell,6026734,$61939,34.02%,36,$330000,2340,$141,21,51.68%,$1192,61.39%,N/A,N/A,11.13%,6.82%,72.42%,Henry County,50.40%,46.00%,7.59%,66.37%,16.32%,7.52%,11.91%,Eastern Standard Time,90,53,37,70,32,55%,57%,49,66,99,60%,63%,53%,53.57,13.86,16.65,31.12%,35.27%,37.11%,2.0,0,8.3,49.0,33,852,5.3,13.7,GA-73704,33.5253984,-84.2295981
Stone Mountain,Georgia,6622,4013,Atlanta-Sandy Springs-Roswell,6026734,$44716,21.85%,35,$275000,1821,$151,44,42.16%,$1267,67.97%,N/A,N/A,12.78%,5.64%,67.43%,DeKalb County,79.10%,16.20%,0.0%,86.44%,11.19%,2.05%,14.5%,Eastern Standard Time,90,52,38,70,33,55%,57%,49,66,99,60%,63%,53%,53.75,13.15,16.57,33.59%,37.8%,37.44%,2.0,0,8.3,49.0,45,915,5.2,1.65,GA-73816,33.8035588,-84.1722392
Sugar Hill,Georgia,24599,2210,Atlanta-Sandy Springs-Roswell,6026734,$89583,40.93%,37,$440000,2304,$191,20,84.86%,$1303,39.44%,N/A,N/A,8.23%,3.68%,71.36%,Gwinnett County,50.20%,44.40%,11.39%,12.39%,54.45%,19.88%,24.87%,Eastern Standard Time,89,52,37,68,31,55%,57%,49,66,96,60%,63%,53%,57.2,16.22,16.58,34.47%,37.69%,39.56%,3.0,0,8.3,49.0,56,1053,5,11.13,GA-74180,34.1011446,-84.0274592
Sunny Side,Georgia,139,695,Atlanta-Sandy Springs-Roswell,6026734,N/A,10.53%,40,N/A,N/A,N/A,69,44.13%,N/A,24.21%,N/A,N/A,1.44%,2.13%,50.54%,Spalding County,36.40%,60.90%,0.0%,10.79%,89.21%,0.0%,0.0%,Eastern Standard Time,90,53,37,70,32,55%,57%,49,66,99,60%,63%,53%,52.82,13.0,16.25,31.12%,35.27%,37.11%,2.0,0,8.3,49.0,57,711,5.2,0.2,GA-74572,33.3420504,-84.2911097
Suwanee,Georgia,20629,1877,Atlanta-Sandy Springs-Roswell,6026734,$99022,62.82%,38,$543000,2537,$214,21,76.53%,$1693,45.85%,182,1842,9.51%,4.03%,76.69%,Gwinnett County,50.20%,44.40%,20.96%,15.97%,56.36%,5.31%,21.2%,Eastern Standard Time,89,52,37,68,31,55%,57%,49,66,96,60%,63%,53%,54.78,13.86,15.25,33.59%,37.8%,37.44%,2.0,0,8.3,49.0,52,864,5,10.99,GA-74936,34.0508193,-84.0685951
Talking Rock,Georgia,101,49,Atlanta-Sandy Springs-Roswell,6026734,N/A,23.29%,47,$390000,3421,$114,26,82.73%,N/A,38.3%,N/A,N/A,6.93%,4.55%,51.76%,Pickens County,14.10%,82.90%,0.0%,0.0%,86.14%,0.0%,0.0%,Eastern Standard Time,85,48,37,66,30,55%,57%,49,66,89,60%,63%,53%,58.4,13.28,16.95,30.68%,34.29%,34.22%,3.0,0,8.3,49.0,70,1341,5.1,2.06,GA-75272,34.523881,-84.4896089
Tallapoosa,Georgia,3189,318,Atlanta-Sandy Springs-Roswell,6026734,$50625,13.54%,37,$167000,1121,$149,38,63.09%,$557,42.88%,443,2694,18.5%,0.08%,56.77%,Haralson County,13.00%,84.40%,0.0%,11.35%,85.2%,1.85%,1.57%,Eastern Standard Time,90,54,36,69,31,55%,57%,49,66,99,60%,63%,53%,53.91,11.81,16.6,33.86%,35.6%,40.89%,2.0,0,8.3,49.0,59,909,4.9,10.03,GA-75300,33.7334715,-85.2858367
Taylorsville,Georgia,398,267,Atlanta-Sandy Springs-Roswell,6026734,$40938,15.69%,55,$160000,769,$208,60,71.79%,$825,51.65%,N/A,N/A,10.55%,0.0%,39.81%,Bartow County,20.70%,75.30%,1.76%,0.5%,92.46%,5.03%,2.76%,Eastern Standard Time,90,53,37,68,31,55%,57%,49,66,99,60%,63%,53%,49.86,11.56,14.9,34.33%,37.47%,38.56%,3.0,0,8.3,49.0,58,660,5.3,1.49,GA-75664,34.0859854,-84.9875659
Temple,Georgia,5093,748,Atlanta-Sandy Springs-Roswell,6026734,$77509,12.69%,33,$285000,1863,$153,20,74.64%,$1047,41.81%,N/A,N/A,2.77%,0.0%,67.1%,Carroll County,28.00%,67.50%,0.0%,24.72%,73.79%,0.96%,4.14%,Eastern Standard Time,90,54,36,69,31,55%,57%,49,66,99,60%,63%,53%,54.45,12.72,16.39,33.86%,35.6%,40.89%,2.0,0,8.3,49.0,54,1062,5.3,6.81,GA-75832,33.7341734,-85.0289058
Tucker,Georgia,36764,1820,Atlanta-Sandy Springs-Roswell,6026734,$75377,47.58%,45,$400000,1923,$208,43,64.54%,$1242,52.41%,N/A,N/A,10.31%,7.18%,64.07%,DeKalb County,79.10%,16.20%,5.47%,34.17%,45.79%,9.32%,16.18%,Eastern Standard Time,90,52,38,70,33,55%,57%,49,66,99,60%,63%,53%,52.38,12.98,15.38,33.59%,37.8%,37.44%,2.0,0,8.3,49.0,40,903,5.2,20.2,GA-77652,33.843603,-84.2023962
Turin,Georgia,342,214,Atlanta-Sandy Springs-Roswell,6026734,$96250,27.17%,39,$626000,2981,$210,19,86.21%,$883,42.86%,N/A,N/A,6.73%,0.0%,54.74%,Coweta County,26.70%,68.40%,0.0%,15.2%,80.99%,3.8%,2.34%,Eastern Standard Time,91,56,35,70,34,55%,57%,49,66,101,60%,63%,53%,48.4,12.17,14.69,35.51%,38.46%,38.67%,2.0,0,8.3,49.0,58,786,5.1,1.6,GA-77764,33.3234377,-84.6374031
Tyrone,Georgia,7615,609,Atlanta-Sandy Springs-Roswell,6026734,$94189,57.13%,43,$425000,2485,$171,25,87.64%,$952,32.4%,67,885,1.96%,2.99%,65.01%,Fayette County,37.90%,57.00%,3.97%,29.52%,57.91%,3.62%,6.87%,Eastern Standard Time,91,56,35,70,34,55%,57%,49,66,101,60%,63%,53%,55.93,14.69,16.88,34.27%,37.58%,39.33%,2.0,0,8.3,49.0,54,810,5.1,12.5,GA-78044,33.4751607,-84.5940985
Union City,Georgia,26273,1336,Atlanta-Sandy Springs-Roswell,6026734,$42383,26.58%,33,$221000,1535,$144,19,36.53%,$1076,71.69%,N/A,N/A,8.61%,4.63%,70.55%,Fulton County,67.70%,26.80%,0.0%,90.74%,4.0%,3.8%,4.67%,Eastern Standard Time,90,54,36,72,36,55%,57%,49,66,99,60%,63%,53%,53.82,13.84,16.25,31.51%,36.59%,35.89%,2.0,0,8.3,49.0,43,870,5.1,19.67,GA-78324,33.5941494,-84.562832
Villa Rica,Georgia,16863,1151,Atlanta-Sandy Springs-Roswell,6026734,$76544,26.86%,34,$265000,1489,$178,17,62.78%,$1181,53.59%,N/A,N/A,7.08%,4.76%,69.82%,Carroll County,28.00%,67.50%,3.59%,42.59%,41.5%,8.22%,7.81%,Eastern Standard Time,90,54,36,69,31,55%,57%,49,66,99,60%,63%,53%,51.81,12.48,15.13,33.86%,35.6%,40.89%,2.0,0,8.3,49.0,55,1053,5.3,14.65,GA-79528,33.7294055,-84.9176246
Vinings,Georgia,12793,4087,Atlanta-Sandy Springs-Roswell,6026734,$86932,70.58%,33,$561000,2244,$250,28,40.26%,$1493,62.81%,N/A,N/A,3.31%,2.7%,79.58%,Cobb County,47.90%,45.80%,5.07%,28.08%,54.12%,6.95%,12.35%,Eastern Standard Time,90,54,36,70,33,55%,57%,49,66,99,60%,63%,53%,50.61,12.1,14.68,32.99%,37.14%,36.44%,2.0,0,8.3,49.0,35,942,4.9,3.13,GA-79612,33.8607697,-84.4686159
Waco,Georgia,594,323,Atlanta-Sandy Springs-Roswell,6026734,$31141,5.68%,39,N/A,N/A,N/A,53,61.83%,$777,52.37%,N/A,N/A,25.76%,6.82%,63.01%,Haralson County,13.00%,84.40%,0.51%,0.0%,79.8%,5.72%,2.02%,Eastern Standard Time,90,54,36,69,31,55%,57%,49,66,99,60%,63%,53%,53.91,11.81,16.6,33.86%,35.6%,40.89%,2.0,0,8.3,49.0,57,909,4.9,1.84,GA-79808,33.7026004,-85.1892449
Waleska,Georgia,773,489,Atlanta-Sandy Springs-Roswell,6026734,N/A,23.49%,21,$415000,2024,$205,61,34.64%,$779,89.29%,N/A,N/A,2.44%,27.22%,48.77%,Cherokee County,22.40%,71.50%,1.29%,17.46%,66.24%,9.06%,3.88%,Eastern Standard Time,85,48,37,66,30,55%,57%,49,66,89,60%,63%,53%,52.79,12.21,15.56,30.68%,34.29%,34.22%,3.0,0,8.3,49.0,66,1053,5.2,1.58,GA-79948,34.3171036,-84.5499823
Walnut Grove,Georgia,1670,588,Atlanta-Sandy Springs-Roswell,6026734,$72917,9.77%,42,$297000,1470,$202,28,83.96%,$1095,45.47%,N/A,N/A,12.87%,4.75%,69.18%,Walton County,20.40%,76.50%,2.04%,3.83%,86.41%,1.08%,0.18%,Eastern Standard Time,90,54,36,69,34,55%,57%,49,66,99,60%,63%,53%,50.81,13.03,14.71,30.58%,33.41%,36.22%,2.0,0,8.3,49.0,55,858,5,2.84,GA-80228,33.745157,-83.8512232
Warm Springs,Georgia,621,414,Atlanta-Sandy Springs-Roswell,6026734,$43846,7.87%,32,N/A,N/A,N/A,30,31.49%,$800,79.74%,N/A,N/A,38.41%,5.77%,55.79%,Meriwether County,41.30%,56.70%,0.0%,51.53%,46.05%,0.81%,0.97%,Eastern Standard Time,90,57,33,68,34,53%,54%,53,69,98,63%,67%,56%,52.38,12.56,16.68,29.81%,35.6%,34.56%,2.0,0,6.0,53.8,60,669,3.6,1.5,GA-80480,32.8869343,-84.67807
White,Georgia,904,861,Atlanta-Sandy Springs-Roswell,6026734,$60750,7.63%,33,$330000,1875,$176,42,48.54%,$744,48.18%,N/A,N/A,10.85%,8.45%,71.64%,Bartow County,20.70%,75.30%,0.0%,0.0%,79.76%,19.36%,11.06%,Eastern Standard Time,89,53,36,68,29,55%,57%,49,66,96,60%,63%,53%,50.89,10.16,15.85,33.53%,35.38%,39.89%,3.0,0,8.3,49.0,56,873,5.3,1.05,GA-82468,34.2822338,-84.748028
Whitesburg,Georgia,600,217,Atlanta-Sandy Springs-Roswell,6026734,$53958,10.51%,34,$270000,2813,$96,52,56.72%,$788,53.3%,N/A,N/A,25.91%,8.2%,67.18%,Carroll County,28.00%,67.50%,0.0%,9.0%,81.5%,5.67%,3.17%,Eastern Standard Time,90,54,36,68,32,55%,57%,49,66,99,60%,63%,53%,55.62,12.87,18.04,32.36%,35.05%,37.89%,2.0,0,8.3,49.0,60,726,5.3,2.77,GA-82720,33.4927635,-84.9136664
Williamson,Georgia,692,528,Atlanta-Sandy Springs-Roswell,6026734,$94792,20.78%,34,$460000,2584,$178,22,82.12%,$895,40.04%,N/A,N/A,9.1%,2.78%,59.12%,Pike County,14.20%,83.40%,1.59%,5.64%,73.7%,18.21%,16.47%,Eastern Standard Time,91,57,34,70,35,55%,57%,49,66,101,60%,63%,53%,52.82,13.0,16.25,35.51%,38.46%,38.67%,2.0,0,8.3,49.0,59,711,5.3,1.31,GA-83084,33.1776301,-84.3581806
Winder,Georgia,17768,1298,Atlanta-Sandy Springs-Roswell,6026734,$57708,20.55%,37,$315000,1831,$172,26,65.87%,$1046,49.59%,N/A,N/A,13.84%,5.69%,66.4%,Barrow County,22.60%,72.60%,2.51%,19.36%,59.74%,14.78%,8.05%,Eastern Standard Time,88,51,37,70,34,55%,57%,49,66,94,60%,63%,53%,52.63,13.43,14.56,34.47%,37.69%,39.56%,4.3,1,8.3,49.0,53,678,5,13.69,GA-83420,33.9916339,-83.7217257
Woodbury,Georgia,901,435,Atlanta-Sandy Springs-Roswell,6026734,$38125,7.0%,41,$180000,1565,$115,56,75.85%,$732,57.95%,N/A,N/A,31.52%,1.55%,51.53%,Meriwether County,41.30%,56.70%,0.0%,65.7%,33.63%,0.0%,0.0%,Eastern Standard Time,91,57,34,70,35,53%,54%,53,69,100,60%,63%,53%,52.38,12.56,16.68,35.51%,38.46%,38.67%,2.0,0,6.0,53.8,59,669,3.6,2.07,GA-83896,32.9848678,-84.5819756
Woodstock,Georgia,33857,2715,Atlanta-Sandy Springs-Roswell,6026734,$92648,49.7%,37,$434000,2117,$205,16,72.25%,$1519,45.48%,116,1308,5.56%,3.26%,75.59%,Cherokee County,22.40%,71.50%,2.87%,9.83%,72.54%,9.32%,9.91%,Eastern Standard Time,89,53,36,68,29,55%,57%,49,66,96,60%,63%,53%,52.79,12.21,15.56,32.58%,36.04%,36.67%,3.0,0,8.3,49.0,51,1053,5.2,12.47,GA-84176,34.1026226,-84.5090485
Woolsey,Georgia,184,224,Atlanta-Sandy Springs-Roswell,6026734,$90625,34.92%,46,$585000,5519,$106,35,97.44%,N/A,31.79%,N/A,N/A,1.64%,3.7%,55.78%,Fayette County,37.90%,57.00%,1.09%,0.0%,91.3%,2.72%,1.63%,Eastern Standard Time,91,56,35,70,34,55%,57%,49,66,101,60%,63%,53%,52.82,13.0,16.25,35.51%,38.46%,38.67%,2.0,0,8.3,49.0,58,711,5.1,0.82,GA-84288,33.36262,-84.4112603
Zebulon,Georgia,1443,305,Atlanta-Sandy Springs-Roswell,6026734,$36500,16.25%,38,$335000,1831,$183,38,63.4%,$809,56.17%,N/A,N/A,31.9%,7.64%,47.01%,Pike County,14.20%,83.40%,1.46%,21.21%,72.0%,1.73%,0.42%,Eastern Standard Time,91,57,34,70,35,52%,54%,53,69,99,63%,67%,56%,51.83,13.1,16.15,35.51%,38.46%,38.67%,2.0,0,5.9,53.1,58,705,5.3,4.73,GA-85128,33.093083,-84.3426372
