City,State,Population,People per sq mi,Metro Name,Metro population,Median household income,% with at least Bachelor's degree,Median age,Median home price,Median home sqft,Median home cost per sqft,Median home age,Homeownership Rate,Avg Apartment Monthly Rent,Single Population,Num Violent Crimes Per 100k residents,Num Property Crimes Per 100k residents,Poverty Rate,Unemployment rate,Labor Force Participation rate,County,% Democrat,% Republican,% Asian,% Black,% Non-Hispanic White,% Hispanic,Foreign Born %,Timezone,Hottest month's avg high (F),Coldest month's avg high (F),Hottest high minus coldest high,Annual rainfall (in),Annual days of precipitation,Annual snowfall (in),Average yearly windspeed (mph),Air quality Index,Elevation (ft),UV Index,Land Area (sq mi),Fips Code,Latitude,Longitude,Annual Sunshine - Percentage of Possible,Summer Sunshine - Percentage of Possible,Winter Sunshine - Percentage of Possible,Annual Relative Humidity (afternoon),Summer Relative Humidity (afternoon),Number of days with thunder per year,Annual dew point (F),Average summer dew point (F),Hottest month's avg low (F),Coldest month's avg low (F),Summer rainfall (in),Winter rainfall (in),Percent of days that include precipitation,Percent of Summer days that include precipitation,Percent of Winter days that include precipitation
Auburn,Michigan,1990,1877,Bay City,102387,$49861,34.52%,45,$136000,1115,$122,51,68.5%,$647,51.32%,N/A,N/A,6.58%,0.93%,63.24%,Bay County,40.60%,53.20%,0.05%,0.0%,94.82%,2.41%,2.26%,Eastern Standard Time,N/A,N/A,N/A,N/A,124,N/A,8.1,80,595,3.3,1.06,MI-04080,43.6021025,-84.0756064,50%,66%,39%,61%,55%,32.3,38,58,N/A,N/A,N/A,N/A,35.92%,34.95%,38.33%
Bangor charter township,Michigan,14248,8050,Bay City,102387,$44636,N/A,N/A,N/A,N/A,N/A,48,67.50%,N/A,50.00%,1097,1316,N/A,5.50%,N/A,Bay County,40.60%,53.20%,0.5%,1.2%,92.5%,2.1%,N/A,Eastern Standard Time,N/A,N/A,N/A,N/A,118,N/A,8.1,73,595,3.3,1.77,MI-05120,43.6523577,-83.8950682,50%,66%,39%,61%,55%,32.3,38,58,N/A,N/A,N/A,N/A,35.92%,34.95%,38.33%
Bay City,Michigan,32892,3234,Bay City,102387,$38014,16.23%,39,$123000,1309,$94,74,70.89%,$635,61.03%,826,1994,24.71%,7.94%,60.84%,Bay County,40.60%,53.20%,0.5%,2.86%,83.86%,9.17%,1.34%,Eastern Standard Time,N/A,N/A,N/A,N/A,118,N/A,8.1,65,595,3.3,10.17,MI-06020,43.5902482,-83.8886292,50%,66%,39%,61%,55%,32.3,38,58,N/A,N/A,N/A,N/A,35.92%,34.95%,38.33%
Beaver township (Bay Cnty),Michigan,2822,80,Bay City,102387,$52539,N/A,N/A,N/A,N/A,N/A,44,87.80%,N/A,40.00%,N/A,N/A,N/A,5.50%,N/A,Bay County,40.60%,53.20%,0.0%,0.0%,96.5%,2.5%,N/A,Eastern Standard Time,N/A,N/A,N/A,N/A,124,N/A,8.1,83,595,3.3,35.28,MI-06540,43.696916,-84.1074957,50%,66%,39%,61%,55%,32.3,38,58,N/A,N/A,N/A,N/A,35.92%,34.95%,38.33%
Essexville,Michigan,3294,2534,Bay City,102387,$59961,24.51%,41,$148000,1465,$101,69,89.84%,$1048,51.32%,0,637,10.6%,3.78%,57.26%,Bay County,40.60%,53.20%,0.0%,0.88%,90.1%,7.71%,0.0%,Eastern Standard Time,N/A,N/A,N/A,N/A,118,N/A,8.1,72,595,3.3,1.3,MI-26420,43.6122596,-83.8423256,50%,66%,39%,61%,55%,32.3,38,58,N/A,N/A,N/A,N/A,35.92%,34.95%,38.33%
Frankenlust,Michigan,3525,167,Bay City,102387,$68375,39.50%,N/A,N/A,N/A,N/A,28,65.80%,N/A,38.60%,N/A,N/A,N/A,5.50%,N/A,Bay County,40.60%,53.20%,3.4%,2.3%,92.2%,1.4%,N/A,Eastern Standard Time,N/A,N/A,N/A,N/A,119,N/A,8.1,80,595,3.3,21.11,MI-30180,43.5441641,-83.9734378,50%,66%,39%,61%,55%,32.3,38,58,N/A,N/A,N/A,N/A,35.92%,34.95%,38.33%
Fraser township,Michigan,3116,753,Bay City,102387,$48203,N/A,N/A,$216000,1333,$162,54,94.10%,N/A,42.40%,226,1509,N/A,5.50%,N/A,Bay County,40.60%,53.20%,0.0%,0.0%,98.0%,2.0%,N/A,Eastern Standard Time,N/A,N/A,N/A,N/A,122,N/A,8.1,85,595,3.3,4.14,MI-30400,43.7829466,-83.9802482,50%,66%,39%,62%,55%,31.4,35,55,N/A,N/A,N/A,N/A,35.92%,34.95%,38.33%
Garfield township (Bay Cnty),Michigan,1890,53,Bay City,102387,$47614,N/A,N/A,N/A,N/A,N/A,43,88.70%,N/A,41.40%,0,0,N/A,5.50%,N/A,Bay County,40.60%,53.20%,0.0%,0.0%,96.6%,2.8%,N/A,Eastern Standard Time,N/A,N/A,N/A,N/A,122,N/A,8.1,85,595,3.3,35.66,MI-31540,43.7827936,-84.1068597,50%,66%,39%,62%,55%,31.4,35,55,N/A,N/A,N/A,N/A,35.92%,34.95%,38.33%
Gibson,Michigan,1140,32,Bay City,102387,$49306,10.75%,N/A,N/A,N/A,N/A,43,74.90%,N/A,41.00%,N/A,N/A,N/A,5.50%,N/A,Bay County,40.60%,53.20%,0.6%,0.0%,95.6%,2.6%,N/A,Eastern Standard Time,N/A,N/A,N/A,N/A,115,N/A,8.1,87,595,3.3,35.63,MI-32040,43.9542722,-84.105478,48%,63%,35%,62%,55%,31.4,35,55,N/A,N/A,N/A,N/A,35.15%,32.31%,37.89%
Hampton charter township,Michigan,9484,347,Bay City,102387,$48000,N/A,N/A,N/A,N/A,N/A,43,57.90%,N/A,52.80%,169,806,N/A,5.50%,N/A,Bay County,40.60%,53.20%,0.1%,2.3%,90.8%,4.9%,N/A,Eastern Standard Time,N/A,N/A,N/A,N/A,118,N/A,8.1,79,595,3.3,27.33,MI-36260,43.6252566,-83.7711083,50%,66%,39%,61%,55%,32.3,38,58,N/A,N/A,N/A,N/A,35.92%,34.95%,38.33%
Kawkawlin,Michigan,4747,146,Bay City,102387,$61543,19.69%,N/A,N/A,N/A,N/A,45,81.40%,N/A,42.30%,N/A,N/A,N/A,5.50%,N/A,Bay County,40.60%,53.20%,0.5%,0.0%,96.5%,1.6%,N/A,Eastern Standard Time,N/A,N/A,N/A,N/A,123,N/A,8.1,83,595,3.3,32.51,MI-42360,43.6997978,-83.9752691,50%,66%,39%,61%,55%,32.3,38,58,N/A,N/A,N/A,N/A,35.92%,34.95%,38.33%
Merritt,Michigan,1306,41,Bay City,102387,$58438,18.06%,N/A,N/A,N/A,N/A,57,84.30%,N/A,36.50%,N/A,N/A,N/A,5.50%,N/A,Bay County,40.60%,53.20%,0.4%,0.2%,97.1%,1.2%,N/A,Eastern Standard Time,N/A,N/A,N/A,N/A,118,N/A,8.1,80,595,3.3,31.85,MI-53220,43.5181125,-83.7539476,50%,66%,39%,61%,55%,32.3,38,58,N/A,N/A,N/A,N/A,35.92%,34.95%,38.33%
Midland,Michigan,41958,1221,Bay City,102387,$50433,44.87%,N/A,$174000,1243,$140,47,61.30%,N/A,47.40%,134,938,7.1%,3.60%,N/A,Midland County,36.60%,55.70%,4.0%,2.5%,87.5%,3.1%,6.6%,Eastern Standard Time,N/A,N/A,N/A,N/A,125,N/A,8.1,62,595,3.3,34.37,MI-53800,43.591972,-84.2471791,50%,66%,39%,61%,55%,32.3,38,58,N/A,N/A,N/A,N/A,35.92%,34.95%,38.33%
Monitor charter township,Michigan,10571,287,Bay City,102387,$57869,N/A,N/A,N/A,N/A,N/A,46,86.00%,N/A,41.50%,N/A,N/A,N/A,5.50%,N/A,Bay County,40.60%,53.20%,0.2%,0.0%,94.4%,4.3%,N/A,Eastern Standard Time,N/A,N/A,N/A,N/A,118,N/A,8.1,78,595,3.3,36.83,MI-54980,43.6088244,-83.987398,50%,66%,39%,61%,55%,32.3,38,58,N/A,N/A,N/A,N/A,35.92%,34.95%,38.33%
Mount Forest,Michigan,1465,41,Bay City,102387,$44427,9.24%,N/A,N/A,N/A,N/A,41,87.30%,N/A,37.60%,N/A,N/A,N/A,5.50%,N/A,Bay County,40.60%,53.20%,0.0%,0.0%,93.2%,3.3%,N/A,Eastern Standard Time,N/A,N/A,N/A,N/A,119,N/A,8.1,87,595,3.3,35.73,MI-55920,43.868565,-84.1059796,50%,66%,39%,62%,55%,31.4,35,55,N/A,N/A,N/A,N/A,35.15%,32.31%,37.89%
Pinconning,Michigan,1468,1707,Bay City,102387,$29773,9.49%,N/A,$105000,1129,$93,56,68.80%,N/A,63.10%,242,969,19.6%,5.50%,N/A,Bay County,40.60%,53.20%,0.0%,3.1%,92.4%,1.9%,0%,Eastern Standard Time,N/A,N/A,N/A,N/A,122,N/A,8.1,86,595,3.3,0.86,MI-64180,43.8684859,-83.9731745,50%,66%,39%,62%,55%,31.4,35,55,N/A,N/A,N/A,N/A,35.92%,34.95%,38.33%
Pinconning township,Michigan,2239,2603,Bay City,102387,$48962,N/A,N/A,$105000,1129,$93,45,80.60%,N/A,40.00%,242,969,N/A,5.50%,N/A,Bay County,40.60%,53.20%,0.0%,0.3%,93.3%,4.3%,N/A,Eastern Standard Time,N/A,N/A,N/A,N/A,122,N/A,8.1,86,595,3.3,0.86,MI-64180,43.8684859,-83.9731745,50%,66%,39%,62%,55%,31.4,35,55,N/A,N/A,N/A,N/A,35.92%,34.95%,38.33%
Portsmouth charter township,Michigan,3235,161,Bay City,102387,$49107,N/A,N/A,N/A,N/A,N/A,54,84.60%,N/A,42.00%,N/A,N/A,N/A,5.50%,N/A,Bay County,40.60%,53.20%,0.0%,0.8%,91.9%,6.6%,N/A,Eastern Standard Time,N/A,N/A,N/A,N/A,118,N/A,8.1,80,595,3.3,20.09,MI-65980,43.5542995,-83.8311588,50%,66%,39%,61%,55%,32.3,38,58,N/A,N/A,N/A,N/A,35.92%,34.95%,38.33%
Williams charter township,Michigan,4862,145,Bay City,102387,$62857,N/A,N/A,N/A,N/A,N/A,41,79.30%,N/A,36.80%,N/A,N/A,N/A,5.50%,N/A,Bay County,40.60%,53.20%,1.7%,0.1%,91.2%,4.6%,N/A,Eastern Standard Time,N/A,N/A,N/A,N/A,124,N/A,8.1,80,595,3.3,33.53,MI-87380,43.6113278,-84.1087731,50%,66%,39%,61%,55%,32.3,38,58,N/A,N/A,N/A,N/A,35.92%,34.95%,38.33%
