City,State,Population,People per sq mi,Metro Name,Metro population,Median household income,% with at least Bachelor's degree,Median age,Median home price,Median home sqft,Median home cost per sqft,Median home age,Homeownership Rate,Avg Apartment Monthly Rent,Single Population,Num Violent Crimes Per 100k residents,Num Property Crimes Per 100k residents,Poverty Rate,Unemployment rate,Labor Force Participation rate,County,% Democrat,% Republican,% Asian,% Black,% Non-Hispanic White,% Hispanic,Foreign Born %,Timezone,Hottest month's avg high (F),Coldest month's avg high (F),Hottest high minus coldest high,Annual rainfall (in),Annual days of precipitation,Annual snowfall (in),Average yearly windspeed (mph),Air quality Index,Elevation (ft),UV Index,Land Area (sq mi),Fips Code,Latitude,Longitude,Annual Sunshine - Percentage of Possible,Summer Sunshine - Percentage of Possible,Winter Sunshine - Percentage of Possible,Annual Relative Humidity (afternoon),Summer Relative Humidity (afternoon),Number of days with thunder per year,Annual dew point (F),Average summer dew point (F)
Adamsville,Alabama,4266,163,Birmingham-Hoover,1091921,$44734,14.3%,44,$118000,1054,$112,51,67.11%,$1010,53.38%,N/A,N/A,21.59%,11.91%,52.01%,Jefferson County,51.60%,44.30%,0.0%,47.7%,47.52%,0.52%,0.52%,Central Standard Time,91,55,36,55,114,1,6.2,39,618,5.2,26.22,AL-00460,33.638428,-87.013251,58%,63%,49%,55%,57%,58.8,51,68
Alabaster,Alabama,33373,1320,Birmingham-Hoover,1091921,$80871,38.03%,37,$295000,1954,$151,26,82.93%,$1140,40.47%,N/A,N/A,6.22%,4.33%,69.05%,Shelby County,22.70%,72.10%,1.53%,16.77%,69.49%,9.02%,5.58%,Central Standard Time,91,56,35,56,120,1,6.2,39,618,5,25.28,AL-00820,33.1967658,-86.847219,58%,63%,49%,55%,57%,58.8,51,68
Allgood,Alabama,796,765,Birmingham-Hoover,1091921,$47898,7.84%,31,N/A,N/A,N/A,47,66.46%,$646,52.59%,N/A,N/A,23.62%,25.57%,60.73%,Blount County,8.40%,89.30%,0.0%,0.0%,32.79%,63.19%,29.65%,Central Standard Time,90,53,37,56,98,1,6.2,59,618,5,1.04,AL-01396,33.9063725,-86.517833,58%,63%,49%,55%,57%,58.8,51,68
Altoona,Alabama,1250,279,Birmingham-Hoover,1091921,$31961,11.53%,40,$142000,1479,$96,51,68.22%,$338,60.42%,N/A,N/A,19.8%,2.45%,57.21%,Etowah County,23.60%,73.30%,0.16%,1.68%,96.64%,0.4%,0.24%,Central Standard Time,90,53,37,55,98,1,6.2,62,618,5.2,4.48,AL-01660,34.0308027,-86.3179481,58%,63%,49%,55%,57%,58.8,51,68
Argo,Alabama,4294,403,Birmingham-Hoover,1091921,$76479,18.38%,33,$143000,1182,$121,18,80.88%,N/A,26.42%,N/A,N/A,7.48%,1.46%,71.82%,St. Clair County,14.60%,82.40%,0.0%,6.15%,85.58%,8.27%,5.33%,Central Standard Time,91,55,36,56,100,1,6.2,54,618,5.2,10.65,AL-02320,33.6902695,-86.5048084,58%,63%,49%,55%,57%,58.8,51,68
Ashville,Alabama,2309,120,Birmingham-Hoover,1091921,$49048,8.98%,42,$181000,1460,$124,32,74.97%,$1052,62.71%,N/A,N/A,17.23%,6.18%,56.2%,St. Clair County,14.60%,82.40%,0.0%,26.81%,67.99%,2.25%,1.6%,Central Standard Time,90,53,37,56,99,1,6.2,47,618,5.2,19.21,AL-02908,33.8331116,-86.2697803,58%,63%,49%,55%,57%,58.8,51,68
Bessemer,Alabama,26063,646,Birmingham-Hoover,1091921,$30284,14.61%,42,$209000,1771,$118,58,50.23%,$764,67.74%,N/A,N/A,25.91%,13.8%,53.01%,Jefferson County,51.60%,44.30%,0.16%,72.69%,20.98%,4.31%,2.83%,Central Standard Time,92,56,36,57,117,1,6.2,35,618,5.2,40.33,AL-05980,33.3712426,-86.9727247,58%,63%,49%,55%,57%,58.8,51,68
Birmingham,Alabama,210928,1435,Birmingham-Hoover,1091921,$38832,28.9%,36,$261000,1992,$131,55,48.95%,$870,67.51%,N/A,N/A,24.72%,8.33%,59.19%,Jefferson County,51.60%,44.30%,1.25%,68.29%,24.53%,4.14%,4.04%,Central Standard Time,91,55,36,56,112,1,6.2,26,618,5.2,147.03,AL-07000,33.5278465,-86.7971619,58%,63%,49%,55%,57%,58.8,51,68
Brighton,Alabama,2873,2023,Birmingham-Hoover,1091921,$28906,13.06%,47,$82000,1491,$55,63,76.79%,$814,64.27%,N/A,N/A,35.45%,11.75%,53.47%,Jefferson County,51.60%,44.30%,0.17%,82.42%,3.59%,12.39%,5.5%,Central Standard Time,92,56,36,57,117,1,6.2,27,618,5.2,1.42,AL-09400,33.4395512,-86.945404,58%,63%,49%,55%,57%,58.8,51,68
Brook Highland,Alabama,7545,2714,Birmingham-Hoover,1091921,$56301,55.65%,37,$500000,3205,$156,28,47.93%,$1088,46.4%,N/A,N/A,11.48%,2.02%,76.39%,Shelby County,22.70%,72.10%,8.96%,19.93%,61.78%,5.49%,7.89%,Central Standard Time,91,55,36,57,107,1,6.2,39,618,5,2.78,AL-09500,33.4359091,-86.6848538,58%,63%,49%,55%,57%,58.8,51,68
Calera,Alabama,14327,592,Birmingham-Hoover,1091921,$68171,33.29%,33,$255000,1635,$156,15,81.84%,$1211,43.68%,N/A,N/A,6.32%,0.38%,74.31%,Shelby County,22.70%,72.10%,0.64%,27.51%,65.16%,5.35%,4.1%,Central Standard Time,91,56,35,56,111,1,6.2,45,618,5,24.21,AL-11416,33.1253881,-86.7447524,58%,63%,49%,55%,57%,58.8,51,68
Carbon Hill,Alabama,1354,246,Birmingham-Hoover,1091921,$26333,8.76%,38,$140000,1867,$75,49,54.21%,$550,59.54%,N/A,N/A,23.11%,5.97%,56.98%,Walker County,15.30%,82.30%,0.0%,8.27%,89.36%,0.0%,0.0%,Central Standard Time,90,53,37,59,103,1,6.2,55,618,5,5.51,AL-12016,33.8943996,-87.522408,58%,63%,49%,55%,57%,58.8,51,68
Center Point,Alabama,15971,2568,Birmingham-Hoover,1091921,$45221,16.11%,34,$145000,1835,$79,48,57.9%,$878,53.58%,N/A,N/A,18.58%,7.93%,60.78%,Jefferson County,51.60%,44.30%,0.09%,73.88%,20.14%,3.48%,2.1%,Central Standard Time,91,55,36,55,112,1,6.2,41,618,5.2,6.22,AL-13264,33.6447443,-86.6851948,58%,63%,49%,55%,57%,58.8,51,68
Centreville,Alabama,2627,278,Birmingham-Hoover,1091921,$42041,18.01%,46,$185000,1713,$108,53,78.3%,$438,63.63%,N/A,N/A,7.23%,5.48%,48.71%,Bibb County,21.20%,76.40%,2.13%,18.46%,77.27%,1.98%,2.74%,Central Standard Time,91,56,35,58,108,0,6.2,49,618,4.9,9.45,AL-13672,32.959713,-87.1333254,58%,63%,49%,55%,57%,58.8,51,68
Chelsea,Alabama,13599,572,Birmingham-Hoover,1091921,$92917,43.62%,35,$357000,2164,$165,15,88.51%,$1230,31.94%,N/A,N/A,3.48%,4.9%,68.22%,Shelby County,22.70%,72.10%,0.57%,6.52%,88.5%,1.9%,3.7%,Central Standard Time,93,55,38,56,116,1,6.2,47,618,5,23.78,AL-14104,33.3261905,-86.6300506,58%,63%,49%,55%,57%,58.8,51,68
Clay,Alabama,9936,901,Birmingham-Hoover,1091921,$67854,20.84%,41,$245000,1801,$136,28,80.59%,$1145,42.39%,N/A,N/A,10.6%,2.28%,58.32%,Jefferson County,51.60%,44.30%,0.43%,37.69%,60.75%,1.02%,1.34%,Central Standard Time,91,55,36,55,110,1,6.2,51,618,5.2,11.03,AL-15256,33.6952001,-86.6088308,58%,63%,49%,55%,57%,58.8,51,68
Cleveland,Alabama,1340,171,Birmingham-Hoover,1091921,$44798,12.53%,37,$267000,1690,$158,38,72.76%,$724,40.16%,N/A,N/A,5.75%,1.43%,57.1%,Blount County,8.40%,89.30%,0.0%,0.15%,67.91%,25.52%,12.76%,Central Standard Time,90,53,37,56,101,1,6.2,59,618,5,7.85,AL-15472,33.9964185,-86.5670387,58%,63%,49%,55%,57%,58.8,51,68
Columbiana,Alabama,4602,266,Birmingham-Hoover,1091921,$45759,15.42%,40,$355000,2320,$153,40,67.36%,$697,58.1%,N/A,N/A,12.25%,2.15%,43.03%,Shelby County,22.70%,72.10%,0.0%,25.55%,64.8%,2.63%,2.61%,Central Standard Time,91,56,35,56,113,1,6.2,48,618,5,17.3,AL-16768,33.1930078,-86.6114148,58%,63%,49%,55%,57%,58.8,51,68
Cordova,Alabama,1655,284,Birmingham-Hoover,1091921,$30919,7.06%,50,$81000,1528,$53,57,77.4%,$452,53.43%,N/A,N/A,26.4%,11.5%,42.02%,Walker County,15.30%,82.30%,0.0%,12.15%,83.44%,0.0%,0.0%,Central Standard Time,91,55,36,58,105,1,6.2,50,618,5,5.83,AL-17368,33.7613345,-87.1925752,58%,63%,49%,55%,57%,58.8,51,68
County Line,Alabama,297,354,Birmingham-Hoover,1091921,$80000,7.11%,26,N/A,N/A,N/A,19,89.9%,$1016,51.48%,N/A,N/A,15.49%,0.0%,77.49%,Blount County,8.40%,89.30%,1.01%,0.0%,97.64%,0.0%,1.68%,Central Standard Time,88,51,37,56,107,1,6.2,55,618,5,0.84,AL-17968,33.820724,-86.7194677,58%,63%,49%,55%,57%,58.8,51,68
Dora,Alabama,2429,307,Birmingham-Hoover,1091921,$50195,13.96%,40,$325000,2664,$122,48,63.11%,$622,47.9%,N/A,N/A,14.41%,8.32%,56.2%,Walker County,15.30%,82.30%,0.99%,34.79%,58.01%,0.0%,2.22%,Central Standard Time,91,55,36,57,111,1,6.2,48,618,5,7.91,AL-21136,33.7287909,-87.0841532,58%,63%,49%,55%,57%,58.8,51,68
Dunnavant,Alabama,1150,60,Birmingham-Hoover,1091921,$55461,14.34%,48,$815000,4631,$176,30,85.39%,$928,57.72%,N/A,N/A,15.13%,0.0%,54.71%,Shelby County,22.70%,72.10%,2.43%,1.22%,93.74%,0.0%,2.43%,Central Standard Time,91,55,36,55,104,1,6.2,50,618,5,19.26,AL-21890,33.4977994,-86.5420281,58%,63%,49%,55%,57%,58.8,51,68
Edgewater,Alabama,832,717,Birmingham-Hoover,1091921,$122984,12.24%,52,$55000,1571,$35,61,72.72%,$856,28.25%,N/A,N/A,14.9%,6.0%,49.93%,Jefferson County,51.60%,44.30%,0.0%,87.5%,12.5%,0.0%,0.0%,Central Standard Time,92,56,36,57,116,1,6.2,41,618,5.2,1.16,AL-23032,33.5287241,-86.9572023,58%,63%,49%,55%,57%,58.8,51,68
Eldridge,Alabama,125,179,Birmingham-Hoover,1091921,$54375,13.64%,28,N/A,N/A,N/A,49,90.91%,N/A,42.86%,N/A,N/A,14.53%,0.0%,54.17%,Walker County,15.30%,82.30%,0.0%,8.8%,89.6%,0.0%,0.0%,Central Standard Time,90,53,37,59,104,1,6.2,55,618,5,0.7,AL-23344,33.9220178,-87.620108,58%,63%,49%,55%,57%,58.8,51,68
Fairfield,Alabama,10749,3107,Birmingham-Hoover,1091921,$41439,21.08%,32,$165000,1854,$89,59,54.96%,$806,71.93%,N/A,N/A,23.7%,7.93%,58.41%,Jefferson County,51.60%,44.30%,0.0%,92.32%,5.4%,1.11%,0.89%,Central Standard Time,92,56,36,57,116,1,6.2,23,618,5.2,3.46,AL-25120,33.4747797,-86.9194113,58%,63%,49%,55%,57%,58.8,51,68
Fultondale,Alabama,9247,762,Birmingham-Hoover,1091921,$67325,26.26%,38,$245000,1601,$153,29,72.88%,$1021,43.81%,N/A,N/A,13.39%,3.18%,65.32%,Jefferson County,51.60%,44.30%,2.75%,28.24%,57.86%,9.21%,6.64%,Central Standard Time,91,55,36,55,111,1,6.2,31,618,5.2,12.14,AL-28552,33.6173638,-86.8014275,58%,63%,49%,55%,57%,58.8,51,68
Gardendale,Alabama,14021,610,Birmingham-Hoover,1091921,$75170,30.5%,38,$250000,1761,$142,35,81.48%,$998,39.44%,N/A,N/A,9.16%,2.85%,64.27%,Jefferson County,51.60%,44.30%,0.77%,9.42%,81.06%,3.1%,0.68%,Central Standard Time,91,55,36,55,112,1,6.2,37,618,5.2,22.98,AL-29056,33.6559888,-86.810618,58%,63%,49%,55%,57%,58.8,51,68
Grayson Valley,Alabama,5808,3041,Birmingham-Hoover,1091921,$50095,31.99%,34,$111000,1144,$97,34,72.64%,$970,63.54%,N/A,N/A,20.61%,6.64%,66.87%,Jefferson County,51.60%,44.30%,1.12%,50.46%,39.19%,6.04%,4.13%,Central Standard Time,91,55,36,55,112,1,6.2,47,618,5.2,1.91,AL-31348,33.6466228,-86.641655,58%,63%,49%,55%,57%,58.8,51,68
Graysville,Alabama,2328,145,Birmingham-Hoover,1091921,$48229,16.38%,45,$113000,1228,$92,57,66.37%,$867,38.32%,N/A,N/A,16.29%,12.08%,50.4%,Jefferson County,51.60%,44.30%,0.0%,27.15%,71.05%,0.0%,0.0%,Central Standard Time,91,55,36,56,115,1,6.2,38,618,5.2,16.05,AL-31384,33.6781718,-86.9915813,58%,63%,49%,55%,57%,58.8,51,68
Harpersville,Alabama,1706,80,Birmingham-Hoover,1091921,$61118,12.53%,41,$310000,2385,$130,34,90.5%,$867,41.96%,N/A,N/A,11.55%,5.32%,57.91%,Shelby County,22.70%,72.10%,0.0%,14.89%,83.24%,0.0%,0.41%,Central Standard Time,94,58,36,53,106,1,6.2,47,618,5,21.29,AL-33256,33.3184041,-86.428675,58%,63%,49%,55%,57%,58.8,51,68
Hayden,Alabama,1516,378,Birmingham-Hoover,1091921,$67386,16.14%,40,$180000,1233,$146,30,91.89%,$940,37.66%,N/A,N/A,10.75%,2.5%,55.12%,Blount County,8.40%,89.30%,0.4%,2.37%,95.51%,0.86%,0.53%,Central Standard Time,88,51,37,56,107,1,6.2,52,618,5,4.01,AL-33640,33.8934634,-86.7554732,58%,63%,49%,55%,57%,58.8,51,68
Helena,Alabama,18631,845,Birmingham-Hoover,1091921,$89982,45.99%,38,$315000,1875,$168,22,92.32%,$1201,40.25%,N/A,N/A,4.81%,1.72%,68.48%,Shelby County,22.70%,72.10%,1.22%,17.24%,72.08%,4.73%,4.3%,Central Standard Time,93,55,38,56,119,1,6.2,41,618,5,22.06,AL-34024,33.2836529,-86.8789325,58%,63%,49%,55%,57%,58.8,51,68
Highland Lake,Alabama,396,243,Birmingham-Hoover,1091921,$52000,25.0%,55,$343000,1498,$229,43,77.53%,N/A,34.07%,N/A,N/A,7.83%,3.45%,46.96%,Blount County,8.40%,89.30%,0.0%,0.76%,96.72%,0.0%,0.51%,Central Standard Time,90,53,37,56,98,1,6.2,58,618,5,1.63,AL-34480,33.8875634,-86.4244421,58%,63%,49%,55%,57%,58.8,51,68
Highland Lakes,Alabama,5973,1564,Birmingham-Hoover,1091921,$155200,72.79%,47,$561000,3380,$166,16,99.01%,N/A,29.16%,N/A,N/A,0.94%,2.75%,65.02%,Shelby County,22.70%,72.10%,1.44%,7.37%,86.86%,1.21%,3.75%,Central Standard Time,91,55,36,57,107,1,6.2,47,618,5,3.82,AL-34490,33.3972675,-86.6494686,58%,63%,49%,55%,57%,58.8,51,68
Homewood,Alabama,25170,3040,Birmingham-Hoover,1091921,$84418,69.39%,31,$356000,1254,$284,51,70.16%,$1206,53.97%,N/A,N/A,7.97%,2.73%,70.14%,Jefferson County,51.60%,44.30%,2.32%,11.18%,77.93%,6.28%,6.31%,Central Standard Time,91,55,36,56,109,1,6.2,24,618,5.2,8.28,AL-35800,33.4619402,-86.8089849,58%,63%,49%,55%,57%,58.8,51,68
Hoover,Alabama,85386,1776,Birmingham-Hoover,1091921,$92984,58.72%,38,$425000,2485,$171,28,72.83%,$1155,39.05%,133,2243,5.68%,4.01%,68.44%,Jefferson County,51.60%,44.30%,5.31%,18.46%,68.32%,5.65%,8.64%,Central Standard Time,93,55,38,56,116,1,6.2,34,618,5.2,48.07,AL-35896,33.3762844,-86.8067629,58%,63%,49%,55%,57%,58.8,51,68
Hueytown,Alabama,15446,785,Birmingham-Hoover,1091921,$51350,22.09%,36,$140000,1261,$111,51,65.38%,$931,48.35%,N/A,N/A,9.87%,9.18%,58.94%,Jefferson County,51.60%,44.30%,0.17%,39.18%,56.01%,2.25%,1.51%,Central Standard Time,92,56,36,57,117,1,6.2,41,618,5.2,19.67,AL-36448,33.4238472,-87.0220086,58%,63%,49%,55%,57%,58.8,51,68
Indian Springs Village,Alabama,2618,675,Birmingham-Hoover,1091921,$120313,68.03%,44,$476000,2817,$169,38,95.92%,$1182,30.68%,N/A,N/A,6.26%,2.25%,61.3%,Shelby County,22.70%,72.10%,3.97%,4.58%,89.19%,0.76%,4.66%,Central Standard Time,93,55,38,56,117,1,6.2,40,618,5,3.88,AL-37465,33.3591011,-86.7492176,58%,63%,49%,55%,57%,58.8,51,68
Irondale,Alabama,13068,755,Birmingham-Hoover,1091921,$61051,34.83%,38,$292000,1934,$151,42,65.55%,$1031,55.77%,N/A,N/A,10.79%,9.07%,65.55%,Jefferson County,51.60%,44.30%,0.6%,36.42%,52.04%,7.81%,5.39%,Central Standard Time,91,55,36,55,106,1,6.2,40,618,5.2,17.31,AL-37864,33.5439685,-86.660499,58%,63%,49%,55%,57%,58.8,51,68
Jasper,Alabama,13584,463,Birmingham-Hoover,1091921,$53308,22.13%,36,$275000,2750,$100,43,65.96%,$686,47.58%,N/A,N/A,15.61%,5.9%,55.14%,Walker County,15.30%,82.30%,1.25%,11.76%,80.92%,2.83%,1.54%,Central Standard Time,91,55,36,58,104,1,6.2,44,618,5,29.33,AL-38416,33.8506946,-87.2709834,58%,63%,49%,55%,57%,58.8,51,68
Jemison,Alabama,2658,234,Birmingham-Hoover,1091921,$51903,14.69%,35,$176000,1630,$108,39,78.03%,$761,38.36%,N/A,N/A,15.96%,3.83%,52.19%,Chilton County,15.80%,82.10%,0.0%,21.63%,73.55%,3.91%,0.87%,Central Standard Time,91,56,35,56,101,0,6.2,50,618,5.6,11.35,AL-38608,32.9696049,-86.7339311,58%,63%,49%,55%,57%,58.8,51,68
Kansas,Alabama,129,126,Birmingham-Hoover,1091921,$40625,12.37%,56,N/A,N/A,N/A,49,79.07%,$625,37.61%,N/A,N/A,18.6%,0.0%,51.38%,Walker County,15.30%,82.30%,0.0%,0.0%,96.12%,0.0%,0.0%,Central Standard Time,90,53,37,58,104,1,6.2,55,618,5,1.02,AL-39280,33.9028686,-87.556867,58%,63%,49%,55%,57%,58.8,51,68
Kimberly,Alabama,3551,606,Birmingham-Hoover,1091921,$93772,24.95%,35,$400000,2778,$144,19,95.66%,$878,32.84%,N/A,N/A,5.25%,1.93%,73.67%,Jefferson County,51.60%,44.30%,2.9%,3.58%,91.24%,0.17%,0.65%,Central Standard Time,91,55,36,55,111,1,6.2,49,618,5.2,5.86,AL-39856,33.7716501,-86.8092009,58%,63%,49%,55%,57%,58.8,51,68
Leeds,Alabama,12555,552,Birmingham-Hoover,1091921,$62227,27.58%,37,$236000,1983,$119,41,75.12%,$887,45.47%,N/A,N/A,8.56%,1.74%,66.33%,Jefferson County,51.60%,44.30%,0.11%,13.81%,81.39%,3.89%,3.52%,Central Standard Time,91,55,36,55,104,1,6.2,44,618,5.2,22.76,AL-41968,33.5435562,-86.5638699,58%,63%,49%,55%,57%,58.8,51,68
Lipscomb,Alabama,2055,1742,Birmingham-Hoover,1091921,$35417,6.35%,29,$38000,1000,$38,60,64.81%,$665,61.84%,N/A,N/A,27.37%,7.34%,69.69%,Jefferson County,51.60%,44.30%,0.0%,66.62%,16.93%,14.89%,11.0%,Central Standard Time,92,56,36,57,117,1,6.2,34,618,5.2,1.18,AL-43336,33.4260052,-86.9261028,58%,63%,49%,55%,57%,58.8,51,68
Locust Fork,Alabama,1645,424,Birmingham-Hoover,1091921,$37292,9.29%,48,$675000,3230,$209,25,84.62%,$1067,40.66%,N/A,N/A,18.48%,5.47%,39.94%,Blount County,8.40%,89.30%,0.0%,0.0%,99.21%,0.79%,0.73%,Central Standard Time,90,53,37,56,107,1,6.2,56,618,5,3.88,AL-43888,33.9021588,-86.6280148,58%,63%,49%,55%,57%,58.8,51,68
Maplesville,Alabama,640,196,Birmingham-Hoover,1091921,$50278,6.47%,29,N/A,N/A,N/A,48,76.25%,$1083,37.61%,N/A,N/A,12.97%,3.28%,68.08%,Chilton County,15.80%,82.10%,0.0%,13.75%,83.28%,1.25%,0.31%,Central Standard Time,91,56,35,56,105,0,5.9,51,618,5.6,3.27,AL-46504,32.7867332,-86.8782926,58%,62%,50%,55%,56%,57.4,53,69
Margaret,Alabama,4905,499,Birmingham-Hoover,1091921,$60707,20.68%,32,$306000,1866,$164,16,96.55%,$535,46.41%,N/A,N/A,6.44%,3.02%,63.15%,St. Clair County,14.60%,82.40%,0.27%,29.7%,62.81%,6.97%,0.0%,Central Standard Time,91,55,36,56,98,1,6.2,54,618,5.2,9.82,AL-46696,33.6734724,-86.4679733,58%,63%,49%,55%,57%,58.8,51,68
Maytown,Alabama,306,112,Birmingham-Hoover,1091921,$46563,10.53%,56,$146000,2755,$53,49,74.84%,$917,50.37%,N/A,N/A,7.87%,3.15%,49.03%,Jefferson County,51.60%,44.30%,0.0%,1.63%,95.75%,0.98%,0.65%,Central Standard Time,92,56,36,56,115,1,6.2,39,618,5.2,2.73,AL-47728,33.549956,-87.0000423,58%,63%,49%,55%,57%,58.8,51,68
McDonald Chapel,Alabama,662,625,Birmingham-Hoover,1091921,$49038,7.23%,26,$92000,1000,$92,63,31.57%,$961,83.11%,N/A,N/A,4.23%,34.95%,61.19%,Jefferson County,51.60%,44.30%,0.0%,69.18%,30.82%,0.0%,1.36%,Central Standard Time,92,56,36,57,116,1,6.2,41,618,5.2,1.06,AL-45208,33.5189167,-86.9385298,58%,63%,49%,55%,57%,58.8,51,68
Meadowbrook,Alabama,10110,2319,Birmingham-Hoover,1091921,$120625,63.7%,40,$397000,2664,$149,33,90.68%,$1188,36.45%,N/A,N/A,4.41%,7.36%,72.77%,Shelby County,22.70%,72.10%,0.53%,5.92%,91.45%,1.9%,2.15%,Central Standard Time,93,55,38,57,107,1,6.2,39,618,5,4.36,AL-47740,33.3934943,-86.7040662,58%,63%,49%,55%,57%,58.8,51,68
Midfield,Alabama,4984,1874,Birmingham-Hoover,1091921,$43219,15.99%,40,$44000,978,$45,63,55.92%,$937,56.19%,N/A,N/A,19.28%,9.06%,59.23%,Jefferson County,51.60%,44.30%,0.06%,80.9%,12.5%,4.67%,3.03%,Central Standard Time,92,56,36,57,117,1,6.2,27,618,5.2,2.66,AL-48376,33.4552693,-86.9224101,58%,63%,49%,55%,57%,58.8,51,68
Minor,Alabama,832,1261,Birmingham-Hoover,1091921,$47143,11.84%,33,N/A,N/A,N/A,64,74.16%,$1089,36.04%,N/A,N/A,18.63%,7.72%,53.75%,Jefferson County,51.60%,44.30%,0.0%,17.91%,78.37%,0.0%,0.84%,Central Standard Time,92,56,36,57,116,1,6.2,41,618,5.2,0.66,AL-49072,33.5390108,-86.9400731,58%,63%,49%,55%,57%,58.8,51,68
Montevallo,Alabama,6829,533,Birmingham-Hoover,1091921,$38066,28.72%,29,$320000,1905,$168,29,64.43%,$731,67.51%,N/A,N/A,17.03%,6.71%,56.17%,Shelby County,22.70%,72.10%,2.61%,17.28%,71.78%,4.72%,5.36%,Central Standard Time,91,56,35,56,111,0,6.2,45,618,5,12.81,AL-50312,33.1246699,-86.8475552,58%,63%,49%,55%,57%,58.8,51,68
Moody,Alabama,13004,530,Birmingham-Hoover,1091921,$66245,19.83%,40,$263000,1675,$157,21,81.31%,$939,43.92%,N/A,N/A,9.26%,4.3%,64.68%,St. Clair County,14.60%,82.40%,1.3%,9.88%,85.96%,0.62%,1.51%,Central Standard Time,91,55,36,56,102,1,6.2,50,618,5.2,24.53,AL-51096,33.5985508,-86.4962867,58%,63%,49%,55%,57%,58.8,51,68
Morris,Alabama,1999,629,Birmingham-Hoover,1091921,$84000,38.13%,45,$251000,1394,$180,24,95.15%,N/A,30.44%,N/A,N/A,4.45%,1.15%,57.06%,Jefferson County,51.60%,44.30%,0.15%,0.0%,98.45%,0.0%,0.85%,Central Standard Time,91,55,36,55,111,1,6.2,49,618,5.2,3.18,AL-51456,33.7463625,-86.8042548,58%,63%,49%,55%,57%,58.8,51,68
Mount Olive (Jefferson Cnty),Alabama,4052,436,Birmingham-Hoover,1091921,$76250,24.34%,41,$237000,1809,$131,36,92.57%,$626,43.91%,N/A,N/A,6.1%,1.54%,62.34%,Jefferson County,51.60%,44.30%,0.0%,4.29%,95.06%,0.25%,0.0%,Central Standard Time,91,55,36,55,112,1,6.2,41,618,5.2,9.3,AL-52344,33.677868,-86.8727193,58%,63%,49%,55%,57%,58.8,51,68
Mountain Brook,Alabama,20178,1574,Birmingham-Hoover,1091921,$152646,85.65%,42,$601000,2515,$239,56,90.98%,$1627,30.37%,N/A,N/A,4.32%,1.12%,59.16%,Jefferson County,51.60%,44.30%,1.2%,0.4%,97.75%,0.32%,2.13%,Central Standard Time,91,55,36,56,106,1,6.2,34,618,5.2,12.82,AL-51696,33.4870942,-86.7400022,58%,63%,49%,55%,57%,58.8,51,68
Mulga,Alabama,757,870,Birmingham-Hoover,1091921,$33000,5.32%,42,$146000,2755,$53,74,61.69%,$838,56.36%,N/A,N/A,29.19%,6.27%,56.82%,Jefferson County,51.60%,44.30%,0.0%,14.27%,79.52%,1.32%,0.13%,Central Standard Time,92,56,36,55,114,1,6.2,41,618,5.2,0.87,AL-52776,33.5520688,-86.9730061,58%,63%,49%,55%,57%,58.8,51,68
Nauvoo,Alabama,129,130,Birmingham-Hoover,1091921,$34286,5.1%,49,$142000,1203,$118,55,76.74%,$642,50.0%,N/A,N/A,24.81%,13.04%,41.44%,Walker County,15.30%,82.30%,0.0%,0.0%,93.02%,4.65%,1.55%,Central Standard Time,89,51,38,59,103,2,6.2,56,618,5,0.99,AL-53400,33.9873632,-87.4875522,58%,63%,49%,55%,57%,58.8,51,68
Nectar,Alabama,598,330,Birmingham-Hoover,1091921,$41576,7.53%,29,N/A,N/A,N/A,41,75.25%,$1153,15.13%,N/A,N/A,9.2%,6.52%,64.97%,Blount County,8.40%,89.30%,0.0%,0.0%,74.08%,22.74%,6.86%,Central Standard Time,88,51,37,56,103,1,6.2,58,618,5,1.81,AL-53448,33.9607791,-86.639388,58%,63%,49%,55%,57%,58.8,51,68
North Johns,Alabama,152,894,Birmingham-Hoover,1091921,$38370,3.15%,51,N/A,N/A,N/A,56,86.18%,$733,52.24%,N/A,N/A,16.45%,4.35%,34.33%,Jefferson County,51.60%,44.30%,0.0%,28.29%,71.71%,0.0%,0.0%,Central Standard Time,92,56,36,58,115,0,6.2,36,618,5.2,0.17,AL-55152,33.3677685,-87.1007245,58%,63%,49%,55%,57%,58.8,51,68
Oakman,Alabama,853,277,Birmingham-Hoover,1091921,$20893,5.79%,45,N/A,N/A,N/A,37,69.64%,$430,44.73%,N/A,N/A,31.3%,7.48%,32.23%,Walker County,15.30%,82.30%,0.0%,13.95%,78.66%,1.88%,0.0%,Central Standard Time,91,55,36,58,104,0,6.2,50,618,5,3.08,AL-55992,33.714136,-87.3890462,58%,63%,49%,55%,57%,58.8,51,68
Odenville,Alabama,3705,265,Birmingham-Hoover,1091921,$75625,21.68%,37,$273000,1750,$156,21,96.41%,$515,40.16%,N/A,N/A,6.99%,1.78%,70.27%,St. Clair County,14.60%,82.40%,0.0%,0.19%,98.65%,0.73%,0.0%,Central Standard Time,90,53,37,56,98,1,6.2,54,618,5.2,13.97,AL-56400,33.697766,-86.4228852,58%,63%,49%,55%,57%,58.8,51,68
Oneonta,Alabama,6550,414,Birmingham-Hoover,1091921,$38922,20.95%,42,$210000,1826,$115,47,50.11%,$655,48.4%,N/A,N/A,16.13%,3.37%,45.94%,Blount County,8.40%,89.30%,0.9%,4.09%,76.6%,14.53%,5.69%,Central Standard Time,90,53,37,56,98,1,6.2,59,618,5,15.83,AL-57000,33.9393037,-86.4932666,58%,63%,49%,55%,57%,58.8,51,68
Parrish,Alabama,1102,527,Birmingham-Hoover,1091921,$32679,9.85%,35,$10000,1000,$10,61,80.67%,$650,63.67%,N/A,N/A,21.01%,15.37%,55.26%,Walker County,15.30%,82.30%,0.0%,25.23%,66.24%,1.72%,0.82%,Central Standard Time,91,55,36,58,105,1,6.2,50,618,5,2.09,AL-58272,33.7323213,-87.2801268,58%,63%,49%,55%,57%,58.8,51,68
Pelham,Alabama,23707,611,Birmingham-Hoover,1091921,$79268,42.61%,40,$305000,2007,$152,22,81.85%,$1159,43.24%,N/A,N/A,5.42%,2.37%,67.0%,Shelby County,22.70%,72.10%,1.59%,10.47%,73.29%,13.15%,7.19%,Central Standard Time,93,55,38,56,119,1,6.2,33,618,5,38.82,AL-58848,33.3114532,-86.757324,58%,63%,49%,55%,57%,58.8,51,68
Pell City,Alabama,14081,563,Birmingham-Hoover,1091921,$59536,21.16%,40,$350000,2229,$157,27,61.6%,$930,43.32%,N/A,N/A,11.5%,6.52%,62.99%,St. Clair County,14.60%,82.40%,2.07%,10.38%,85.36%,1.1%,2.36%,Central Standard Time,91,54,37,55,100,1,6.2,45,618,5.2,25.0,AL-58896,33.561039,-86.266849,58%,63%,49%,55%,57%,58.8,51,68
Pinson,Alabama,7108,660,Birmingham-Hoover,1091921,$67637,22.12%,35,$210000,1721,$122,35,81.39%,$951,41.36%,N/A,N/A,13.01%,3.46%,65.02%,Jefferson County,51.60%,44.30%,0.04%,34.86%,53.24%,9.24%,2.05%,Central Standard Time,91,55,36,55,111,1,6.2,50,618,5.2,10.77,AL-60648,33.7054896,-86.6676997,58%,63%,49%,55%,57%,58.8,51,68
Pleasant Grove,Alabama,9625,980,Birmingham-Hoover,1091921,$64087,21.76%,44,$270000,2269,$119,37,81.57%,$1099,48.53%,N/A,N/A,4.04%,5.47%,64.7%,Jefferson County,51.60%,44.30%,0.08%,60.91%,36.35%,0.55%,0.08%,Central Standard Time,92,56,36,57,116,1,6.2,41,618,5.2,9.82,AL-61008,33.49397,-86.978144,58%,63%,49%,55%,57%,58.8,51,68
Ragland,Alabama,1795,107,Birmingham-Hoover,1091921,$37422,10.43%,36,$130000,1444,$90,37,76.1%,$418,51.83%,N/A,N/A,21.06%,14.29%,45.42%,St. Clair County,14.60%,82.40%,0.33%,9.75%,82.95%,4.07%,0.89%,Central Standard Time,91,54,37,53,104,1,6.2,51,618,5.2,16.79,AL-63216,33.7469063,-86.1383525,58%,63%,49%,55%,57%,58.8,51,68
Riverside,Alabama,2077,240,Birmingham-Hoover,1091921,$51813,16.89%,42,$235000,1487,$158,25,75.06%,$945,49.1%,N/A,N/A,15.98%,5.03%,64.43%,St. Clair County,14.60%,82.40%,6.11%,16.51%,71.88%,0.53%,1.2%,Central Standard Time,91,54,37,53,105,1,6.2,47,618,5.2,8.66,AL-64920,33.6170516,-86.2042064,58%,63%,49%,55%,57%,58.8,51,68
Rock Creek,Alabama,1530,507,Birmingham-Hoover,1091921,$55375,8.06%,51,$160000,1333,$120,45,99.28%,$747,45.78%,N/A,N/A,12.42%,10.23%,55.95%,Jefferson County,51.60%,44.30%,0.0%,0.0%,94.18%,3.2%,0.52%,Central Standard Time,92,56,36,57,117,1,6.2,37,618,5.2,3.02,AL-65412,33.4772274,-87.0812489,58%,63%,49%,55%,57%,58.8,51,68
Rosa,Alabama,988,236,Birmingham-Hoover,1091921,$24754,4.09%,68,N/A,N/A,N/A,45,97.17%,$925,14.16%,N/A,N/A,4.77%,3.21%,28.01%,Blount County,8.40%,89.30%,0.0%,0.81%,91.5%,7.69%,1.42%,Central Standard Time,90,53,37,56,98,1,6.2,59,618,5,4.19,AL-66408,33.9899168,-86.5044521,58%,63%,49%,55%,57%,58.8,51,68
Shelby,Alabama,987,53,Birmingham-Hoover,1091921,$76016,5.28%,42,$222000,2114,$105,40,100.0%,$1045,40.13%,N/A,N/A,8.0%,0.0%,64.13%,Shelby County,22.70%,72.10%,0.0%,13.27%,83.49%,0.0%,0.0%,Central Standard Time,91,56,35,53,109,0,6.2,50,618,5,18.76,AL-69672,33.1068435,-86.5824907,58%,63%,49%,55%,57%,58.8,51,68
Shoal Creek,Alabama,1231,244,Birmingham-Hoover,1091921,$116346,65.39%,45,$718000,3279,$219,16,96.18%,$1156,31.33%,N/A,N/A,0.0%,2.31%,58.3%,Shelby County,22.70%,72.10%,0.0%,1.06%,89.6%,0.0%,1.79%,Central Standard Time,91,55,36,57,107,1,6.2,48,618,5,5.04,AL-69978,33.4328106,-86.6071484,58%,63%,49%,55%,57%,58.8,51,68
Sipsey,Alabama,289,602,Birmingham-Hoover,1091921,$20000,2.86%,45,N/A,N/A,N/A,51,86.51%,$833,55.51%,N/A,N/A,22.49%,4.05%,31.09%,Walker County,15.30%,82.30%,0.0%,49.83%,49.83%,0.0%,0.69%,Central Standard Time,88,51,37,58,105,1,6.2,53,618,5,0.48,AL-70704,33.8225298,-87.0833673,58%,63%,49%,55%,57%,58.8,51,68
Smoke Rise,Alabama,1852,319,Birmingham-Hoover,1091921,$103596,8.46%,41,$262000,2472,$106,43,93.63%,$975,36.3%,N/A,N/A,4.81%,7.63%,62.63%,Blount County,8.40%,89.30%,0.0%,0.0%,98.49%,0.0%,0.59%,Central Standard Time,88,51,37,56,107,1,6.2,52,618,5,5.8,AL-71201,33.8790735,-86.8240336,58%,63%,49%,55%,57%,58.8,51,68
Snead,Alabama,1034,187,Birmingham-Hoover,1091921,$42193,19.85%,42,N/A,N/A,N/A,29,80.08%,$600,40.98%,N/A,N/A,12.57%,0.66%,53.88%,Blount County,8.40%,89.30%,1.35%,0.0%,96.13%,1.93%,2.42%,Central Standard Time,90,53,37,55,98,1,7.1,60,618,5,5.52,AL-71280,34.1161693,-86.3900781,58%,63%,49%,57%,57%,56.3,49,67
Springville,Alabama,4430,460,Birmingham-Hoover,1091921,$82662,35.25%,54,$383000,2678,$143,24,92.51%,$1596,30.43%,N/A,N/A,1.49%,0.0%,54.21%,St. Clair County,14.60%,82.40%,0.0%,7.11%,91.53%,0.0%,1.67%,Central Standard Time,90,53,37,55,102,1,6.2,55,618,5.2,9.62,AL-72600,33.7645197,-86.4783194,58%,63%,49%,55%,57%,58.8,51,68
Steele,Alabama,1133,169,Birmingham-Hoover,1091921,$60408,10.18%,36,N/A,N/A,N/A,45,85.08%,$645,39.21%,N/A,N/A,25.42%,8.54%,57.22%,St. Clair County,14.60%,82.40%,0.53%,0.0%,68.14%,23.92%,7.5%,Central Standard Time,90,53,37,55,98,1,6.2,46,618,5.2,6.71,AL-72888,33.9369853,-86.2003733,58%,63%,49%,55%,57%,58.8,51,68
Sterrett,Alabama,914,40,Birmingham-Hoover,1091921,$51071,18.26%,51,$288000,1920,$150,38,97.81%,N/A,64.26%,N/A,N/A,19.91%,11.67%,51.41%,Shelby County,22.70%,72.10%,0.0%,3.39%,88.4%,0.0%,0.0%,Central Standard Time,94,58,36,56,106,1,6.2,50,618,5,22.92,AL-73056,33.449046,-86.4645212,58%,63%,49%,55%,57%,58.8,51,68
Sumiton,Alabama,2514,483,Birmingham-Hoover,1091921,$55139,8.76%,46,$210000,1479,$142,42,74.3%,$607,51.37%,N/A,N/A,12.91%,5.85%,59.75%,Walker County,15.30%,82.30%,0.0%,7.08%,90.69%,0.84%,0.0%,Central Standard Time,91,55,36,57,109,1,6.2,48,618,5,5.2,AL-73848,33.7502985,-87.0483515,58%,63%,49%,55%,57%,58.8,51,68
Susan Moore,Alabama,947,175,Birmingham-Hoover,1091921,$49375,9.43%,42,N/A,N/A,N/A,42,82.89%,$532,45.8%,N/A,N/A,15.63%,3.53%,51.08%,Blount County,8.40%,89.30%,0.0%,1.37%,63.46%,35.9%,26.4%,Central Standard Time,90,53,37,56,99,1,7.1,60,618,5,5.41,AL-74160,34.0804083,-86.402486,58%,63%,49%,57%,57%,56.3,49,67
Sylvan Springs,Alabama,1832,197,Birmingham-Hoover,1091921,$70852,12.75%,40,N/A,N/A,N/A,38,93.01%,$746,42.0%,N/A,N/A,2.35%,8.14%,56.44%,Jefferson County,51.60%,44.30%,0.49%,7.7%,86.9%,0.98%,0.71%,Central Standard Time,92,56,36,56,115,1,6.2,39,618,5.2,9.29,AL-74424,33.5302324,-87.0311966,58%,63%,49%,55%,57%,58.8,51,68
Tarrant,Alabama,6216,976,Birmingham-Hoover,1091921,$34032,8.44%,37,$85000,1518,$56,61,47.91%,$812,69.82%,N/A,N/A,29.07%,7.41%,58.14%,Jefferson County,51.60%,44.30%,0.26%,52.46%,33.99%,11.29%,5.95%,Central Standard Time,91,55,36,55,106,1,6.2,25,618,5.2,6.37,AL-74976,33.5944801,-86.7684386,58%,63%,49%,55%,57%,58.8,51,68
Thorsby,Alabama,2122,364,Birmingham-Hoover,1091921,$55978,13.16%,40,$207000,1630,$127,35,77.05%,N/A,48.38%,N/A,N/A,7.85%,5.79%,48.59%,Chilton County,15.80%,82.10%,0.09%,3.68%,90.76%,4.85%,1.93%,Central Standard Time,91,56,35,56,101,0,6.2,49,618,5.6,5.83,AL-76080,32.9169576,-86.720285,58%,63%,49%,55%,57%,58.8,51,68
Trafford,Alabama,530,193,Birmingham-Hoover,1091921,$26154,15.43%,44,$295000,2500,$118,54,65.47%,$750,43.45%,N/A,N/A,33.96%,7.05%,40.0%,Jefferson County,51.60%,44.30%,0.0%,11.89%,84.72%,0.0%,1.13%,Central Standard Time,88,51,37,56,107,1,6.2,50,618,5.2,2.74,AL-76680,33.8187129,-86.746504,58%,63%,49%,55%,57%,58.8,51,68
Trussville,Alabama,22590,652,Birmingham-Hoover,1091921,$104976,46.89%,43,$364000,2247,$162,24,92.81%,$1180,34.09%,N/A,N/A,4.02%,3.02%,65.57%,Jefferson County,51.60%,44.30%,0.78%,6.14%,88.44%,1.16%,1.7%,Central Standard Time,91,55,36,56,103,1,6.2,46,618,5.2,34.67,AL-76944,33.6582951,-86.5435753,58%,63%,49%,55%,57%,58.8,51,68
Vance,Alabama,1475,145,Birmingham-Hoover,1091921,$61635,19.38%,31,$199000,1372,$145,18,85.83%,$988,43.36%,N/A,N/A,8.89%,1.45%,63.81%,Tuscaloosa County,38.40%,57.70%,0.0%,15.59%,81.69%,1.29%,0.88%,Central Standard Time,92,56,36,56,109,0,6.2,43,618,5.3,10.18,AL-78264,33.1747025,-87.231354,58%,63%,49%,55%,57%,58.8,51,68
Vandiver,Alabama,914,45,Birmingham-Hoover,1091921,$22700,25.07%,52,N/A,N/A,N/A,26,69.04%,$695,53.97%,N/A,N/A,27.9%,13.54%,37.45%,Shelby County,22.70%,72.10%,1.09%,3.72%,92.45%,1.42%,1.09%,Central Standard Time,91,55,36,55,105,1,6.2,50,618,5,20.31,AL-78312,33.4600804,-86.5246991,58%,63%,49%,55%,57%,58.8,51,68
Vestavia Hills,Alabama,34482,1728,Birmingham-Hoover,1091921,$110478,66.74%,40,$442000,2402,$184,42,83.87%,$1313,36.16%,N/A,N/A,4.26%,1.73%,64.04%,Jefferson County,51.60%,44.30%,4.38%,6.5%,84.18%,2.65%,5.68%,Central Standard Time,91,55,36,56,113,1,6.2,33,618,5.2,19.96,AL-78552,33.4331151,-86.7838295,58%,63%,49%,55%,57%,58.8,51,68
Vincent,Alabama,1956,95,Birmingham-Hoover,1091921,$34844,8.11%,43,$370000,1968,$188,27,72.34%,$680,50.5%,N/A,N/A,29.86%,11.21%,57.06%,Shelby County,22.70%,72.10%,0.0%,12.27%,85.22%,0.56%,0.0%,Central Standard Time,94,58,36,54,103,1,6.2,47,618,5,20.58,AL-79008,33.3848736,-86.408654,58%,63%,49%,55%,57%,58.8,51,68
Warrior,Alabama,3197,327,Birmingham-Hoover,1091921,$34620,4.78%,52,$200000,1429,$140,49,73.82%,$474,51.37%,N/A,N/A,19.62%,7.31%,34.66%,Jefferson County,51.60%,44.30%,0.94%,30.81%,68.25%,0.0%,0.94%,Central Standard Time,88,51,37,56,107,1,6.2,50,618,5.2,9.78,AL-79944,33.8148584,-86.8156466,58%,63%,49%,55%,57%,58.8,51,68
West Blocton,Alabama,1198,250,Birmingham-Hoover,1091921,$36667,6.32%,47,$226000,2000,$113,36,82.89%,$791,56.19%,N/A,N/A,15.36%,9.29%,39.86%,Bibb County,21.20%,76.40%,0.0%,9.52%,87.06%,2.5%,1.5%,Central Standard Time,93,55,38,57,109,0,6.2,46,618,4.9,4.8,AL-80928,33.1186009,-87.1253465,58%,63%,49%,55%,57%,58.8,51,68
West Jefferson,Alabama,462,248,Birmingham-Hoover,1091921,$45625,10.62%,49,N/A,N/A,N/A,47,74.68%,$1014,45.73%,N/A,N/A,11.26%,11.35%,39.61%,Jefferson County,51.60%,44.30%,0.0%,2.6%,96.97%,0.0%,0.43%,Central Standard Time,92,56,36,57,115,1,6.2,41,618,5.2,1.86,AL-81336,33.6524387,-87.0723368,58%,63%,49%,55%,57%,58.8,51,68
Westover,Alabama,1854,95,Birmingham-Hoover,1091921,$76250,33.33%,35,$502000,3392,$148,17,92.62%,$791,35.79%,N/A,N/A,7.98%,3.72%,63.3%,Shelby County,22.70%,72.10%,0.22%,0.38%,91.21%,7.34%,2.27%,Central Standard Time,94,58,36,56,107,1,6.2,47,618,5,19.47,AL-81504,33.3684403,-86.5345901,58%,63%,49%,55%,57%,58.8,51,68
Wilsonville,Alabama,2305,217,Birmingham-Hoover,1091921,$56786,18.26%,42,$373000,2169,$172,36,83.51%,$815,44.03%,N/A,N/A,11.33%,15.1%,58.35%,Shelby County,22.70%,72.10%,0.0%,6.68%,87.64%,3.86%,0.13%,Central Standard Time,94,58,36,55,110,1,6.2,48,618,5,10.63,AL-82848,33.234616,-86.4883536,58%,63%,49%,55%,57%,58.8,51,68
Wilton,Alabama,813,847,Birmingham-Hoover,1091921,$49702,11.15%,38,N/A,N/A,N/A,45,72.08%,$533,49.92%,N/A,N/A,29.4%,14.51%,59.31%,Shelby County,22.70%,72.10%,0.0%,32.96%,61.75%,5.29%,3.81%,Central Standard Time,91,56,35,56,111,0,6.2,45,618,5,0.96,AL-82872,33.0813917,-86.8798089,58%,63%,49%,55%,57%,58.8,51,68
Woodstock,Alabama,1282,181,Birmingham-Hoover,1091921,$63690,11.02%,39,$205000,1680,$122,28,72.93%,$530,53.99%,N/A,N/A,8.66%,6.58%,64.38%,Bibb County,21.20%,76.40%,0.0%,3.35%,79.64%,16.69%,15.52%,Central Standard Time,92,56,36,57,112,0,6.2,45,618,4.9,7.08,AL-83640,33.2194511,-87.1488285,58%,63%,49%,55%,57%,58.8,51,68
