City,State,Population,People per sq mi,Metro Name,Metro population,Median household income,% with at least Bachelor's degree,Median age,Median home price,Median home sqft,Median home cost per sqft,Median home age,Homeownership Rate,Avg Apartment Monthly Rent,Single Population,Num Violent Crimes Per 100k residents,Num Property Crimes Per 100k residents,Poverty Rate,Unemployment rate,Labor Force Participation rate,County,% Democrat,% Republican,% Asian,% Black,% Non-Hispanic White,% Hispanic,Foreign Born %,Timezone,Hottest month's avg high (F),Coldest month's avg high (F),Hottest high minus coldest high,Hottest month's avg low (F),Coldest month's avg low (F),Annual Relative Humidity (afternoon),Summer Relative Humidity (afternoon),Annual dew point (F),Average summer dew point (F),Hottest month's avg heat index high (F),Annual Sunshine - Percentage of Possible,Summer Sunshine - Percentage of Possible,Winter Sunshine - Percentage of Possible,Annual rainfall (in),Summer rainfall (in),Winter rainfall (in),Percent of days that include precipitation,Percent of Summer days that include precipitation,Percent of Winter days that include precipitation,Annual snowfall (in),Days of snow per year,Average yearly windspeed (mph),Number of days with thunder per year,Air quality Index,Elevation (ft),UV Index,Land Area (sq mi),Fips Code,Latitude,Longitude
Abington,Massachusetts,16974,1704,Boston-Cambridge-Newton,4912030,$113155,41.26%,40,$480000,1437,$334,51,79.48%,$1365,44.92%,139,930,6.0%,5.28%,73.28%,Plymouth County,50.00%,42.50%,3.28%,1.58%,84.38%,2.67%,10.62%,Eastern Standard Time,85,39,46,65,21,57%,57%,39,59,88,58%,66%,54%,49.06,10.66,12.35,36.33%,34.62%,37.56%,38.9,6,6.0,17.7,75,69,3.3,9.96,MA-00135,42.1180452,-70.9590364
Acton,Massachusetts,23455,1181,Boston-Cambridge-Newton,4912030,N/A,N/A,N/A,$588000,1760,$334,N/A,N/A,N/A,N/A,134,277,N/A,N/A,N/A,Middlesex County,65.30%,27.60%,N/A,N/A,N/A,N/A,N/A,Eastern Standard Time,86,38,48,63,19,57%,57%,39,59,90,58%,66%,54%,49.77,12.97,12.33,37.59%,40.88%,34.33%,65.4,23,6.0,17.7,72,192,3.5,19.86,MA-00380,42.484301,-71.4377767
Amesbury Town,Massachusetts,17218,1401,Boston-Cambridge-Newton,4912030,N/A,N/A,N/A,$555000,1713,$324,N/A,N/A,N/A,N/A,142,750,N/A,N/A,N/A,Essex County,57.70%,35.40%,N/A,N/A,N/A,N/A,N/A,Eastern Standard Time,83,36,47,61,18,57%,57%,39,59,85,58%,66%,54%,51.82,12.66,13.02,35.75%,36.81%,35.89%,60.2,18,6.0,17.7,63,51,3.2,12.29,MA-01220,42.8565677,-70.928135
Andover,Massachusetts,8958,2428,Boston-Cambridge-Newton,4912030,$122689,71.49%,46,$999000,2854,$350,77,79.02%,$1274,48.54%,21,588,7.55%,8.15%,65.58%,Essex County,57.70%,35.40%,11.03%,1.26%,81.38%,4.99%,14.26%,Eastern Standard Time,84,36,48,66,21,57%,57%,39,59,86,58%,66%,54%,50.34,12.58,12.51,34.03%,34.51%,33.11%,47.3,14,6.0,17.7,64,189,3.2,3.69,MA-01430,42.6553902,-71.1418334
Arlington,Massachusetts,46045,8958,Boston-Cambridge-Newton,4912030,$125701,74.16%,40,$1215000,2495,$487,74,64.85%,$1797,42.66%,74,366,4.62%,4.06%,73.22%,Middlesex County,65.30%,27.60%,13.68%,3.35%,72.93%,5.02%,19.18%,Eastern Standard Time,86,38,48,63,19,57%,57%,39,59,90,58%,66%,54%,49.58,12.42,12.56,37.59%,40.88%,34.33%,65.4,23,6.0,17.7,60,42,3.5,5.14,MA-01640,42.4186592,-71.1638992
Ashby,Massachusetts,3195,135,Boston-Cambridge-Newton,4912030,N/A,N/A,N/A,$450000,2284,$197,N/A,N/A,N/A,N/A,N/A,N/A,N/A,N/A,N/A,Middlesex County,65.30%,27.60%,N/A,N/A,N/A,N/A,N/A,Eastern Standard Time,82,34,48,62,16,57%,57%,35,56,84,55%,62%,53%,49.81,13.22,11.97,36.05%,35.27%,35.89%,70.0,30,6.0,22.8,82,609,3.5,23.67,MA-01955,42.6765143,-71.8231847
Ashland,Massachusetts,17478,1418,Boston-Cambridge-Newton,4912030,N/A,N/A,N/A,$617000,1946,$317,N/A,N/A,N/A,N/A,118,433,N/A,N/A,N/A,Middlesex County,65.30%,27.60%,N/A,N/A,N/A,N/A,N/A,Eastern Standard Time,85,38,47,65,21,57%,57%,35,56,88,58%,66%,54%,50.54,12.84,13.27,38.03%,38.46%,37.22%,47.6,14,6.0,22.8,73,258,3.5,12.33,MA-02130,42.2572582,-71.4686535
Avon,Massachusetts,4468,1041,Boston-Cambridge-Newton,4912030,N/A,N/A,N/A,$505000,1898,$266,N/A,N/A,N/A,N/A,222,2464,N/A,N/A,N/A,Norfolk County,60.30%,32.60%,N/A,N/A,N/A,N/A,N/A,Eastern Standard Time,85,39,46,65,21,57%,57%,39,59,88,58%,66%,54%,49.06,10.66,12.35,36.33%,34.62%,37.56%,38.9,6,6.0,17.7,72,69,3.5,4.29,MA-02935,42.1266619,-71.0492423
Ayer,Massachusetts,3078,2314,Boston-Cambridge-Newton,4912030,$77850,43.41%,43,$670000,3160,$212,68,56.06%,$1071,58.47%,170,695,7.51%,1.17%,71.02%,Middlesex County,65.30%,27.60%,3.05%,6.5%,68.68%,18.71%,9.68%,Eastern Standard Time,84,36,48,63,17,57%,57%,35,56,87,58%,66%,54%,49.77,12.97,12.33,36.99%,39.12%,34.67%,70.0,30,6.0,22.8,73,192,3.5,1.33,MA-03040,42.5613788,-71.584791
Bedford,Massachusetts,14105,1033,Boston-Cambridge-Newton,4912030,N/A,N/A,N/A,$740000,2751,$269,N/A,N/A,N/A,N/A,49,281,N/A,N/A,N/A,Middlesex County,65.30%,27.60%,N/A,N/A,N/A,N/A,N/A,Eastern Standard Time,86,38,48,63,19,57%,57%,39,59,90,58%,66%,54%,42.61,11.36,9.37,37.59%,40.88%,34.33%,65.4,23,6.0,17.7,69,123,3.5,13.65,MA-04615,42.4969428,-71.2782929
Bellingham,Massachusetts,4212,781,Boston-Cambridge-Newton,4912030,$67006,36.43%,48,$425000,1280,$332,46,78.5%,$1756,51.33%,145,1131,3.66%,4.63%,64.64%,Norfolk County,60.30%,32.60%,0.57%,0.33%,92.12%,4.23%,7.0%,Eastern Standard Time,85,39,46,65,20,55%,56%,39,59,88,57%,61%,55%,51.05,12.67,12.87,35.73%,36.48%,34.0%,45.9,11,7.8,19.7,72,228,3.5,5.39,MA-04965,42.0939792,-71.4760889
Belmont,Massachusetts,27056,5818,Boston-Cambridge-Newton,4912030,$151502,77.43%,42,$1341000,2304,$582,N/A,67.65%,$2215,35.55%,22,679,4.92%,5.48%,68.12%,Middlesex County,65.30%,27.60%,18.18%,1.18%,72.52%,4.16%,26.37%,Eastern Standard Time,86,38,48,65,21,57%,57%,39,59,90,58%,66%,54%,50.0,12.5,12.79,37.59%,40.88%,34.33%,48.2,18,6.0,17.7,61,45,3.5,4.65,MA-05105,42.3959909,-71.1794925
Beverly,Massachusetts,42448,2813,Boston-Cambridge-Newton,4912030,$89882,50.48%,40,$612000,1659,$369,63,66.86%,$1439,50.9%,111,486,9.99%,3.21%,67.96%,Essex County,57.70%,35.40%,2.7%,2.66%,86.08%,5.91%,9.32%,Eastern Standard Time,81,37,44,62,19,57%,57%,39,59,83,58%,66%,54%,48.72,12.25,11.9,32.14%,31.32%,31.11%,47.3,14,6.0,17.7,64,60,3.2,15.09,MA-05595,42.5582768,-70.8434612
Billerica,Massachusetts,42791,1674,Boston-Cambridge-Newton,4912030,N/A,N/A,N/A,$650000,1771,$367,N/A,N/A,N/A,N/A,50,385,N/A,N/A,N/A,Middlesex County,65.30%,27.60%,N/A,N/A,N/A,N/A,N/A,Eastern Standard Time,86,38,48,63,19,57%,57%,39,59,90,58%,66%,54%,49.24,12.19,12.2,37.59%,40.88%,34.33%,65.4,23,6.0,17.7,71,108,3.5,25.56,MA-05805,42.5586808,-71.2672687
Boston,Massachusetts,672814,13918,Boston-Cambridge-Newton,4912030,$81744,52.13%,33,$773000,1173,$659,77,37.56%,$1783,66.61%,607,N/A,17.61%,6.92%,69.72%,Suffolk County,78.40%,16.10%,9.7%,23.48%,43.98%,19.82%,28.11%,Eastern Standard Time,83,38,45,67,24,57%,57%,39,59,85,58%,66%,54%,44.52,11.48,11.36,35.42%,33.19%,38.56%,48.2,18,6.0,17.7,43,12,3.4,48.34,MA-07000,42.3322325,-71.0163903
Boxborough,Massachusetts,5546,539,Boston-Cambridge-Newton,4912030,N/A,N/A,N/A,$434000,1344,$323,N/A,N/A,N/A,N/A,61,397,N/A,N/A,N/A,Middlesex County,65.30%,27.60%,N/A,N/A,N/A,N/A,N/A,Eastern Standard Time,86,38,48,63,19,57%,57%,35,56,90,58%,66%,54%,49.77,12.97,12.33,37.59%,40.88%,34.33%,65.4,23,6.0,22.8,74,192,3.5,10.29,MA-07350,42.4883708,-71.5177924
Boxford,Massachusetts,3020,563,Boston-Cambridge-Newton,4912030,$232326,76.68%,46,$1181000,3885,$304,53,100.0%,N/A,25.43%,0,155,0.0%,4.61%,66.51%,Essex County,57.70%,35.40%,2.12%,0.0%,94.21%,2.12%,6.52%,Eastern Standard Time,82,36,46,62,17,57%,57%,39,59,84,58%,66%,54%,48.48,12.2,12.0,35.29%,35.71%,35.33%,47.3,14,6.0,17.7,69,45,3.2,5.36,MA-07385,42.6694146,-70.9831122
Braintree Town,Massachusetts,37082,2695,Boston-Cambridge-Newton,4912030,N/A,N/A,N/A,$539000,1311,$411,N/A,N/A,N/A,N/A,121,1308,N/A,N/A,N/A,Norfolk County,60.30%,32.60%,N/A,N/A,N/A,N/A,N/A,Eastern Standard Time,85,39,46,65,23,57%,57%,39,59,88,58%,66%,54%,52.6,11.6,13.92,37.97%,35.71%,41.11%,50.6,21,6.0,17.7,69,33,3.5,13.76,MA-07700,42.2038376,-71.002153
Bridgewater,Massachusetts,27434,1007,Boston-Cambridge-Newton,4912030,N/A,N/A,N/A,$252000,910,$277,N/A,N/A,N/A,N/A,216,348,N/A,N/A,N/A,Plymouth County,50.00%,42.50%,N/A,N/A,N/A,N/A,N/A,Eastern Standard Time,84,39,45,61,18,57%,57%,39,59,86,58%,66%,54%,52.98,12.31,13.57,34.27%,31.54%,34.78%,38.9,6,7.8,17.7,79,84,3.3,27.25,MA-08050,41.9888088,-70.9718071
Brockton,Massachusetts,104216,4886,Boston-Cambridge-Newton,4912030,$68067,20.07%,36,$448000,1550,$289,62,61.33%,$1311,58.14%,820,1944,11.5%,8.19%,68.52%,Plymouth County,50.00%,42.50%,1.92%,40.97%,29.25%,12.14%,31.82%,Eastern Standard Time,85,39,46,65,21,57%,57%,39,59,88,58%,66%,54%,49.06,10.66,12.35,36.33%,34.62%,37.56%,38.9,6,6.0,17.7,70,69,3.3,21.33,MA-09000,42.0820603,-71.0241898
Brookline,Massachusetts,62620,9263,Boston-Cambridge-Newton,4912030,$122356,84.36%,35,$1022000,1444,$708,N/A,52.37%,$2452,52.84%,96,853,10.17%,3.64%,71.02%,Norfolk County,60.30%,32.60%,17.81%,2.5%,67.18%,6.63%,30.89%,Eastern Standard Time,86,38,48,65,21,57%,57%,39,59,90,58%,66%,54%,50.22,12.15,12.88,35.42%,33.19%,38.56%,48.2,18,6.0,17.7,49,87,3.5,6.76,MA-09210,42.3242838,-71.1407801
Burlington,Massachusetts,26234,2233,Boston-Cambridge-Newton,4912030,$124755,59.63%,44,$787000,2104,$374,48,79.23%,$2165,38.9%,154,1550,5.04%,3.36%,66.78%,Middlesex County,65.30%,27.60%,15.41%,2.13%,74.38%,3.08%,21.25%,Eastern Standard Time,85,39,46,64,20,57%,57%,39,59,88,58%,66%,54%,50.32,12.72,12.84,37.29%,35.6%,39.11%,65.4,23,6.0,17.7,67,102,3.5,11.75,MA-09875,42.5021534,-71.2026829
Cambridge,Massachusetts,116892,18293,Boston-Cambridge-Newton,4912030,$112565,79.98%,31,$1125000,1304,$863,74,36.32%,$2388,66.15%,278,1653,12.33%,3.75%,69.35%,Middlesex County,65.30%,27.60%,18.27%,10.64%,57.48%,8.78%,29.15%,Eastern Standard Time,86,38,48,65,21,57%,57%,39,59,90,58%,66%,54%,50.0,12.5,12.79,35.42%,33.19%,38.56%,48.2,18,6.0,17.7,42,45,3.5,6.39,MA-11000,42.3758431,-71.1184919
Canton,Massachusetts,22829,1215,Boston-Cambridge-Newton,4912030,N/A,N/A,N/A,$580000,1758,$330,N/A,N/A,N/A,N/A,358,662,N/A,N/A,N/A,Norfolk County,60.30%,32.60%,N/A,N/A,N/A,N/A,N/A,Eastern Standard Time,83,36,47,65,20,57%,57%,39,59,85,58%,66%,54%,53.97,12.5,14.12,38.68%,37.69%,41.22%,69.8,24,6.0,17.7,70,573,3.5,18.79,MA-11315,42.1750999,-71.1264124
Carlisle,Massachusetts,5160,338,Boston-Cambridge-Newton,4912030,N/A,N/A,N/A,$1375000,3228,$426,N/A,N/A,N/A,N/A,19,418,N/A,N/A,N/A,Middlesex County,65.30%,27.60%,N/A,N/A,N/A,N/A,N/A,Eastern Standard Time,86,38,48,63,19,57%,57%,39,59,90,58%,66%,54%,42.61,11.36,9.37,37.59%,40.88%,34.33%,65.4,23,6.0,17.7,73,123,3.5,15.27,MA-11525,42.5300107,-71.3512692
Carver,Massachusetts,11617,311,Boston-Cambridge-Newton,4912030,N/A,N/A,N/A,$480000,1194,$402,N/A,N/A,N/A,N/A,221,580,N/A,N/A,N/A,Plymouth County,50.00%,42.50%,N/A,N/A,N/A,N/A,N/A,Eastern Standard Time,83,39,44,63,21,55%,56%,39,59,85,57%,61%,55%,48.28,11.32,11.44,39.32%,39.56%,37.67%,47.5,14,7.8,19.7,83,135,3.3,37.35,MA-11665,41.8738839,-70.7562995
Chelmsford,Massachusetts,35067,1568,Boston-Cambridge-Newton,4912030,N/A,N/A,N/A,$496000,1570,$316,N/A,N/A,N/A,N/A,96,1127,N/A,N/A,N/A,Middlesex County,65.30%,27.60%,N/A,N/A,N/A,N/A,N/A,Eastern Standard Time,85,35,50,62,17,57%,57%,39,59,88,58%,66%,54%,51.55,13.69,12.27,36.85%,37.47%,35.78%,69.7,29,6.0,17.7,54,102,3.5,22.36,MA-13100,42.5998139,-71.3672838
Chelsea,Massachusetts,40025,18029,Boston-Cambridge-Newton,4912030,$64782,20.85%,34,$470000,1122,$419,77,30.85%,$1639,58.53%,666,1466,22.47%,7.41%,69.23%,Suffolk County,78.40%,16.10%,3.89%,8.03%,19.65%,66.06%,47.24%,Eastern Standard Time,83,38,45,67,24,57%,57%,39,59,85,58%,66%,54%,51.04,12.68,13.71,35.42%,33.19%,38.56%,48.2,18,6.0,17.7,42,96,3.4,2.22,MA-13205,42.3959078,-71.0325106
Cochituate,Massachusetts,6966,1828,Boston-Cambridge-Newton,4912030,$176458,75.81%,43,$940000,2575,$365,63,95.35%,N/A,34.46%,N/A,N/A,2.8%,2.74%,67.78%,Middlesex County,65.30%,27.60%,12.63%,0.52%,76.2%,6.95%,19.75%,Eastern Standard Time,86,38,48,63,19,57%,57%,39,59,90,58%,66%,54%,49.57,12.58,12.3,37.59%,40.88%,34.33%,55.1,20,6.0,17.7,66,192,3.5,3.81,MA-14570,42.3289993,-71.3576617
Cohasset,Massachusetts,8393,857,Boston-Cambridge-Newton,4912030,N/A,N/A,N/A,$1750000,4237,$413,N/A,N/A,N/A,N/A,34,615,N/A,N/A,N/A,Norfolk County,60.30%,32.60%,N/A,N/A,N/A,N/A,N/A,Eastern Standard Time,85,39,46,65,23,57%,57%,39,59,88,58%,66%,54%,50.34,11.54,13.13,37.97%,35.71%,41.11%,50.6,21,6.0,17.7,77,33,3.5,9.79,MA-14640,42.2896143,-70.7757101
Concord,Massachusetts,19357,789,Boston-Cambridge-Newton,4912030,N/A,N/A,N/A,$1284000,2563,$501,N/A,N/A,N/A,N/A,88,462,N/A,N/A,N/A,Middlesex County,65.30%,27.60%,N/A,N/A,N/A,N/A,N/A,Eastern Standard Time,86,38,48,63,19,57%,57%,39,59,90,58%,66%,54%,42.61,11.36,9.37,37.59%,40.88%,34.33%,65.4,23,6.0,17.7,72,123,3.5,24.53,MA-15060,42.4619718,-71.363866
Danvers,Massachusetts,27966,2106,Boston-Cambridge-Newton,4912030,$105654,45.0%,44,$607000,1765,$344,55,76.76%,$1681,47.45%,140,1290,5.83%,5.15%,69.16%,Essex County,57.70%,35.40%,2.36%,2.58%,87.6%,5.59%,9.79%,Eastern Standard Time,83,37,46,63,21,57%,57%,39,59,85,58%,66%,54%,50.18,11.99,13.14,36.77%,35.93%,36.67%,47.3,14,6.0,17.7,60,42,3.2,13.28,MA-16285,42.5740579,-70.9494553
Dedham,Massachusetts,25308,2464,Boston-Cambridge-Newton,4912030,$108047,55.31%,43,$725000,1768,$410,65,75.13%,$1795,48.4%,27,1297,4.62%,3.78%,69.94%,Norfolk County,60.30%,32.60%,2.7%,7.58%,79.87%,7.87%,13.83%,Eastern Standard Time,87,40,47,64,22,57%,57%,39,59,92,58%,66%,54%,43.45,11.27,10.18,36.22%,38.35%,34.56%,69.8,24,6.0,17.7,56,45,3.5,10.27,MA-16530,42.2466262,-71.1776511
Devens,Massachusetts,2071,305,Boston-Cambridge-Newton,4912030,$120777,31.76%,44,$685000,1846,$371,72,86.87%,N/A,62.32%,N/A,N/A,11.63%,1.23%,30.91%,Worcester County,51.00%,40.40%,12.55%,26.8%,49.11%,11.01%,23.08%,Eastern Standard Time,84,36,48,63,17,57%,57%,35,56,87,58%,66%,54%,44.12,12.11,9.57,36.99%,39.12%,34.67%,70.0,30,6.0,22.8,74,318,3.3,6.78,MA-16840,42.544698,-71.613181
Dover,Massachusetts,2413,569,Boston-Cambridge-Newton,4912030,$227375,83.54%,44,$1563000,3284,$476,51,96.66%,$3141,32.08%,16,212,1.62%,12.71%,70.09%,Norfolk County,60.30%,32.60%,14.34%,0.0%,72.52%,0.75%,14.34%,Eastern Standard Time,85,38,47,65,21,57%,57%,39,59,88,58%,66%,54%,50.31,12.54,12.51,37.21%,35.6%,37.89%,55.1,20,6.0,17.7,72,198,3.5,4.24,MA-17370,42.2474384,-71.274166
Dracut,Massachusetts,31113,1508,Boston-Cambridge-Newton,4912030,N/A,N/A,N/A,$430000,1433,$300,N/A,N/A,N/A,N/A,94,443,N/A,N/A,N/A,Middlesex County,65.30%,27.60%,N/A,N/A,N/A,N/A,N/A,Eastern Standard Time,85,35,50,62,17,57%,57%,39,59,88,58%,66%,54%,51.55,13.69,12.27,36.85%,37.47%,35.78%,69.7,29,6.0,17.7,67,102,3.5,20.63,MA-17475,42.6832452,-71.3009484
Dunstable,Massachusetts,3337,203,Boston-Cambridge-Newton,4912030,N/A,N/A,N/A,$1005000,2896,$347,N/A,N/A,N/A,N/A,88,205,N/A,N/A,N/A,Middlesex County,65.30%,27.60%,N/A,N/A,N/A,N/A,N/A,Eastern Standard Time,86,36,50,62,15,57%,57%,35,56,90,58%,66%,54%,47.13,12.53,11.21,36.85%,37.47%,35.78%,69.7,29,6.0,22.8,73,165,3.5,16.44,MA-17825,42.6764148,-71.5005243
Duxbury,Massachusetts,1587,718,Boston-Cambridge-Newton,4912030,$108810,84.54%,54,$915000,2153,$425,61,92.28%,N/A,36.93%,56,357,9.07%,5.54%,68.97%,Plymouth County,50.00%,42.50%,0.69%,0.0%,98.42%,0.88%,3.4%,Eastern Standard Time,83,39,44,63,21,57%,57%,39,59,85,58%,66%,54%,53.8,11.79,14.09,39.32%,39.56%,37.67%,47.5,14,6.0,17.7,82,66,3.3,2.21,MA-17860,42.042757,-70.6748702
East Bridgewater,Massachusetts,14301,831,Boston-Cambridge-Newton,4912030,N/A,N/A,N/A,$440000,1379,$319,N/A,N/A,N/A,N/A,186,442,N/A,N/A,N/A,Plymouth County,50.00%,42.50%,N/A,N/A,N/A,N/A,N/A,Eastern Standard Time,85,39,46,65,21,57%,57%,39,59,88,58%,66%,54%,49.06,10.66,12.35,36.33%,34.62%,37.56%,38.9,6,6.0,17.7,78,69,3.3,17.21,MA-18455,42.0351529,-70.9423942
East Pepperell,Massachusetts,1896,1335,Boston-Cambridge-Newton,4912030,$97794,23.47%,42,$450000,1601,$281,48,81.99%,$1222,43.12%,N/A,N/A,3.43%,3.09%,68.47%,Middlesex County,65.30%,27.60%,2.9%,0.9%,92.93%,1.48%,5.85%,Eastern Standard Time,86,36,50,62,15,57%,57%,35,56,90,58%,66%,54%,47.13,12.53,11.21,36.85%,37.47%,35.78%,69.7,29,6.0,22.8,73,165,3.5,1.42,MA-20310,42.6653251,-71.5634107
Essex,Massachusetts,1688,819,Boston-Cambridge-Newton,4912030,$130125,59.79%,46,$658000,1813,$363,58,94.4%,N/A,50.75%,N/A,N/A,10.89%,2.27%,71.24%,Essex County,57.70%,35.40%,0.0%,0.0%,98.05%,1.13%,2.07%,Eastern Standard Time,81,37,44,62,19,57%,57%,39,59,83,58%,66%,54%,48.72,12.25,11.9,36.77%,35.93%,36.67%,47.3,14,6.0,17.7,76,60,3.2,2.06,MA-21815,42.633296,-70.7743117
Everett,Massachusetts,48368,14143,Boston-Cambridge-Newton,4912030,$71510,24.38%,36,$617000,1893,$326,N/A,42.83%,$1700,56.71%,519,1320,12.79%,6.41%,73.33%,Middlesex County,65.30%,27.60%,8.16%,13.37%,40.9%,30.61%,43.13%,Eastern Standard Time,83,38,45,67,24,57%,57%,39,59,85,58%,66%,54%,51.04,12.68,13.71,35.42%,33.19%,38.56%,48.2,18,6.0,17.7,47,96,3.5,3.42,MA-21990,42.4064415,-71.0544671
Foxborough,Massachusetts,6557,2277,Boston-Cambridge-Newton,4912030,$67563,47.03%,42,$569000,1649,$345,60,51.3%,$1362,50.74%,198,896,7.11%,3.5%,65.66%,Norfolk County,60.30%,32.60%,8.33%,11.38%,67.32%,7.12%,11.53%,Eastern Standard Time,83,37,46,63,19,55%,56%,39,59,85,57%,61%,55%,53.33,12.35,13.74,36.0%,34.4%,37.22%,48.4,16,7.8,19.7,73,87,3.5,2.88,MA-24855,42.0644234,-71.2482657
Framingham,Massachusetts,72089,2879,Boston-Cambridge-Newton,4912030,$90638,50.65%,39,$585000,1706,$343,57,59.95%,$1538,47.83%,406,1093,10.47%,5.05%,71.39%,Middlesex County,65.30%,27.60%,8.77%,6.5%,58.02%,16.74%,30.97%,Eastern Standard Time,86,38,48,63,19,57%,57%,35,56,90,58%,66%,54%,49.57,12.58,12.3,38.03%,38.46%,37.22%,47.6,14,6.0,22.8,68,192,3.5,25.04,MA-24960,42.3085405,-71.4367564
Franklin Town,Massachusetts,33057,1241,Boston-Cambridge-Newton,4912030,$127608,54.66%,41,$638000,2192,$291,35,86.16%,$1519,42.18%,6,123,5.54%,5.15%,71.49%,Norfolk County,60.30%,32.60%,6.26%,1.69%,86.22%,3.67%,9.2%,Eastern Standard Time,85,39,46,65,20,55%,56%,39,59,88,57%,61%,55%,51.05,12.67,12.87,35.73%,36.48%,34.0%,45.9,11,7.8,19.7,73,228,3.5,26.64,MA-25172,42.0862129,-71.4112801
Georgetown,Massachusetts,8569,666,Boston-Cambridge-Newton,4912030,N/A,N/A,N/A,$706000,2227,$317,N/A,N/A,N/A,N/A,22,375,N/A,N/A,N/A,Essex County,57.70%,35.40%,N/A,N/A,N/A,N/A,N/A,Eastern Standard Time,84,36,48,63,19,57%,57%,39,59,86,58%,66%,54%,49.58,12.22,12.49,35.95%,34.62%,38.0%,64.9,24,6.0,17.7,67,27,3.2,12.87,MA-25625,42.7240056,-70.9821141
Gloucester,Massachusetts,29814,1138,Boston-Cambridge-Newton,4912030,$82984,39.57%,50,$550000,1440,$382,74,67.36%,$1256,47.11%,191,540,9.27%,5.73%,65.42%,Essex County,57.70%,35.40%,1.6%,2.12%,90.1%,3.86%,9.6%,Eastern Standard Time,81,37,44,62,19,57%,57%,39,59,83,58%,66%,54%,48.72,12.25,11.9,36.77%,35.93%,36.67%,47.3,14,6.0,17.7,75,60,3.2,26.2,MA-26150,42.6306123,-70.6835946
Green Harbor-Cedar Crest,Massachusetts,2501,1397,Boston-Cambridge-Newton,4912030,N/A,N/A,N/A,$669000,2021,$331,N/A,N/A,N/A,N/A,N/A,N/A,N/A,N/A,N/A,Plymouth County,50.00%,42.50%,N/A,N/A,N/A,N/A,N/A,Eastern Standard Time,83,39,44,63,21,57%,57%,39,59,85,58%,66%,54%,53.8,11.79,14.09,39.32%,39.56%,37.67%,50.6,21,6.0,17.7,84,66,3.3,1.79,MA-27147,42.0748847,-70.6584289
Groton,Massachusetts,1295,775,Boston-Cambridge-Newton,4912030,$130625,46.96%,40,$684000,2815,$243,N/A,77.5%,$1039,65.69%,70,201,7.5%,6.74%,66.0%,Middlesex County,65.30%,27.60%,3.32%,3.47%,80.62%,5.33%,11.04%,Eastern Standard Time,86,36,50,62,15,57%,57%,35,56,90,58%,66%,54%,47.13,12.53,11.21,36.99%,39.12%,34.67%,69.7,29,6.0,22.8,74,165,3.5,1.67,MA-27445,42.6083621,-71.5706535
Groveland,Massachusetts,6697,754,Boston-Cambridge-Newton,4912030,N/A,N/A,N/A,$771000,2130,$362,N/A,N/A,N/A,N/A,29,131,N/A,N/A,N/A,Essex County,57.70%,35.40%,N/A,N/A,N/A,N/A,N/A,Eastern Standard Time,84,36,48,63,19,57%,57%,39,59,86,58%,66%,54%,49.58,12.22,12.49,35.95%,34.62%,38.0%,64.9,24,6.0,17.7,67,27,3.2,8.88,MA-27620,42.751985,-71.0148715
Halifax,Massachusetts,7739,484,Boston-Cambridge-Newton,4912030,N/A,N/A,N/A,$368000,1527,$241,N/A,N/A,N/A,N/A,101,647,N/A,N/A,N/A,Plymouth County,50.00%,42.50%,N/A,N/A,N/A,N/A,N/A,Eastern Standard Time,84,39,45,61,18,57%,57%,39,59,86,58%,66%,54%,52.98,12.31,13.57,34.27%,31.54%,34.78%,47.5,14,6.0,17.7,81,84,3.3,15.99,MA-27795,41.9913872,-70.8632477
Hamilton,Massachusetts,7991,563,Boston-Cambridge-Newton,4912030,N/A,N/A,N/A,$719000,1872,$384,N/A,N/A,N/A,N/A,12,321,N/A,N/A,N/A,Essex County,57.70%,35.40%,N/A,N/A,N/A,N/A,N/A,Eastern Standard Time,81,37,44,62,19,57%,57%,39,59,83,58%,66%,54%,48.72,12.25,11.9,36.77%,35.93%,36.67%,47.3,14,6.0,17.7,73,60,3.2,14.19,MA-27900,42.626694,-70.8579622
Hanover,Massachusetts,14328,918,Boston-Cambridge-Newton,4912030,N/A,N/A,N/A,$830000,2392,$347,N/A,N/A,N/A,N/A,20,835,N/A,N/A,N/A,Plymouth County,50.00%,42.50%,N/A,N/A,N/A,N/A,N/A,Eastern Standard Time,85,39,46,65,23,57%,57%,39,59,88,58%,66%,54%,50.34,11.54,13.13,37.97%,35.71%,41.11%,50.6,21,6.0,17.7,77,33,3.3,15.61,MA-28285,42.1223975,-70.8566503
Hanscom AFB,Massachusetts,1917,2154,Boston-Cambridge-Newton,4912030,$105909,46.98%,22,N/A,N/A,N/A,46,0.0%,$3031,17.42%,N/A,N/A,0.0%,2.11%,75.26%,Middlesex County,65.30%,27.60%,7.46%,6.21%,48.98%,31.82%,11.01%,Eastern Standard Time,86,38,48,63,19,57%,57%,39,59,90,58%,66%,54%,42.61,11.36,9.37,37.59%,40.88%,34.33%,65.4,23,6.0,17.7,71,123,3.5,0.89,MA-28425,42.4582329,-71.2793216
Hanson,Massachusetts,1860,1011,Boston-Cambridge-Newton,4912030,$116000,40.23%,39,N/A,N/A,N/A,54,99.2%,N/A,41.32%,156,432,0.88%,3.61%,66.2%,Plymouth County,50.00%,42.50%,0.38%,1.24%,91.56%,7.15%,2.8%,Eastern Standard Time,85,39,46,65,21,57%,57%,39,59,88,58%,66%,54%,53.8,11.79,14.09,36.33%,34.62%,37.56%,38.9,6,6.0,17.7,77,66,3.3,1.84,MA-28460,42.0649064,-70.8521278
Haverhill,Massachusetts,67093,2031,Boston-Cambridge-Newton,4912030,$75130,29.84%,39,$490000,1696,$289,58,61.88%,$1328,54.14%,523,1310,10.78%,6.85%,70.87%,Essex County,57.70%,35.40%,1.56%,3.74%,66.85%,23.36%,11.81%,Eastern Standard Time,83,36,47,61,18,57%,57%,39,59,85,58%,66%,54%,48.87,12.76,11.78,35.95%,34.62%,38.0%,64.9,24,6.0,17.7,58,87,3.2,33.04,MA-29405,42.7838791,-71.0871577
Hingham,Massachusetts,5557,1793,Boston-Cambridge-Newton,4912030,$206384,76.82%,43,$666000,1354,$492,N/A,93.15%,$1411,33.13%,125,763,5.72%,6.28%,64.68%,Plymouth County,50.00%,42.50%,0.2%,1.98%,94.67%,2.18%,4.98%,Eastern Standard Time,85,39,46,65,23,57%,57%,39,59,88,58%,66%,54%,50.34,11.54,13.13,37.97%,35.71%,41.11%,50.6,21,6.0,17.7,74,33,3.3,3.1,MA-30175,42.2365143,-70.8879799
Holbrook,Massachusetts,11344,1563,Boston-Cambridge-Newton,4912030,$89763,30.59%,44,$510000,1421,$359,64,83.97%,$1015,51.65%,300,1173,6.96%,3.17%,68.93%,Norfolk County,60.30%,32.60%,1.25%,11.47%,71.92%,7.21%,12.56%,Eastern Standard Time,85,39,46,65,21,57%,57%,39,59,88,58%,66%,54%,49.06,10.66,12.35,36.33%,34.62%,37.56%,38.9,6,6.0,17.7,72,69,3.5,7.26,MA-30420,42.1470502,-71.0056831
Holliston,Massachusetts,14480,777,Boston-Cambridge-Newton,4912030,N/A,N/A,N/A,$720000,2143,$336,N/A,N/A,N/A,N/A,86,273,N/A,N/A,N/A,Middlesex County,65.30%,27.60%,N/A,N/A,N/A,N/A,N/A,Eastern Standard Time,85,38,47,65,21,57%,57%,35,56,88,58%,66%,54%,50.63,13.17,12.87,38.03%,38.46%,37.22%,47.6,14,7.8,22.8,72,243,3.5,18.64,MA-30700,42.1977482,-71.4449871
Hopkinton,Massachusetts,3567,2331,Boston-Cambridge-Newton,4912030,$149677,68.48%,43,$812000,2628,$309,57,82.21%,$1649,40.53%,0,161,2.39%,6.24%,66.55%,Middlesex County,65.30%,27.60%,1.71%,0.31%,90.66%,4.54%,5.21%,Eastern Standard Time,85,38,47,65,21,57%,57%,35,56,88,58%,66%,54%,50.54,12.84,13.27,38.03%,38.46%,37.22%,47.6,14,7.8,22.8,73,258,3.5,1.53,MA-31050,42.2235767,-71.5228235
Hudson,Massachusetts,15445,2686,Boston-Cambridge-Newton,4912030,$83828,42.23%,45,$470000,1446,$325,51,73.17%,$1376,47.18%,N/A,N/A,7.24%,4.72%,65.2%,Middlesex County,65.30%,27.60%,2.52%,0.65%,84.29%,7.68%,20.82%,Eastern Standard Time,84,36,48,63,17,57%,57%,35,56,87,58%,66%,54%,50.3,13.18,12.11,36.99%,39.12%,34.67%,47.6,14,6.0,22.8,72,369,3.5,5.75,MA-31575,42.3918283,-71.5644874
Hull,Massachusetts,10120,3526,Boston-Cambridge-Newton,4912030,$117120,49.68%,54,$525000,1185,$443,75,81.43%,$1672,50.74%,451,778,4.22%,4.56%,71.56%,Plymouth County,50.00%,42.50%,1.35%,0.35%,95.32%,1.05%,5.49%,Eastern Standard Time,85,39,46,65,23,57%,57%,39,59,88,58%,66%,54%,50.34,11.54,13.13,37.97%,35.71%,41.11%,50.6,21,6.0,17.7,73,33,3.3,2.87,MA-31680,42.308491,-70.8792393
Ipswich,Massachusetts,4659,2841,Boston-Cambridge-Newton,4912030,$78261,54.75%,44,$2210000,3379,$654,N/A,66.33%,$1245,45.64%,134,326,7.38%,4.23%,68.99%,Essex County,57.70%,35.40%,4.53%,3.28%,87.25%,4.59%,9.85%,Eastern Standard Time,81,37,44,62,19,57%,57%,39,59,83,58%,66%,54%,48.72,12.25,11.9,36.77%,35.93%,36.67%,47.3,14,6.0,17.7,73,60,3.2,1.64,MA-32275,42.6792246,-70.8307297
Kingston,Massachusetts,6013,1250,Boston-Cambridge-Newton,4912030,$115563,44.64%,44,$613000,1814,$338,57,80.62%,$1373,44.09%,152,784,2.31%,2.41%,75.59%,Plymouth County,50.00%,42.50%,0.0%,0.65%,93.56%,3.76%,1.93%,Eastern Standard Time,83,39,44,63,21,57%,57%,39,59,85,58%,66%,54%,53.8,11.79,14.09,39.32%,39.56%,37.67%,47.5,14,6.0,17.7,81,66,3.3,4.81,MA-33185,41.9965419,-70.7224842
Lakeville,Massachusetts,11245,380,Boston-Cambridge-Newton,4912030,N/A,N/A,N/A,$520000,1877,$277,N/A,N/A,N/A,N/A,140,735,N/A,N/A,N/A,Plymouth County,50.00%,42.50%,N/A,N/A,N/A,N/A,N/A,Eastern Standard Time,83,39,44,64,21,55%,56%,39,59,85,57%,61%,55%,54.95,12.57,14.26,33.37%,30.11%,35.0%,32.9,7,7.8,19.7,78,60,3.3,29.59,MA-33920,41.8310233,-70.9593886
Lawrence,Massachusetts,87798,12669,Boston-Cambridge-Newton,4912030,$47542,13.54%,32,$453000,1819,$249,75,33.82%,$1303,61.54%,674,1188,19.21%,10.12%,68.01%,Essex County,57.70%,35.40%,1.71%,5.26%,13.2%,82.28%,41.27%,Eastern Standard Time,84,36,48,66,21,57%,57%,39,59,86,58%,66%,54%,47.58,12.43,11.11,34.03%,34.51%,33.11%,64.9,24,6.0,17.7,56,45,3.2,6.93,MA-34550,42.7002436,-71.162615
Lexington,Massachusetts,34235,2084,Boston-Cambridge-Newton,4912030,$202852,84.99%,47,$1741000,3260,$534,56,84.68%,$2493,31.31%,50,227,3.2%,4.19%,64.51%,Middlesex County,65.30%,27.60%,31.82%,1.16%,60.05%,2.23%,31.69%,Eastern Standard Time,86,38,48,63,19,57%,57%,39,59,90,58%,66%,54%,42.61,11.36,9.37,37.59%,40.88%,34.33%,65.4,23,6.0,17.7,66,123,3.5,16.43,MA-35250,42.4456303,-71.2307065
Lincoln,Massachusetts,6696,471,Boston-Cambridge-Newton,4912030,N/A,N/A,N/A,$2012000,5030,$400,N/A,N/A,N/A,N/A,58,235,N/A,N/A,N/A,Middlesex County,65.30%,27.60%,N/A,N/A,N/A,N/A,N/A,Eastern Standard Time,86,38,48,63,19,57%,57%,39,59,90,58%,66%,54%,42.61,11.36,9.37,37.59%,40.88%,34.33%,65.4,23,6.0,17.7,72,123,3.5,14.22,MA-35425,42.4266262,-71.308641
Littleton,Massachusetts,9754,590,Boston-Cambridge-Newton,4912030,N/A,N/A,N/A,$1110000,3118,$356,N/A,N/A,N/A,N/A,106,464,N/A,N/A,N/A,Middlesex County,65.30%,27.60%,N/A,N/A,N/A,N/A,N/A,Eastern Standard Time,85,35,50,62,17,57%,57%,35,56,88,58%,66%,54%,49.77,12.97,12.33,36.85%,37.47%,35.78%,69.7,29,6.0,22.8,72,192,3.5,16.53,MA-35950,42.5350222,-71.4890967
Lowell,Massachusetts,114804,8435,Boston-Cambridge-Newton,4912030,$64489,27.4%,34,$391000,1330,$294,71,46.52%,$1311,61.75%,363,1482,17.53%,5.79%,67.23%,Middlesex County,65.30%,27.60%,22.24%,8.99%,48.28%,17.57%,27.86%,Eastern Standard Time,85,35,50,62,17,57%,57%,39,59,88,58%,66%,54%,51.55,13.69,12.27,36.85%,37.47%,35.78%,69.7,29,6.0,17.7,62,102,3.5,13.61,MA-37000,42.638871,-71.3217142
Lynn,Massachusetts,100233,9333,Boston-Cambridge-Newton,4912030,$63922,20.98%,36,$503000,1567,$321,78,50.13%,$1343,57.27%,492,1426,14.94%,5.65%,66.87%,Essex County,57.70%,35.40%,4.87%,14.55%,37.82%,41.78%,35.42%,Eastern Standard Time,81,38,43,62,19,57%,57%,39,59,83,58%,66%,54%,48.0,12.16,11.42,32.14%,31.32%,31.11%,48.2,18,6.0,17.7,56,36,3.2,10.74,MA-37490,42.4744867,-70.9607087
Lynnfield,Massachusetts,12874,1306,Boston-Cambridge-Newton,4912030,$147237,61.43%,40,$913000,2271,$402,56,91.8%,$1752,32.25%,15,586,3.3%,3.75%,71.04%,Essex County,57.70%,35.40%,5.14%,2.14%,88.25%,1.39%,8.26%,Eastern Standard Time,82,36,46,62,17,57%,57%,39,59,84,58%,66%,54%,49.49,12.45,12.28,35.29%,35.71%,35.33%,47.3,14,6.0,17.7,64,102,3.2,9.86,MA-37595,42.535633,-71.0381619
Malden,Massachusetts,65602,13016,Boston-Cambridge-Newton,4912030,$77119,42.97%,35,$623000,1602,$389,N/A,45.1%,$1774,50.04%,266,1183,14.66%,6.77%,68.86%,Middlesex County,65.30%,27.60%,27.03%,15.7%,43.65%,8.54%,42.41%,Eastern Standard Time,83,38,45,67,24,57%,57%,39,59,85,58%,66%,54%,51.04,12.68,13.71,35.42%,33.19%,38.56%,48.2,18,6.0,17.7,53,96,3.5,5.04,MA-37875,42.4304692,-71.0576168
Manchester-by-the-Sea,Massachusetts,5327,577,Boston-Cambridge-Newton,4912030,N/A,N/A,N/A,N/A,N/A,N/A,N/A,N/A,N/A,N/A,36,442,N/A,N/A,N/A,Essex County,57.70%,35.40%,N/A,N/A,N/A,N/A,N/A,Eastern Standard Time,81,37,44,62,19,57%,57%,39,59,83,58%,66%,54%,48.72,12.25,11.9,32.14%,31.32%,31.11%,47.3,14,6.0,17.7,76,60,3.2,9.23,MA-37995,42.5625402,-70.7585708
Marblehead,Massachusetts,20397,4657,Boston-Cambridge-Newton,4912030,$154049,77.24%,48,$1034000,2056,$503,76,82.69%,$1567,37.57%,106,554,2.78%,3.51%,67.92%,Essex County,57.70%,35.40%,1.62%,0.41%,92.09%,4.22%,8.3%,Eastern Standard Time,81,38,43,62,19,57%,57%,39,59,83,58%,66%,54%,49.46,12.19,12.41,32.14%,31.32%,31.11%,47.3,14,6.0,17.7,68,78,3.2,4.38,MA-38435,42.4928084,-70.8348865
Marion,Massachusetts,5065,362,Boston-Cambridge-Newton,4912030,N/A,N/A,N/A,$560000,1534,$365,N/A,N/A,N/A,N/A,77,623,N/A,N/A,N/A,Plymouth County,50.00%,42.50%,N/A,N/A,N/A,N/A,N/A,Eastern Standard Time,82,39,43,65,23,55%,56%,39,59,84,57%,61%,55%,52.31,11.12,13.31,34.16%,30.99%,36.44%,33.7,12,7.8,19.7,83,27,3.3,13.99,MA-38540,41.6972239,-70.7433543
Marlborough,Massachusetts,41505,1990,Boston-Cambridge-Newton,4912030,$86230,40.25%,39,$520000,1799,$289,48,62.92%,$1527,47.96%,375,1335,8.3%,5.44%,74.05%,Middlesex County,65.30%,27.60%,5.22%,3.43%,64.45%,16.23%,26.74%,Eastern Standard Time,86,38,48,63,19,57%,57%,35,56,90,58%,66%,54%,50.3,13.18,12.11,38.03%,38.46%,37.22%,47.6,14,6.0,22.8,71,369,3.5,20.86,MA-38715,42.3494008,-71.5468106
Marshfield,Massachusetts,4901,970,Boston-Cambridge-Newton,4912030,$90234,58.02%,40,$618000,1726,$358,48,81.05%,$1100,40.76%,124,275,17.45%,2.56%,72.74%,Plymouth County,50.00%,42.50%,1.9%,0.02%,92.88%,4.94%,4.33%,Eastern Standard Time,83,39,44,63,21,57%,57%,39,59,85,58%,66%,54%,53.8,11.79,14.09,39.32%,39.56%,37.67%,50.6,21,6.0,17.7,84,66,3.3,5.05,MA-38820,42.0939576,-70.7048088
Marshfield CDP,Massachusetts,4901,970,Boston-Cambridge-Newton,4912030,$90234,58.02%,40,$618000,1726,$358,48,81.05%,$1100,40.76%,124,275,17.45%,2.56%,72.74%,Plymouth County,50.00%,42.50%,1.9%,0.02%,92.88%,4.94%,4.33%,Eastern Standard Time,83,39,44,63,21,57%,57%,39,59,85,58%,66%,54%,53.8,11.79,14.09,39.32%,39.56%,37.67%,50.6,21,6.0,17.7,84,66,3.3,5.05,MA-38820,42.0939576,-70.7048088
Marshfield Hills,Massachusetts,2244,490,Boston-Cambridge-Newton,4912030,$146354,60.75%,48,$780000,2516,$310,48,100.0%,N/A,33.11%,N/A,N/A,12.97%,0.0%,61.57%,Plymouth County,50.00%,42.50%,0.0%,0.0%,98.04%,1.96%,6.28%,Eastern Standard Time,85,39,46,65,23,57%,57%,39,59,88,58%,66%,54%,50.34,11.54,13.13,37.97%,35.71%,41.11%,50.6,21,6.0,17.7,85,33,3.3,4.58,MA-38960,42.1486162,-70.7314825
Mattapoisett,Massachusetts,6245,360,Boston-Cambridge-Newton,4912030,N/A,N/A,N/A,$499000,1599,$312,N/A,N/A,N/A,N/A,188,627,N/A,N/A,N/A,Plymouth County,50.00%,42.50%,N/A,N/A,N/A,N/A,N/A,Eastern Standard Time,83,40,43,63,22,55%,56%,39,59,85,57%,61%,55%,46.47,11.12,11.49,37.18%,37.25%,36.33%,32.9,7,7.8,19.7,85,72,3.3,17.35,MA-39450,41.6606869,-70.8116786
Maynard,Massachusetts,10702,2054,Boston-Cambridge-Newton,4912030,$112432,57.11%,41,$536000,1385,$387,57,83.99%,$1322,41.39%,225,366,5.5%,4.03%,77.22%,Middlesex County,65.30%,27.60%,4.19%,1.11%,83.69%,3.81%,10.47%,Eastern Standard Time,86,38,48,63,19,57%,57%,35,56,90,58%,66%,54%,49.57,12.58,12.3,37.59%,40.88%,34.33%,65.4,23,6.0,22.8,70,192,3.5,5.21,MA-39660,42.4263949,-71.4561056
Medfield,Massachusetts,6317,1276,Boston-Cambridge-Newton,4912030,$169750,72.59%,45,$827000,2022,$409,52,87.06%,$1337,36.92%,N/A,N/A,3.33%,3.64%,67.36%,Norfolk County,60.30%,32.60%,2.53%,0.41%,93.59%,1.88%,5.4%,Eastern Standard Time,85,38,47,65,21,57%,57%,39,59,88,58%,66%,54%,50.8,12.51,12.74,37.01%,35.71%,38.44%,55.1,20,6.0,17.7,72,156,3.5,4.95,MA-39730,42.1870171,-71.3031921
Medford,Massachusetts,60708,7495,Boston-Cambridge-Newton,4912030,$107853,55.73%,36,$672000,1349,$498,77,57.32%,$2116,58.12%,201,915,7.59%,4.24%,72.98%,Middlesex County,65.30%,27.60%,10.6%,8.43%,68.36%,8.39%,22.51%,Eastern Standard Time,83,38,45,67,24,57%,57%,39,59,85,58%,66%,54%,49.58,12.42,12.56,35.42%,33.19%,38.56%,48.2,18,6.0,17.7,55,42,3.5,8.1,MA-39835,42.4234233,-71.1086728
Medway,Massachusetts,13162,1140,Boston-Cambridge-Newton,4912030,N/A,N/A,N/A,$665000,2059,$323,N/A,N/A,N/A,N/A,44,201,N/A,N/A,N/A,Norfolk County,60.30%,32.60%,N/A,N/A,N/A,N/A,N/A,Eastern Standard Time,85,38,47,65,21,57%,57%,35,56,88,57%,61%,55%,50.63,13.17,12.87,38.03%,38.46%,37.22%,47.6,14,7.8,22.8,72,243,3.5,11.55,MA-39975,42.1535312,-71.4290271
Melrose,Massachusetts,29567,6318,Boston-Cambridge-Newton,4912030,$125229,61.95%,42,$805000,1777,$453,N/A,75.32%,$1796,42.43%,113,611,3.37%,3.73%,70.73%,Middlesex County,65.30%,27.60%,8.28%,3.39%,80.82%,3.55%,13.57%,Eastern Standard Time,85,39,46,64,20,57%,57%,39,59,88,58%,66%,54%,51.04,12.68,13.71,37.29%,35.6%,39.11%,65.4,23,6.0,17.7,62,96,3.5,4.68,MA-40115,42.4556148,-71.0590082
Merrimac,Massachusetts,6752,798,Boston-Cambridge-Newton,4912030,N/A,N/A,N/A,$580000,1824,$318,N/A,N/A,N/A,N/A,28,214,N/A,N/A,N/A,Essex County,57.70%,35.40%,N/A,N/A,N/A,N/A,N/A,Eastern Standard Time,83,36,47,61,18,57%,57%,39,59,85,58%,66%,54%,48.87,12.76,11.78,35.75%,36.81%,35.89%,64.9,24,6.0,17.7,63,87,3.2,8.46,MA-40430,42.8386587,-71.0120406
Methuen Town,Massachusetts,52536,2365,Boston-Cambridge-Newton,4912030,$87137,30.03%,40,$570000,2028,$281,52,76.4%,$1328,50.8%,187,1088,9.68%,7.01%,68.8%,Essex County,57.70%,35.40%,4.47%,6.48%,57.82%,29.04%,22.73%,Eastern Standard Time,84,36,48,66,21,57%,57%,39,59,86,58%,66%,54%,47.58,12.43,11.11,34.03%,34.51%,33.11%,64.9,24,6.0,17.7,62,45,3.2,22.21,MA-40710,42.7339839,-71.1888295
Middleborough,Massachusetts,24213,351,Boston-Cambridge-Newton,4912030,N/A,N/A,N/A,$540000,1849,$292,N/A,N/A,N/A,N/A,N/A,N/A,N/A,N/A,N/A,Plymouth County,50.00%,42.50%,N/A,N/A,N/A,N/A,N/A,Eastern Standard Time,83,38,45,63,19,55%,56%,39,59,85,57%,61%,55%,53.57,12.27,13.76,37.86%,36.15%,39.78%,47.5,14,7.8,19.7,69,42,3.3,68.98,MA-40850,41.8803332,-70.8744164
Middleton,Massachusetts,9656,718,Boston-Cambridge-Newton,4912030,N/A,N/A,N/A,$905000,2873,$315,N/A,N/A,N/A,N/A,49,405,N/A,N/A,N/A,Essex County,57.70%,35.40%,N/A,N/A,N/A,N/A,N/A,Eastern Standard Time,82,36,46,62,17,57%,57%,39,59,84,58%,66%,54%,49.49,12.45,12.28,35.29%,35.71%,35.33%,47.3,14,6.0,17.7,66,102,3.2,13.45,MA-41095,42.6043217,-71.016445
Millis,Massachusetts,8144,677,Boston-Cambridge-Newton,4912030,N/A,N/A,N/A,$707000,2318,$305,N/A,N/A,N/A,N/A,N/A,N/A,N/A,N/A,N/A,Norfolk County,60.30%,32.60%,N/A,N/A,N/A,N/A,N/A,Eastern Standard Time,85,38,47,65,21,57%,57%,39,59,88,58%,66%,54%,49.9,12.15,12.84,37.01%,35.71%,38.44%,55.1,20,7.8,17.7,73,174,3.5,12.03,MA-41515,42.1693167,-71.362559
Millis-Clicquot,Massachusetts,4653,1482,Boston-Cambridge-Newton,4912030,$103636,39.67%,45,$1275000,3400,$375,48,81.08%,$1803,45.81%,N/A,N/A,4.78%,3.03%,69.9%,Norfolk County,60.30%,32.60%,4.47%,1.61%,87.86%,3.09%,10.53%,Eastern Standard Time,85,38,47,65,21,57%,57%,39,59,88,58%,66%,54%,49.9,12.15,12.84,37.01%,35.71%,38.44%,55.1,20,7.8,17.7,73,174,3.5,3.14,MA-41532,42.1648312,-71.3544105
Milton,Massachusetts,28382,2182,Boston-Cambridge-Newton,4912030,$153971,64.95%,39,$966000,1865,$518,77,88.58%,$1276,45.2%,40,222,5.46%,3.56%,69.99%,Norfolk County,60.30%,32.60%,5.08%,16.74%,70.78%,2.93%,15.94%,Eastern Standard Time,83,36,47,65,20,57%,57%,39,59,85,58%,66%,54%,53.97,12.5,14.12,38.68%,37.69%,41.22%,69.8,24,6.0,17.7,63,573,3.5,13.01,MA-41725,42.241268,-71.0843103
Nahant,Massachusetts,3354,3106,Boston-Cambridge-Newton,4912030,$99456,64.98%,58,$760000,1418,$536,N/A,82.86%,$1763,52.97%,341,341,3.99%,3.88%,67.44%,Essex County,57.70%,35.40%,0.98%,1.52%,94.13%,0.36%,6.98%,Eastern Standard Time,83,38,45,67,24,57%,57%,39,59,85,58%,66%,54%,48.0,12.16,11.42,35.42%,33.19%,38.56%,48.2,18,6.0,17.7,72,36,3.2,1.08,MA-43615,42.4145896,-70.9142273
Natick,Massachusetts,35957,2405,Boston-Cambridge-Newton,4912030,N/A,N/A,N/A,$755000,1752,$431,N/A,N/A,N/A,N/A,101,1053,N/A,N/A,N/A,Middlesex County,65.30%,27.60%,N/A,N/A,N/A,N/A,N/A,Eastern Standard Time,85,38,47,65,21,57%,57%,39,59,88,58%,66%,54%,50.63,13.17,12.87,37.21%,35.6%,37.89%,55.1,20,6.0,17.7,68,243,3.5,14.95,MA-43895,42.2847129,-71.3497033
Needham,Massachusetts,31808,2586,Boston-Cambridge-Newton,4912030,$182813,80.98%,43,$1095000,2024,$541,60,90.69%,$1826,32.72%,31,431,2.34%,4.77%,67.24%,Norfolk County,60.30%,32.60%,9.34%,2.28%,81.57%,4.18%,15.22%,Eastern Standard Time,86,38,48,65,21,57%,57%,39,59,90,58%,66%,54%,50.31,12.54,12.51,37.21%,35.6%,37.89%,69.8,24,6.0,17.7,60,198,3.5,12.3,MA-44140,42.281369,-71.2410797
Newbury,Massachusetts,6964,298,Boston-Cambridge-Newton,4912030,N/A,N/A,N/A,$808000,2739,$295,N/A,N/A,N/A,N/A,N/A,N/A,N/A,N/A,N/A,Essex County,57.70%,35.40%,N/A,N/A,N/A,N/A,N/A,Eastern Standard Time,84,36,48,63,19,57%,57%,39,59,86,58%,66%,54%,49.87,12.1,12.57,35.75%,36.81%,35.89%,64.9,24,6.0,17.7,69,18,3.2,23.37,MA-45175,42.7707972,-70.8729508
Newburyport,Massachusetts,18282,2189,Boston-Cambridge-Newton,4912030,$115807,64.43%,46,$625000,1118,$559,N/A,79.56%,$1366,39.3%,126,693,5.8%,6.77%,69.35%,Essex County,57.70%,35.40%,1.48%,0.4%,93.08%,2.48%,7.38%,Eastern Standard Time,84,36,48,63,19,57%,57%,39,59,86,58%,66%,54%,49.87,12.1,12.57,35.75%,36.81%,35.89%,64.9,24,6.0,17.7,63,18,3.2,8.35,MA-45245,42.812392,-70.8874414
Newton,Massachusetts,88647,4972,Boston-Cambridge-Newton,4912030,$164607,80.2%,41,$1700000,3052,$557,79,75.96%,$2066,44.53%,55,575,4.23%,3.3%,65.85%,Middlesex County,65.30%,27.60%,15.06%,2.85%,72.07%,4.06%,21.84%,Eastern Standard Time,86,38,48,65,21,57%,57%,39,59,90,58%,66%,54%,50.22,12.15,12.88,37.21%,35.6%,37.89%,69.8,24,6.0,17.7,59,87,3.5,17.83,MA-45560,42.3316041,-71.2084272
Norfolk,Massachusetts,11671,783,Boston-Cambridge-Newton,4912030,N/A,N/A,N/A,$600000,2007,$299,N/A,N/A,N/A,N/A,8,191,N/A,N/A,N/A,Norfolk County,60.30%,32.60%,N/A,N/A,N/A,N/A,N/A,Eastern Standard Time,85,38,47,65,21,55%,56%,39,59,88,57%,61%,55%,49.9,12.15,12.84,35.73%,36.48%,34.0%,45.9,11,7.8,19.7,73,174,3.5,14.91,MA-46050,42.1163168,-71.3295339
North Andover,Massachusetts,30170,1147,Boston-Cambridge-Newton,4912030,N/A,N/A,N/A,$615000,1847,$333,N/A,N/A,N/A,N/A,54,518,N/A,N/A,N/A,Essex County,57.70%,35.40%,N/A,N/A,N/A,N/A,N/A,Eastern Standard Time,84,36,48,64,21,57%,57%,39,59,86,58%,66%,54%,50.34,12.58,12.51,34.03%,34.51%,33.11%,64.9,24,6.0,17.7,65,189,3.2,26.3,MA-46365,42.6713466,-71.086519
North Lakeville,Massachusetts,3343,662,Boston-Cambridge-Newton,4912030,$77553,34.7%,38,$609000,2199,$277,41,71.81%,$1671,50.11%,N/A,N/A,9.24%,2.72%,69.64%,Plymouth County,50.00%,42.50%,1.35%,5.5%,87.62%,2.21%,4.91%,Eastern Standard Time,83,38,45,63,19,55%,56%,39,59,85,57%,61%,55%,53.57,12.27,13.76,37.86%,36.15%,39.78%,47.5,14,7.8,19.7,75,42,3.3,5.05,MA-48220,41.8620074,-70.9410811
North Pembroke,Massachusetts,4133,925,Boston-Cambridge-Newton,4912030,$146042,42.5%,48,$380000,2734,$139,42,81.63%,$2220,38.33%,N/A,N/A,5.18%,2.41%,63.17%,Plymouth County,50.00%,42.50%,0.0%,0.36%,91.58%,2.15%,3.51%,Eastern Standard Time,85,39,46,65,23,57%,57%,39,59,88,58%,66%,54%,53.8,11.79,14.09,37.97%,35.71%,41.11%,50.6,21,6.0,17.7,81,66,3.3,4.47,MA-48710,42.0988995,-70.7822765
North Plymouth,Massachusetts,4246,3397,Boston-Cambridge-Newton,4912030,$55396,28.14%,43,$409000,893,$458,N/A,45.07%,$1532,59.51%,N/A,N/A,16.08%,12.49%,74.23%,Plymouth County,50.00%,42.50%,0.0%,2.94%,86.34%,2.43%,18.16%,Eastern Standard Time,83,39,44,63,21,57%,57%,39,59,85,58%,66%,54%,48.28,11.32,11.44,39.32%,39.56%,37.67%,47.5,14,6.0,17.7,74,135,3.3,1.25,MA-48780,41.979285,-70.677709
North Reading,Massachusetts,15598,1187,Boston-Cambridge-Newton,4912030,N/A,N/A,N/A,$698000,1698,$411,N/A,N/A,N/A,N/A,101,382,N/A,N/A,N/A,Middlesex County,65.30%,27.60%,N/A,N/A,N/A,N/A,N/A,Eastern Standard Time,82,36,46,62,17,57%,57%,39,59,84,58%,66%,54%,47.85,12.63,11.78,35.29%,35.71%,35.33%,47.3,14,6.0,17.7,70,78,3.5,13.14,MA-48955,42.5815579,-71.0875714
North Scituate,Massachusetts,5519,1472,Boston-Cambridge-Newton,4912030,$144926,74.56%,47,$860000,2299,$374,60,98.11%,$1115,43.99%,N/A,N/A,2.93%,6.25%,65.46%,Plymouth County,50.00%,42.50%,5.92%,0.0%,93.33%,0.0%,5.94%,Eastern Standard Time,85,39,46,65,23,57%,57%,39,59,88,58%,66%,54%,50.34,11.54,13.13,37.97%,35.71%,41.11%,50.6,21,6.0,17.7,79,33,3.3,3.75,MA-49165,42.2121284,-70.7651236
Norwell,Massachusetts,10897,521,Boston-Cambridge-Newton,4912030,N/A,N/A,N/A,$1156000,3211,$360,N/A,N/A,N/A,N/A,99,459,N/A,N/A,N/A,Plymouth County,50.00%,42.50%,N/A,N/A,N/A,N/A,N/A,Eastern Standard Time,85,39,46,65,23,57%,57%,39,59,88,58%,66%,54%,50.34,11.54,13.13,37.97%,35.71%,41.11%,50.6,21,6.0,17.7,80,33,3.3,20.92,MA-50145,42.160753,-70.8176987
Norwood,Massachusetts,31256,3011,Boston-Cambridge-Newton,4912030,$96414,52.17%,39,$623000,1542,$404,59,60.03%,$1730,48.12%,161,736,7.52%,3.35%,72.54%,Norfolk County,60.30%,32.60%,5.17%,7.89%,76.45%,7.23%,19.53%,Eastern Standard Time,87,40,47,64,22,57%,57%,39,59,92,58%,66%,54%,43.45,11.27,10.18,36.22%,38.35%,34.56%,55.1,20,6.0,17.7,65,45,3.5,10.38,MA-50285,42.1860475,-71.1948205
Ocean Bluff-Brant Rock,Massachusetts,4503,2075,Boston-Cambridge-Newton,4912030,$81557,37.13%,54,$742000,1686,$440,65,91.26%,$1154,50.71%,N/A,N/A,9.54%,7.03%,68.43%,Plymouth County,50.00%,42.50%,0.0%,1.0%,97.8%,0.42%,1.87%,Eastern Standard Time,83,39,44,63,21,57%,57%,39,59,85,58%,66%,54%,53.8,11.79,14.09,39.32%,39.56%,37.67%,50.6,21,6.0,17.7,83,66,3.3,2.17,MA-50862,42.102354,-70.6573763
Onset,Massachusetts,1138,1054,Boston-Cambridge-Newton,4912030,N/A,26.1%,54,$337000,1127,$299,N/A,68.43%,$1398,68.11%,N/A,N/A,22.14%,22.09%,62.81%,Plymouth County,50.00%,42.50%,0.0%,10.46%,60.11%,0.0%,2.02%,Eastern Standard Time,82,39,43,65,23,55%,56%,39,59,84,57%,61%,55%,52.31,11.12,13.31,34.16%,30.99%,36.44%,33.7,12,7.8,19.7,83,27,3.3,1.08,MA-51160,41.7481264,-70.66699
Peabody,Massachusetts,54200,3337,Boston-Cambridge-Newton,4912030,$83570,34.88%,47,$555000,1642,$338,55,69.94%,$1620,48.26%,231,819,8.05%,4.38%,64.37%,Essex County,57.70%,35.40%,1.34%,3.4%,81.03%,11.47%,16.15%,Eastern Standard Time,83,37,46,63,21,57%,57%,39,59,85,58%,66%,54%,50.18,11.99,13.14,36.77%,35.93%,36.67%,47.3,14,6.0,17.7,62,42,3.2,16.24,MA-52490,42.5335293,-70.9724663
Pembroke,Massachusetts,18230,837,Boston-Cambridge-Newton,4912030,N/A,N/A,N/A,$598000,1829,$327,N/A,N/A,N/A,N/A,70,435,N/A,N/A,N/A,Plymouth County,50.00%,42.50%,N/A,N/A,N/A,N/A,N/A,Eastern Standard Time,85,39,46,65,21,57%,57%,39,59,88,58%,66%,54%,53.8,11.79,14.09,36.33%,34.62%,37.56%,38.9,6,6.0,17.7,80,66,3.3,21.78,MA-52630,42.065488,-70.8014201
Pepperell,Massachusetts,2288,1105,Boston-Cambridge-Newton,4912030,$83850,25.07%,47,$510000,1809,$282,51,62.53%,$686,57.35%,123,477,19.61%,7.84%,60.58%,Middlesex County,65.30%,27.60%,2.23%,2.49%,86.32%,5.33%,4.06%,Eastern Standard Time,86,36,50,62,15,57%,57%,35,56,90,58%,66%,54%,47.13,12.53,11.21,35.23%,36.92%,33.89%,58.4,20,6.0,22.8,75,165,3.5,2.07,MA-52770,42.6694127,-71.5903878
Pinehurst,Massachusetts,6653,1784,Boston-Cambridge-Newton,4912030,$126985,33.64%,44,$815000,2251,$362,51,92.3%,$1657,39.56%,N/A,N/A,2.37%,4.25%,70.26%,Middlesex County,65.30%,27.60%,8.34%,6.67%,80.67%,1.53%,13.74%,Eastern Standard Time,86,38,48,63,19,57%,57%,39,59,90,58%,66%,54%,49.24,12.19,12.2,37.59%,40.88%,34.33%,65.4,23,6.0,17.7,71,108,3.5,3.73,MA-53680,42.5333557,-71.2339554
Plainville,Massachusetts,9000,818,Boston-Cambridge-Newton,4912030,N/A,N/A,N/A,$497000,2161,$230,N/A,N/A,N/A,N/A,64,517,N/A,N/A,N/A,Norfolk County,60.30%,32.60%,N/A,N/A,N/A,N/A,N/A,Eastern Standard Time,85,39,46,65,20,55%,56%,39,59,88,57%,61%,55%,51.05,12.67,12.87,35.73%,36.48%,34.0%,45.9,11,7.8,19.7,71,228,3.5,11.0,MA-54100,42.0140999,-71.3364388
Plymouth,Massachusetts,7198,3213,Boston-Cambridge-Newton,4912030,$68552,37.2%,49,$588000,1704,$345,N/A,64.32%,$1457,56.41%,326,975,8.96%,6.22%,69.87%,Plymouth County,50.00%,42.50%,0.92%,1.58%,89.46%,2.76%,8.24%,Eastern Standard Time,83,39,44,63,21,57%,57%,39,59,85,58%,66%,54%,48.28,11.32,11.44,39.32%,39.56%,37.67%,33.7,12,6.0,17.7,82,135,3.3,2.24,MA-54275,41.9578757,-70.663581
Plympton,Massachusetts,2912,198,Boston-Cambridge-Newton,4912030,N/A,N/A,N/A,$550000,2350,$234,N/A,N/A,N/A,N/A,134,503,N/A,N/A,N/A,Plymouth County,50.00%,42.50%,N/A,N/A,N/A,N/A,N/A,Eastern Standard Time,83,39,44,63,21,57%,57%,39,59,85,58%,66%,54%,53.8,11.79,14.09,39.32%,39.56%,37.67%,47.5,14,6.0,17.7,82,66,3.3,14.71,MA-54415,41.9634563,-70.8097314
Quincy,Massachusetts,100544,6068,Boston-Cambridge-Newton,4912030,$85041,45.64%,38,$665000,1412,$471,62,52.3%,$1749,53.16%,398,1217,10.76%,6.93%,70.89%,Norfolk County,60.30%,32.60%,29.94%,6.14%,56.66%,4.62%,33.05%,Eastern Standard Time,85,39,46,65,23,57%,57%,39,59,88,58%,66%,54%,52.6,11.6,13.92,37.97%,35.71%,41.11%,50.6,21,6.0,17.7,63,33,3.5,16.57,MA-55745,42.262159,-71.0072208
Randolph,Massachusetts,33704,3429,Boston-Cambridge-Newton,4912030,N/A,N/A,N/A,$523000,1732,$302,N/A,N/A,N/A,N/A,238,1189,N/A,N/A,N/A,Norfolk County,60.30%,32.60%,N/A,N/A,N/A,N/A,N/A,Eastern Standard Time,83,36,47,65,20,57%,57%,39,59,85,58%,66%,54%,53.97,12.5,14.12,38.68%,37.69%,41.22%,69.8,24,6.0,17.7,70,573,3.5,9.83,MA-55990,42.177847,-71.0539613
Reading,Massachusetts,25483,2553,Boston-Cambridge-Newton,4912030,$145552,65.4%,43,$771000,1952,$395,62,89.26%,$1619,36.55%,11,458,2.97%,2.9%,70.98%,Middlesex County,65.30%,27.60%,6.51%,0.71%,87.34%,3.56%,9.07%,Eastern Standard Time,85,39,46,64,20,57%,57%,39,59,88,58%,66%,54%,50.32,12.72,12.84,37.29%,35.6%,39.11%,65.4,23,6.0,17.7,65,102,3.5,9.98,MA-56165,42.5350552,-71.1055739
Revere,Massachusetts,60720,10653,Boston-Cambridge-Newton,4912030,$73041,24.53%,39,$685000,2095,$327,61,55.06%,$1626,53.7%,322,1217,12.98%,7.17%,69.44%,Suffolk County,78.40%,16.10%,5.15%,4.04%,50.48%,36.71%,40.99%,Eastern Standard Time,83,38,45,67,24,57%,57%,39,59,85,58%,66%,54%,51.04,12.68,13.71,35.42%,33.19%,38.56%,48.2,18,6.0,17.7,49,96,3.4,5.7,MA-56585,42.4187096,-70.9914535
Rochester,Massachusetts,5462,163,Boston-Cambridge-Newton,4912030,N/A,N/A,N/A,$605000,1971,$307,N/A,N/A,N/A,N/A,N/A,N/A,N/A,N/A,N/A,Plymouth County,50.00%,42.50%,N/A,N/A,N/A,N/A,N/A,Eastern Standard Time,83,39,44,64,21,55%,56%,39,59,85,57%,61%,55%,54.95,12.57,14.26,33.37%,30.11%,35.0%,32.9,7,7.8,19.7,84,60,3.3,33.51,MA-57600,41.7599814,-70.8384778
Rockland,Massachusetts,17849,1780,Boston-Cambridge-Newton,4912030,N/A,N/A,N/A,$455000,1477,$308,N/A,N/A,N/A,N/A,296,329,N/A,N/A,N/A,Plymouth County,50.00%,42.50%,N/A,N/A,N/A,N/A,N/A,Eastern Standard Time,85,39,46,65,23,57%,57%,39,59,88,58%,66%,54%,52.6,11.6,13.92,37.97%,35.71%,41.11%,50.6,21,6.0,17.7,72,33,3.3,10.03,MA-57775,42.1294949,-70.9100229
Rockport,Massachusetts,4889,1228,Boston-Cambridge-Newton,4912030,$84500,59.02%,59,$510000,1532,$333,76,74.1%,$1618,45.33%,96,219,5.69%,6.98%,57.1%,Essex County,57.70%,35.40%,0.08%,0.08%,95.52%,2.15%,3.17%,Eastern Standard Time,81,37,44,62,19,57%,57%,39,59,83,58%,66%,54%,48.72,12.25,11.9,36.77%,35.93%,36.67%,47.3,14,6.0,17.7,80,60,3.2,3.98,MA-57845,42.6451019,-70.6158197
Rowley,Massachusetts,1509,882,Boston-Cambridge-Newton,4912030,$95808,59.74%,57,N/A,N/A,N/A,N/A,90.02%,$853,44.22%,94,408,1.19%,1.18%,76.05%,Essex County,57.70%,35.40%,1.79%,0.0%,98.21%,0.0%,0.86%,Eastern Standard Time,84,36,48,63,19,57%,57%,39,59,86,58%,66%,54%,49.87,12.1,12.57,35.75%,36.81%,35.89%,64.9,24,6.0,17.7,67,18,3.2,1.71,MA-58370,42.7186322,-70.8749746
Salem,Massachusetts,44452,5362,Boston-Cambridge-Newton,4912030,$72884,48.51%,38,$560000,1569,$357,N/A,52.93%,$1493,58.52%,248,1673,14.87%,4.98%,70.11%,Essex County,57.70%,35.40%,3.05%,5.25%,72.05%,17.69%,13.97%,Eastern Standard Time,81,38,43,62,19,57%,57%,39,59,83,58%,66%,54%,48.0,12.16,11.42,32.14%,31.32%,31.11%,47.3,14,6.0,17.7,64,36,3.2,8.29,MA-59105,42.5138568,-70.8983295
Salisbury,Massachusetts,5081,864,Boston-Cambridge-Newton,4912030,$88350,50.97%,49,$530000,1489,$356,39,80.24%,$1695,49.57%,177,772,4.98%,3.8%,65.55%,Essex County,57.70%,35.40%,2.42%,1.14%,86.99%,7.52%,4.78%,Eastern Standard Time,84,36,48,63,19,57%,57%,39,59,86,58%,66%,54%,49.87,12.1,12.57,35.75%,36.81%,35.89%,60.2,18,6.0,17.7,67,18,3.2,5.88,MA-59210,42.83443,-70.839241
Saugus,Massachusetts,28521,2646,Boston-Cambridge-Newton,4912030,$93737,31.7%,44,$644000,1578,$408,61,81.79%,$1140,47.91%,253,1268,7.77%,3.52%,66.69%,Essex County,57.70%,35.40%,4.84%,3.48%,81.68%,6.94%,15.05%,Eastern Standard Time,85,39,46,64,20,57%,57%,39,59,88,58%,66%,54%,51.04,12.68,13.71,37.29%,35.6%,39.11%,65.4,23,6.0,17.7,62,96,3.2,10.78,MA-60050,42.4680573,-71.0144347
Scituate,Massachusetts,5670,1397,Boston-Cambridge-Newton,4912030,$110477,48.7%,52,$800000,1594,$502,58,86.89%,$875,45.63%,74,330,3.76%,1.53%,60.39%,Plymouth County,50.00%,42.50%,0.0%,0.0%,84.3%,2.33%,11.02%,Eastern Standard Time,85,39,46,65,23,57%,57%,39,59,88,58%,66%,54%,50.34,11.54,13.13,37.97%,35.71%,41.11%,50.6,21,6.0,17.7,80,33,3.3,4.06,MA-60295,42.1864188,-70.7341099
Sharon,Massachusetts,6132,2051,Boston-Cambridge-Newton,4912030,$157255,78.81%,39,$863000,2655,$325,67,93.05%,$1858,32.11%,47,247,2.12%,3.57%,71.73%,Norfolk County,60.30%,32.60%,10.14%,0.24%,79.63%,4.0%,17.94%,Eastern Standard Time,85,38,47,65,21,57%,57%,39,59,88,58%,66%,54%,50.8,12.51,12.74,37.01%,35.71%,38.44%,55.1,20,6.0,17.7,73,156,3.5,2.99,MA-60820,42.117398,-71.1835121
Sherborn,Massachusetts,4302,272,Boston-Cambridge-Newton,4912030,N/A,N/A,N/A,$912000,2555,$357,N/A,N/A,N/A,N/A,N/A,N/A,N/A,N/A,N/A,Middlesex County,65.30%,27.60%,N/A,N/A,N/A,N/A,N/A,Eastern Standard Time,85,38,47,65,21,57%,57%,39,59,88,58%,66%,54%,50.63,13.17,12.87,37.01%,35.71%,38.44%,55.1,20,6.0,17.7,74,243,3.5,15.82,MA-61380,42.2341714,-71.375322
Shirley,Massachusetts,1707,1293,Boston-Cambridge-Newton,4912030,$78783,29.13%,53,N/A,N/A,N/A,N/A,64.8%,$831,42.66%,248,550,5.51%,5.71%,72.43%,Middlesex County,65.30%,27.60%,0.0%,3.63%,93.26%,6.74%,10.13%,Eastern Standard Time,84,36,48,63,17,57%,57%,35,56,87,58%,66%,54%,44.12,12.11,9.57,36.99%,39.12%,34.67%,70.0,30,6.0,22.8,76,318,3.5,1.32,MA-61555,42.5398005,-71.6585555
Somerville,Massachusetts,80608,19565,Boston-Cambridge-Newton,4912030,$108896,65.9%,32,$1050000,1522,$690,N/A,35.11%,$2152,66.58%,203,1255,10.42%,3.11%,79.41%,Middlesex County,65.30%,27.60%,9.35%,4.95%,68.84%,12.25%,24.23%,Eastern Standard Time,83,38,45,67,24,57%,57%,39,59,85,58%,66%,54%,50.0,12.5,12.79,35.42%,33.19%,38.56%,48.2,18,6.0,17.7,46,45,3.5,4.12,MA-62535,42.3907393,-71.1013518
South Duxbury,Massachusetts,3381,1150,Boston-Cambridge-Newton,4912030,$174601,80.49%,48,$915000,2153,$425,58,95.22%,$1778,32.39%,N/A,N/A,2.04%,3.06%,65.97%,Plymouth County,50.00%,42.50%,1.72%,0.03%,95.59%,0.53%,4.47%,Eastern Standard Time,83,39,44,63,21,57%,57%,39,59,85,58%,66%,54%,53.8,11.79,14.09,39.32%,39.56%,37.67%,47.5,14,6.0,17.7,83,66,3.3,2.94,MA-63690,42.0167563,-70.6891633
Stoneham,Massachusetts,23077,3833,Boston-Cambridge-Newton,4912030,$105541,48.07%,43,$618000,1475,$419,59,72.84%,$1661,44.46%,145,769,5.48%,4.2%,71.69%,Middlesex County,65.30%,27.60%,5.78%,2.33%,84.54%,4.44%,13.55%,Eastern Standard Time,85,39,46,64,20,57%,57%,39,59,88,58%,66%,54%,49.58,12.42,12.56,37.29%,35.6%,39.11%,65.4,23,6.0,17.7,64,42,3.5,6.02,MA-67700,42.4740894,-71.0971622
Stoughton,Massachusetts,28338,1761,Boston-Cambridge-Newton,4912030,N/A,N/A,N/A,$498000,1617,$308,N/A,N/A,N/A,N/A,200,987,N/A,N/A,N/A,Norfolk County,60.30%,32.60%,N/A,N/A,N/A,N/A,N/A,Eastern Standard Time,87,40,47,64,22,57%,57%,39,59,92,58%,66%,54%,43.45,11.27,10.18,36.22%,38.35%,34.56%,69.8,24,6.0,17.7,71,45,3.5,16.09,MA-67945,42.1192185,-71.1019009
Stow,Massachusetts,7061,408,Boston-Cambridge-Newton,4912030,N/A,N/A,N/A,$1310000,5282,$248,N/A,N/A,N/A,N/A,55,165,N/A,N/A,N/A,Middlesex County,65.30%,27.60%,N/A,N/A,N/A,N/A,N/A,Eastern Standard Time,86,38,48,63,19,57%,57%,35,56,90,58%,66%,54%,49.77,12.97,12.33,37.59%,40.88%,34.33%,47.6,14,6.0,22.8,75,192,3.5,17.31,MA-68050,42.4298311,-71.5114795
Sudbury,Massachusetts,18697,770,Boston-Cambridge-Newton,4912030,N/A,N/A,N/A,$902000,2307,$391,N/A,N/A,N/A,N/A,76,339,N/A,N/A,N/A,Middlesex County,65.30%,27.60%,N/A,N/A,N/A,N/A,N/A,Eastern Standard Time,86,38,48,63,19,57%,57%,39,59,90,58%,66%,54%,49.57,12.58,12.3,37.59%,40.88%,34.33%,47.6,14,6.0,17.7,74,192,3.5,24.28,MA-68260,42.3847031,-71.4233748
Swampscott,Massachusetts,15043,4981,Boston-Cambridge-Newton,4912030,$114086,62.23%,45,$868000,2107,$412,71,76.37%,$2056,38.47%,52,738,5.01%,5.96%,69.44%,Essex County,57.70%,35.40%,2.56%,1.21%,88.78%,5.63%,19.09%,Eastern Standard Time,81,38,43,62,19,57%,57%,39,59,83,58%,66%,54%,48.0,12.16,11.42,32.14%,31.32%,31.11%,48.2,18,6.0,17.7,65,36,3.2,3.02,MA-68680,42.4679873,-70.8923851
Tewksbury,Massachusetts,30666,1481,Boston-Cambridge-Newton,4912030,N/A,N/A,N/A,$580000,1662,$349,N/A,N/A,N/A,N/A,257,1097,N/A,N/A,N/A,Middlesex County,65.30%,27.60%,N/A,N/A,N/A,N/A,N/A,Eastern Standard Time,84,36,48,66,21,57%,57%,39,59,86,58%,66%,54%,49.24,12.19,12.2,36.85%,37.47%,35.78%,65.4,23,6.0,17.7,71,108,3.5,20.71,MA-69415,42.61204,-71.2278353
The Pinehills,Massachusetts,4724,1158,Boston-Cambridge-Newton,4912030,$110375,61.2%,68,$868000,2290,$379,11,92.01%,$2305,33.29%,N/A,N/A,3.85%,0.69%,38.16%,Plymouth County,50.00%,42.50%,0.0%,0.0%,99.53%,0.0%,3.37%,Eastern Standard Time,83,39,44,63,21,57%,57%,39,59,85,58%,66%,54%,51.09,11.09,13.06,39.32%,39.56%,37.67%,33.7,12,6.0,17.7,86,54,3.3,4.08,MA-69585,41.8945768,-70.5966013
Topsfield,Massachusetts,2654,979,Boston-Cambridge-Newton,4912030,$143380,72.6%,41,$850000,2381,$357,53,88.9%,$789,43.98%,75,150,10.47%,6.41%,64.65%,Essex County,57.70%,35.40%,3.39%,1.66%,86.32%,3.24%,5.61%,Eastern Standard Time,83,37,46,63,21,57%,57%,39,59,85,58%,66%,54%,48.48,12.2,12.0,36.77%,35.93%,36.67%,47.3,14,6.0,17.7,66,45,3.2,2.71,MA-70115,42.6393136,-70.9551366
Townsend,Massachusetts,1084,641,Boston-Cambridge-Newton,4912030,$68259,30.56%,41,$606000,2013,$301,61,74.19%,$922,59.48%,104,335,9.59%,2.43%,68.36%,Middlesex County,65.30%,27.60%,5.9%,7.1%,73.99%,6.55%,8.21%,Eastern Standard Time,82,34,48,62,16,57%,57%,35,56,84,55%,62%,53%,49.81,13.22,11.97,36.99%,39.12%,34.67%,70.0,30,6.0,22.8,80,609,3.5,1.69,MA-70325,42.6716797,-71.7040545
Tyngsborough,Massachusetts,12232,729,Boston-Cambridge-Newton,4912030,N/A,N/A,N/A,$600000,2128,$282,N/A,N/A,N/A,N/A,N/A,N/A,N/A,N/A,N/A,Middlesex County,65.30%,27.60%,N/A,N/A,N/A,N/A,N/A,Eastern Standard Time,85,35,50,62,17,57%,57%,39,59,88,58%,66%,54%,51.55,13.69,12.27,36.85%,37.47%,35.78%,69.7,29,6.0,17.7,71,102,3.5,16.78,MA-71025,42.6661917,-71.4290285
Wakefield,Massachusetts,27041,3659,Boston-Cambridge-Newton,4912030,$110372,54.4%,44,$677000,1727,$392,63,79.43%,$1643,43.41%,136,603,5.08%,3.36%,69.52%,Middlesex County,65.30%,27.60%,3.83%,1.17%,89.67%,2.69%,9.49%,Eastern Standard Time,85,39,46,64,20,57%,57%,39,59,88,58%,66%,54%,50.32,12.72,12.84,37.29%,35.6%,39.11%,65.4,23,6.0,17.7,62,102,3.5,7.39,MA-72250,42.5035042,-71.0655908
Walpole,Massachusetts,6188,2202,Boston-Cambridge-Newton,4912030,$97344,52.82%,45,$654000,1611,$406,54,79.1%,$1551,48.9%,194,1021,5.92%,3.22%,68.4%,Norfolk County,60.30%,32.60%,4.62%,2.0%,89.17%,3.68%,11.89%,Eastern Standard Time,85,38,47,65,21,57%,57%,39,59,88,58%,66%,54%,50.8,12.51,12.74,37.01%,35.71%,38.44%,55.1,20,6.0,17.7,70,156,3.5,2.81,MA-72460,42.1370827,-71.2438199
Waltham,Massachusetts,64655,5075,Boston-Cambridge-Newton,4912030,$103498,55.54%,34,$651000,1470,$443,61,52.53%,$1950,61.76%,162,816,8.84%,3.48%,69.13%,Middlesex County,65.30%,27.60%,12.16%,6.75%,63.79%,14.54%,24.86%,Eastern Standard Time,86,38,48,63,19,57%,57%,39,59,90,58%,66%,54%,50.0,12.5,12.79,37.59%,40.88%,34.33%,65.4,23,6.0,17.7,61,45,3.5,12.74,MA-72600,42.3889141,-71.2423132
Wareham,Massachusetts,22535,628,Boston-Cambridge-Newton,4912030,N/A,N/A,N/A,$415000,1374,$302,N/A,N/A,N/A,N/A,712,1425,N/A,N/A,N/A,Plymouth County,50.00%,42.50%,N/A,N/A,N/A,N/A,N/A,Eastern Standard Time,82,39,43,65,23,55%,56%,39,59,84,57%,61%,55%,52.31,11.12,13.31,34.16%,30.99%,36.44%,33.7,12,7.8,19.7,82,27,3.3,35.88,MA-72985,41.760446,-70.6985424
Watertown Town,Massachusetts,35171,8793,Boston-Cambridge-Newton,4912030,$101402,65.72%,39,$730000,1493,$489,75,53.56%,$2000,50.01%,80,881,7.24%,6.2%,73.77%,Middlesex County,65.30%,27.60%,11.94%,3.71%,72.55%,7.41%,24.69%,Eastern Standard Time,86,38,48,65,21,57%,57%,39,59,90,58%,66%,54%,50.0,12.5,12.79,35.42%,33.19%,38.56%,48.2,18,6.0,17.7,56,45,3.5,4.0,MA-73440,42.3699733,-71.1774323
Wayland,Massachusetts,13700,911,Boston-Cambridge-Newton,4912030,N/A,N/A,N/A,$1108000,3061,$362,N/A,N/A,N/A,N/A,0,7,N/A,N/A,N/A,Middlesex County,65.30%,27.60%,N/A,N/A,N/A,N/A,N/A,Eastern Standard Time,86,38,48,63,19,57%,57%,39,59,90,58%,66%,54%,49.57,12.58,12.3,37.59%,40.88%,34.33%,55.1,20,6.0,17.7,69,192,3.5,15.04,MA-73790,42.3585413,-71.3593699
Wellesley,Massachusetts,29365,2931,Boston-Cambridge-Newton,4912030,$226250,84.91%,35,$1949000,3128,$623,65,86.08%,$2329,45.84%,23,404,4.87%,5.17%,57.97%,Norfolk County,60.30%,32.60%,13.19%,2.89%,74.67%,4.93%,17.52%,Eastern Standard Time,86,38,48,65,21,57%,57%,39,59,90,58%,66%,54%,50.31,12.54,12.51,37.21%,35.6%,37.89%,55.1,20,6.0,17.7,65,198,3.5,10.02,MA-74210,42.3043039,-71.2854442
Wenham,Massachusetts,5179,676,Boston-Cambridge-Newton,4912030,N/A,N/A,N/A,$790000,2616,$302,N/A,N/A,N/A,N/A,0,151,N/A,N/A,N/A,Essex County,57.70%,35.40%,N/A,N/A,N/A,N/A,N/A,Eastern Standard Time,83,37,46,63,21,57%,57%,39,59,85,58%,66%,54%,46.91,11.9,11.35,36.77%,35.93%,36.67%,47.3,14,6.0,17.7,69,42,3.2,7.66,MA-74595,42.6007973,-70.88264
West Bridgewater,Massachusetts,7117,465,Boston-Cambridge-Newton,4912030,N/A,N/A,N/A,$707000,2357,$300,N/A,N/A,N/A,N/A,124,979,N/A,N/A,N/A,Plymouth County,50.00%,42.50%,N/A,N/A,N/A,N/A,N/A,Eastern Standard Time,85,39,46,65,21,57%,57%,39,59,88,58%,66%,54%,49.06,10.66,12.35,36.33%,34.62%,37.56%,38.9,6,7.8,17.7,77,69,3.3,15.31,MA-75260,42.0213916,-71.0266869
West Concord,Massachusetts,7003,2072,Boston-Cambridge-Newton,4912030,$148350,61.23%,42,$903000,1885,$479,47,58.29%,$2259,54.58%,N/A,N/A,4.89%,5.46%,48.93%,Middlesex County,65.30%,27.60%,4.43%,9.47%,70.06%,11.99%,14.62%,Eastern Standard Time,86,38,48,63,19,57%,57%,39,59,90,58%,66%,54%,49.57,12.58,12.3,37.59%,40.88%,34.33%,65.4,23,6.0,17.7,71,192,3.5,3.38,MA-75680,42.4517618,-71.4035411
West Newbury,Massachusetts,4545,338,Boston-Cambridge-Newton,4912030,N/A,N/A,N/A,$765000,2186,$350,N/A,N/A,N/A,N/A,N/A,N/A,N/A,N/A,N/A,Essex County,57.70%,35.40%,N/A,N/A,N/A,N/A,N/A,Eastern Standard Time,84,36,48,63,19,57%,57%,39,59,86,58%,66%,54%,49.87,12.1,12.57,35.75%,36.81%,35.89%,64.9,24,6.0,17.7,70,18,3.2,13.45,MA-77150,42.7939122,-70.9690947
West Wareham,Massachusetts,2313,618,Boston-Cambridge-Newton,4912030,$50425,11.43%,59,$205000,702,$292,37,89.37%,$1274,62.26%,N/A,N/A,3.93%,2.53%,56.77%,Plymouth County,50.00%,42.50%,0.35%,4.06%,79.51%,0.86%,1.64%,Eastern Standard Time,82,39,43,65,23,55%,56%,39,59,84,57%,61%,55%,52.31,11.12,13.31,34.16%,30.99%,36.44%,33.7,12,7.8,19.7,79,27,3.3,3.74,MA-78410,41.7899975,-70.7549885
Westford,Massachusetts,24087,796,Boston-Cambridge-Newton,4912030,N/A,N/A,N/A,$679000,2263,$300,N/A,N/A,N/A,N/A,40,221,N/A,N/A,N/A,Middlesex County,65.30%,27.60%,N/A,N/A,N/A,N/A,N/A,Eastern Standard Time,85,35,50,62,17,57%,57%,39,59,88,58%,66%,54%,51.55,13.69,12.27,36.85%,37.47%,35.78%,69.7,29,6.0,17.7,71,102,3.5,30.26,MA-76135,42.5864179,-71.4400641
Weston,Massachusetts,12027,715,Boston-Cambridge-Newton,4912030,N/A,N/A,N/A,$2218000,4233,$524,N/A,N/A,N/A,N/A,74,230,N/A,N/A,N/A,Middlesex County,65.30%,27.60%,N/A,N/A,N/A,N/A,N/A,Eastern Standard Time,86,38,48,63,19,57%,57%,39,59,90,58%,66%,54%,42.61,11.36,9.37,37.59%,40.88%,34.33%,69.8,24,6.0,17.7,71,123,3.5,16.82,MA-77255,42.3589289,-71.3000811
Westwood,Massachusetts,15597,1434,Boston-Cambridge-Newton,4912030,N/A,N/A,N/A,$1210000,2454,$493,N/A,N/A,N/A,N/A,61,1024,N/A,N/A,N/A,Norfolk County,60.30%,32.60%,N/A,N/A,N/A,N/A,N/A,Eastern Standard Time,87,40,47,64,22,57%,57%,39,59,92,58%,66%,54%,50.31,12.54,12.51,37.21%,35.6%,37.89%,55.1,20,6.0,17.7,62,198,3.5,10.88,MA-78690,42.2202588,-71.2106395
Weweantic,Massachusetts,1374,1082,Boston-Cambridge-Newton,4912030,$75746,34.07%,45,$380000,1667,$228,39,94.17%,$438,39.58%,N/A,N/A,1.02%,13.93%,61.32%,Plymouth County,50.00%,42.50%,0.0%,2.55%,92.07%,0.0%,1.97%,Eastern Standard Time,82,39,43,65,23,55%,56%,39,59,84,57%,61%,55%,52.31,11.12,13.31,34.16%,30.99%,36.44%,33.7,12,7.8,19.7,79,27,3.3,1.27,MA-78850,41.7323422,-70.732257
Weymouth Town,Massachusetts,55890,3333,Boston-Cambridge-Newton,4912030,N/A,N/A,N/A,$575000,1490,$386,N/A,N/A,N/A,N/A,294,799,N/A,N/A,N/A,Norfolk County,60.30%,32.60%,N/A,N/A,N/A,N/A,N/A,Eastern Standard Time,85,39,46,65,23,57%,57%,39,59,88,58%,66%,54%,52.6,11.6,13.92,37.97%,35.71%,41.11%,50.6,21,6.0,17.7,71,33,3.5,16.77,MA-78900,42.2068172,-70.944337
White Island Shores,Massachusetts,2522,2174,Boston-Cambridge-Newton,4912030,$97171,9.26%,40,$489000,1918,$255,48,80.82%,$1318,56.69%,N/A,N/A,13.44%,7.67%,66.98%,Plymouth County,50.00%,42.50%,1.74%,0.0%,81.09%,7.57%,0.59%,Eastern Standard Time,82,39,43,65,23,55%,56%,39,59,84,57%,61%,55%,52.31,11.12,13.31,34.16%,30.99%,36.44%,33.7,12,7.8,19.7,85,27,3.3,1.16,MA-79390,41.7932106,-70.6389381
Whitman,Massachusetts,14864,2142,Boston-Cambridge-Newton,4912030,N/A,N/A,N/A,$447000,1515,$295,N/A,N/A,N/A,N/A,218,687,N/A,N/A,N/A,Plymouth County,50.00%,42.50%,N/A,N/A,N/A,N/A,N/A,Eastern Standard Time,85,39,46,65,21,57%,57%,39,59,88,58%,66%,54%,49.06,10.66,12.35,36.33%,34.62%,37.56%,38.9,6,6.0,17.7,73,69,3.3,6.94,MA-79530,42.079995,-70.9399189
Wilmington,Massachusetts,23311,1374,Boston-Cambridge-Newton,4912030,$146250,49.89%,41,$679000,1768,$384,44,89.81%,$2186,40.92%,133,643,2.22%,4.84%,72.89%,Middlesex County,65.30%,27.60%,5.34%,2.13%,86.89%,1.34%,8.03%,Eastern Standard Time,85,39,46,64,20,57%,57%,39,59,88,58%,66%,54%,47.85,12.63,11.78,37.29%,35.6%,39.11%,65.4,23,6.0,17.7,67,78,3.5,16.97,MA-80195,42.5609155,-71.1654058
Winchester,Massachusetts,22875,3794,Boston-Cambridge-Newton,4912030,$184844,75.47%,42,$1126000,2157,$522,67,87.49%,$2063,37.76%,30,385,2.9%,3.55%,65.81%,Middlesex County,65.30%,27.60%,15.19%,1.78%,75.39%,2.12%,19.66%,Eastern Standard Time,85,39,46,64,20,57%,57%,39,59,88,58%,66%,54%,49.58,12.42,12.56,37.29%,35.6%,39.11%,65.4,23,6.0,17.7,65,42,3.5,6.03,MA-80545,42.4517894,-71.146306
Winthrop Town,Massachusetts,18391,9242,Boston-Cambridge-Newton,4912030,N/A,N/A,N/A,$525000,1210,$434,N/A,N/A,N/A,N/A,197,690,N/A,N/A,N/A,Suffolk County,78.40%,16.10%,N/A,N/A,N/A,N/A,N/A,Eastern Standard Time,83,38,45,67,24,57%,57%,39,59,85,58%,66%,54%,44.52,11.48,11.36,35.42%,33.19%,38.56%,48.2,18,6.0,17.7,47,12,3.4,1.99,MA-80965,42.3794297,-70.965676
Woburn,Massachusetts,40967,3238,Boston-Cambridge-Newton,4912030,$95184,46.37%,40,$619000,1638,$378,53,60.72%,$1843,50.58%,173,1028,6.44%,7.11%,71.81%,Middlesex County,65.30%,27.60%,9.55%,4.8%,75.99%,6.17%,18.72%,Eastern Standard Time,85,39,46,64,20,57%,57%,39,59,88,58%,66%,54%,50.32,12.72,12.84,37.29%,35.6%,39.11%,65.4,23,6.0,17.7,65,102,3.5,12.65,MA-81035,42.4868785,-71.1542665
Wrentham,Massachusetts,11597,534,Boston-Cambridge-Newton,4912030,N/A,N/A,N/A,$380000,1005,$378,N/A,N/A,N/A,N/A,33,1484,N/A,N/A,N/A,Norfolk County,60.30%,32.60%,N/A,N/A,N/A,N/A,N/A,Eastern Standard Time,85,39,46,65,20,55%,56%,39,59,88,57%,61%,55%,51.05,12.67,12.87,35.73%,36.48%,34.0%,45.9,11,7.8,19.7,71,228,3.5,21.72,MA-82315,42.0513312,-71.3551688
Atkinson,New Hampshire,6839,614,Boston-Cambridge-Newton,4912030,N/A,N/A,N/A,N/A,N/A,N/A,N/A,N/A,N/A,N/A,0,412,N/A,N/A,N/A,Rockingham County,44.10%,49.90%,N/A,N/A,N/A,N/A,N/A,Eastern Standard Time,83,35,48,61,16,53%,51%,35,57,84,55%,62%,53%,48.87,12.76,11.78,38.33%,40.44%,35.78%,75.5,27,6.0,17.7,71,87,3.4,11.14,NH-02340,42.8370493,-71.1605133
Auburn,New Hampshire,5293,210,Boston-Cambridge-Newton,4912030,N/A,N/A,N/A,N/A,N/A,N/A,N/A,N/A,N/A,N/A,35,659,N/A,N/A,N/A,Rockingham County,44.10%,49.90%,N/A,N/A,N/A,N/A,N/A,Eastern Standard Time,82,33,49,62,14,53%,51%,35,57,83,55%,62%,53%,44.53,13.06,9.7,32.19%,35.6%,31.56%,75.5,27,6.0,17.7,74,231,3.4,25.2,NH-02820,42.9906379,-71.3438267
Barrington,New Hampshire,8841,190,Boston-Cambridge-Newton,4912030,N/A,N/A,N/A,N/A,N/A,N/A,N/A,N/A,N/A,N/A,64,388,N/A,N/A,N/A,Strafford County,50.60%,42.10%,N/A,N/A,N/A,N/A,N/A,Eastern Standard Time,81,34,47,60,16,53%,51%,35,57,82,55%,62%,53%,49.91,12.84,12.18,36.55%,37.47%,38.56%,60.6,16,6.0,17.7,81,108,3.2,46.53,NH-03460,43.2139685,-71.0424134
Brentwood,New Hampshire,4691,280,Boston-Cambridge-Newton,4912030,N/A,N/A,N/A,N/A,N/A,N/A,N/A,N/A,N/A,N/A,N/A,N/A,N/A,N/A,N/A,Rockingham County,44.10%,49.90%,N/A,N/A,N/A,N/A,N/A,Eastern Standard Time,83,34,49,61,15,53%,51%,35,57,84,55%,62%,53%,47.94,12.49,11.24,36.11%,37.69%,35.22%,60.6,16,6.0,17.7,75,147,3.4,16.75,NH-07220,42.9889162,-71.0448802
Candia,New Hampshire,3932,130,Boston-Cambridge-Newton,4912030,N/A,N/A,N/A,N/A,N/A,N/A,N/A,N/A,N/A,N/A,25,811,N/A,N/A,N/A,Rockingham County,44.10%,49.90%,N/A,N/A,N/A,N/A,N/A,Eastern Standard Time,82,33,49,62,14,53%,51%,35,57,83,55%,62%,53%,49.07,13.54,11.12,32.19%,35.6%,31.56%,60.6,16,6.0,17.7,78,345,3.4,30.25,NH-09300,43.0595387,-71.3095247
Chester,New Hampshire,4935,190,Boston-Cambridge-Newton,4912030,N/A,N/A,N/A,N/A,N/A,N/A,N/A,N/A,N/A,N/A,169,528,N/A,N/A,N/A,Rockingham County,44.10%,49.90%,N/A,N/A,N/A,N/A,N/A,Eastern Standard Time,83,35,48,61,16,53%,51%,35,57,84,55%,62%,53%,47.89,12.36,11.19,38.33%,40.44%,35.78%,75.5,27,6.0,17.7,75,264,3.4,25.97,NH-12100,42.9672123,-71.2509263
Danville,New Hampshire,4479,382,Boston-Cambridge-Newton,4912030,N/A,N/A,N/A,N/A,N/A,N/A,N/A,N/A,N/A,N/A,0,239,N/A,N/A,N/A,Rockingham County,44.10%,49.90%,N/A,N/A,N/A,N/A,N/A,Eastern Standard Time,83,35,48,61,16,53%,51%,35,57,84,55%,62%,53%,47.89,12.36,11.19,38.33%,40.44%,35.78%,75.5,27,6.0,17.7,75,264,3.4,11.73,NH-17140,42.9284141,-71.1212206
Deerfield,New Hampshire,4422,87,Boston-Cambridge-Newton,4912030,N/A,N/A,N/A,N/A,N/A,N/A,N/A,N/A,N/A,N/A,21,372,N/A,N/A,N/A,Rockingham County,44.10%,49.90%,N/A,N/A,N/A,N/A,N/A,Eastern Standard Time,83,34,49,61,15,53%,51%,35,57,84,55%,62%,53%,49.07,13.54,11.12,36.11%,37.69%,35.22%,60.6,16,6.0,17.7,80,345,3.4,50.83,NH-17460,43.138063,-71.2568807
Derry,New Hampshire,23571,1471,Boston-Cambridge-Newton,4912030,$73968,30.58%,38,$326000,1244,$262,41,64.39%,$1267,51.37%,98,828,8.31%,6.33%,72.94%,Rockingham County,44.10%,49.90%,2.13%,0.28%,91.04%,4.89%,5.02%,Eastern Standard Time,83,35,48,61,16,53%,51%,35,57,84,55%,62%,53%,47.89,12.36,11.19,38.33%,40.44%,35.78%,75.5,27,6.0,17.7,64,264,3.4,16.02,NH-17860,42.8937301,-71.2848671
Dover,New Hampshire,32599,1220,Boston-Cambridge-Newton,4912030,$82387,47.85%,36,$520000,1683,$309,46,58.14%,$1275,50.06%,78,1086,8.04%,3.68%,73.07%,Strafford County,50.60%,42.10%,4.44%,1.19%,87.76%,3.44%,5.85%,Eastern Standard Time,81,34,47,60,16,53%,51%,35,57,82,55%,62%,53%,49.91,12.84,12.18,36.55%,37.47%,38.56%,58.1,17,6.0,17.7,70,108,3.2,26.73,NH-18820,43.1886988,-70.8845327
Durham,New Hampshire,11616,3834,Boston-Cambridge-Newton,4912030,$70938,80.02%,20,$486000,1960,$248,51,54.47%,$1173,88.55%,35,249,24.44%,5.58%,57.47%,Strafford County,50.60%,42.10%,4.31%,0.55%,88.59%,3.44%,5.41%,Eastern Standard Time,83,34,49,60,15,53%,51%,35,57,84,55%,62%,53%,49.08,13.1,11.55,36.55%,37.47%,38.56%,58.1,17,6.0,17.7,75,69,3.2,3.03,NH-19620,43.1408324,-70.9252881
East Kingston,New Hampshire,2465,247,Boston-Cambridge-Newton,4912030,N/A,N/A,N/A,N/A,N/A,N/A,N/A,N/A,N/A,N/A,41,329,N/A,N/A,N/A,Rockingham County,44.10%,49.90%,N/A,N/A,N/A,N/A,N/A,Eastern Standard Time,83,34,49,61,15,53%,51%,35,57,84,55%,62%,53%,51.82,12.66,13.02,35.75%,36.81%,35.89%,60.6,16,6.0,17.7,73,51,3.4,9.98,NH-21380,42.9246292,-71.0036117
Epping,New Hampshire,2808,653,Boston-Cambridge-Newton,4912030,$69127,22.95%,40,$587000,1692,$347,33,73.48%,$1470,45.78%,42,1039,8.01%,2.22%,65.48%,Rockingham County,44.10%,49.90%,0.0%,0.0%,92.06%,7.16%,0.36%,Eastern Standard Time,83,34,49,61,15,53%,51%,35,57,84,55%,62%,53%,47.94,12.49,11.24,36.11%,37.69%,35.22%,60.6,16,6.0,17.7,77,147,3.4,4.3,NH-24580,43.0363752,-71.0939001
Exeter,New Hampshire,9908,2202,Boston-Cambridge-Newton,4912030,$72456,44.97%,46,$484000,1561,$310,55,72.08%,$1341,54.58%,181,641,6.68%,2.53%,72.84%,Rockingham County,44.10%,49.90%,3.25%,0.36%,89.26%,2.92%,4.7%,Eastern Standard Time,81,34,47,62,17,53%,51%,35,57,82,55%,62%,53%,54.65,13.81,13.49,38.41%,39.01%,35.56%,60.2,18,6.0,17.7,67,54,3.4,4.5,NH-25300,42.9775884,-70.9466818
Farmington,New Hampshire,3919,626,Boston-Cambridge-Newton,4912030,$42309,9.56%,35,$300000,1435,$209,48,62.63%,$965,46.82%,115,1485,11.57%,5.08%,67.87%,Strafford County,50.60%,42.10%,0.0%,3.65%,89.64%,1.56%,4.77%,Eastern Standard Time,83,34,49,61,17,53%,51%,35,57,84,55%,62%,53%,51.61,13.8,11.9,36.49%,40.88%,33.89%,68.5,24,6.0,17.7,83,846,3.2,6.26,NH-25940,43.3994245,-71.0723864
Fremont,New Hampshire,4589,268,Boston-Cambridge-Newton,4912030,N/A,N/A,N/A,N/A,N/A,N/A,N/A,N/A,N/A,N/A,0,770,N/A,N/A,N/A,Rockingham County,44.10%,49.90%,N/A,N/A,N/A,N/A,N/A,Eastern Standard Time,83,34,49,61,15,53%,51%,35,57,84,55%,62%,53%,47.94,12.49,11.24,36.11%,37.69%,35.22%,60.6,16,6.0,17.7,75,147,3.4,17.12,NH-27940,42.989,-71.1249478
Greenland,New Hampshire,3866,371,Boston-Cambridge-Newton,4912030,N/A,N/A,N/A,N/A,N/A,N/A,N/A,N/A,N/A,N/A,0,381,N/A,N/A,N/A,Rockingham County,44.10%,49.90%,N/A,N/A,N/A,N/A,N/A,Eastern Standard Time,81,34,47,62,17,53%,51%,35,57,82,55%,62%,53%,53.2,13.87,12.88,35.29%,34.62%,35.33%,60.2,18,6.0,17.7,76,87,3.4,10.42,NH-31700,43.0384879,-70.8479721
Hampstead,New Hampshire,8601,647,Boston-Cambridge-Newton,4912030,N/A,N/A,N/A,N/A,N/A,N/A,N/A,N/A,N/A,N/A,80,554,N/A,N/A,N/A,Rockingham County,44.10%,49.90%,N/A,N/A,N/A,N/A,N/A,Eastern Standard Time,83,35,48,61,16,53%,51%,35,57,84,55%,62%,53%,47.89,12.36,11.19,38.33%,40.44%,35.78%,75.5,27,6.0,17.7,73,264,3.4,13.29,NH-32900,42.8820942,-71.1709448
Hampton,New Hampshire,9900,1817,Boston-Cambridge-Newton,4912030,$90357,45.17%,47,$460000,1474,$312,45,82.9%,$1398,46.08%,198,883,3.15%,2.05%,68.85%,Rockingham County,44.10%,49.90%,0.86%,0.05%,95.16%,1.88%,3.95%,Eastern Standard Time,81,34,47,62,17,53%,51%,35,57,82,55%,62%,53%,54.65,13.81,13.49,38.41%,39.01%,35.56%,60.2,18,6.0,17.7,67,54,3.4,5.45,NH-32980,42.9428602,-70.8254962
Hampton Beach,New Hampshire,2480,1953,Boston-Cambridge-Newton,4912030,$69756,36.52%,56,$469000,905,$518,52,62.86%,$1163,51.81%,N/A,N/A,10.93%,6.11%,65.37%,Rockingham County,44.10%,49.90%,0.81%,0.85%,90.73%,5.08%,2.5%,Eastern Standard Time,81,34,47,62,17,57%,57%,39,59,83,58%,66%,54%,54.65,13.81,13.49,38.41%,39.01%,35.56%,60.2,18,6.0,17.7,70,54,3.4,1.27,NH-33140,42.9145448,-70.811565
Hampton Falls,New Hampshire,2336,192,Boston-Cambridge-Newton,4912030,N/A,N/A,N/A,N/A,N/A,N/A,N/A,N/A,N/A,N/A,83,754,N/A,N/A,N/A,Rockingham County,44.10%,49.90%,N/A,N/A,N/A,N/A,N/A,Eastern Standard Time,81,34,47,62,17,53%,51%,35,57,82,55%,62%,53%,54.65,13.81,13.49,38.41%,39.01%,35.56%,60.2,18,6.0,17.7,76,54,3.4,12.17,NH-33460,42.927135,-70.8861299
Kensington,New Hampshire,2195,184,Boston-Cambridge-Newton,4912030,N/A,N/A,N/A,N/A,N/A,N/A,N/A,N/A,N/A,N/A,47,141,N/A,N/A,N/A,Rockingham County,44.10%,49.90%,N/A,N/A,N/A,N/A,N/A,Eastern Standard Time,81,34,47,62,17,53%,51%,35,57,82,55%,62%,53%,54.65,13.81,13.49,38.41%,39.01%,35.56%,60.2,18,6.0,17.7,73,54,3.4,11.93,NH-39780,42.9285348,-70.949886
Kingston,New Hampshire,6141,312,Boston-Cambridge-Newton,4912030,N/A,N/A,N/A,N/A,N/A,N/A,N/A,N/A,N/A,N/A,78,172,N/A,N/A,N/A,Rockingham County,44.10%,49.90%,N/A,N/A,N/A,N/A,N/A,Eastern Standard Time,83,35,48,61,16,53%,51%,35,57,84,55%,62%,53%,47.89,12.36,11.19,38.33%,40.44%,35.78%,75.5,27,6.0,17.7,73,264,3.4,19.68,NH-40100,42.9156153,-71.0664718
Lee,New Hampshire,4375,219,Boston-Cambridge-Newton,4912030,N/A,N/A,N/A,N/A,N/A,N/A,N/A,N/A,N/A,N/A,22,378,N/A,N/A,N/A,Strafford County,50.60%,42.10%,N/A,N/A,N/A,N/A,N/A,Eastern Standard Time,82,34,48,59,16,53%,51%,35,57,83,55%,62%,53%,49.51,12.79,12.17,36.38%,36.48%,38.67%,60.6,16,6.0,17.7,77,57,3.2,19.98,NH-41460,43.1196695,-71.0068732
Londonderry,New Hampshire,11955,978,Boston-Cambridge-Newton,4912030,$107401,45.02%,43,$453000,1763,$257,37,82.31%,$1627,43.24%,75,651,3.42%,5.0%,70.26%,Rockingham County,44.10%,49.90%,0.4%,1.22%,92.52%,4.61%,4.22%,Eastern Standard Time,84,35,49,62,14,53%,51%,35,57,85,55%,62%,53%,47.46,12.29,11.52,38.3%,38.46%,38.78%,69.7,29,6.0,17.7,68,168,3.4,12.22,NH-43140,42.8507342,-71.3619814
Madbury,New Hampshire,1906,164,Boston-Cambridge-Newton,4912030,N/A,N/A,N/A,N/A,N/A,N/A,N/A,N/A,N/A,N/A,0,107,N/A,N/A,N/A,Strafford County,50.60%,42.10%,N/A,N/A,N/A,N/A,N/A,Eastern Standard Time,81,34,47,60,16,53%,51%,35,57,82,55%,62%,53%,49.91,12.84,12.18,36.55%,37.47%,38.56%,58.1,17,6.0,17.7,77,108,3.2,11.62,NH-44820,43.1747891,-70.9408544
Middleton,New Hampshire,1687,93,Boston-Cambridge-Newton,4912030,N/A,N/A,N/A,N/A,N/A,N/A,N/A,N/A,N/A,N/A,0,930,N/A,N/A,N/A,Strafford County,50.60%,42.10%,N/A,N/A,N/A,N/A,N/A,Eastern Standard Time,82,33,49,57,11,53%,51%,35,57,83,55%,62%,53%,55.61,14.48,14.08,32.38%,34.62%,32.89%,68.5,24,6.0,17.7,85,564,3.2,18.14,NH-47700,43.4831561,-71.068528
Milton,New Hampshire,278,343,Boston-Cambridge-Newton,4912030,$47115,16.73%,62,$330000,1422,$232,N/A,89.01%,$733,62.59%,150,902,6.47%,0.0%,71.58%,Strafford County,50.60%,42.10%,0.0%,0.0%,100.0%,0.0%,2.88%,Eastern Standard Time,83,34,49,61,17,53%,51%,35,57,84,55%,62%,53%,40.88,11.49,8.26,36.49%,40.88%,33.89%,71.9,23,6.0,17.7,84,297,3.2,0.81,NH-48580,43.4035942,-70.9898123
New Castle,New Hampshire,917,1118,Boston-Cambridge-Newton,4912030,N/A,N/A,N/A,N/A,N/A,N/A,N/A,N/A,N/A,N/A,0,101,N/A,N/A,N/A,Rockingham County,44.10%,49.90%,N/A,N/A,N/A,N/A,N/A,Eastern Standard Time,81,34,47,62,17,53%,51%,35,57,82,55%,62%,53%,49.05,12.9,11.98,32.08%,32.53%,32.44%,58.1,17,6.0,17.7,70,21,3.4,0.82,NH-50980,43.0634993,-70.7178291
New Durham,New Hampshire,2663,64,Boston-Cambridge-Newton,4912030,N/A,N/A,N/A,N/A,N/A,N/A,N/A,N/A,N/A,N/A,110,887,N/A,N/A,N/A,Strafford County,50.60%,42.10%,N/A,N/A,N/A,N/A,N/A,Eastern Standard Time,83,34,49,61,17,53%,51%,35,57,84,55%,62%,53%,51.61,13.8,11.9,36.49%,40.88%,33.89%,68.5,24,6.0,17.7,85,846,3.2,41.61,NH-51220,43.4633296,-71.1417564
Newfields,New Hampshire,274,721,Boston-Cambridge-Newton,4912030,$156250,52.33%,49,N/A,N/A,N/A,N/A,97.64%,$1583,29.24%,57,806,2.55%,4.22%,74.77%,Rockingham County,44.10%,49.90%,0.73%,1.09%,94.89%,2.19%,5.11%,Eastern Standard Time,82,34,48,59,16,53%,51%,35,57,83,55%,62%,53%,49.51,12.79,12.17,36.38%,36.48%,38.67%,60.6,16,6.0,17.7,74,57,3.4,0.38,NH-51300,43.0354773,-70.9390418
Newington,New Hampshire,819,100,Boston-Cambridge-Newton,4912030,N/A,N/A,N/A,N/A,N/A,N/A,N/A,N/A,N/A,N/A,617,13950,N/A,N/A,N/A,Rockingham County,44.10%,49.90%,N/A,N/A,N/A,N/A,N/A,Eastern Standard Time,81,34,47,62,17,53%,51%,35,57,82,55%,62%,53%,52.16,13.27,12.4,32.08%,32.53%,32.44%,58.1,17,6.0,17.7,76,18,3.4,8.19,NH-51620,43.0931573,-70.8359029
Newmarket,New Hampshire,5621,2498,Boston-Cambridge-Newton,4912030,$74490,51.58%,36,$456000,2092,$218,40,48.74%,$1401,60.3%,87,469,6.57%,1.56%,78.81%,Rockingham County,44.10%,49.90%,3.75%,1.16%,90.8%,1.89%,4.98%,Eastern Standard Time,82,34,48,59,16,53%,51%,35,57,83,55%,62%,53%,49.51,12.79,12.17,36.38%,36.48%,38.67%,60.6,16,6.0,17.7,74,57,3.4,2.25,NH-52260,43.0749932,-70.941379
Newton,New Hampshire,4824,487,Boston-Cambridge-Newton,4912030,N/A,N/A,N/A,N/A,N/A,N/A,N/A,N/A,N/A,N/A,N/A,N/A,N/A,N/A,N/A,Rockingham County,44.10%,49.90%,N/A,N/A,N/A,N/A,N/A,Eastern Standard Time,83,36,47,61,18,53%,51%,35,57,84,55%,62%,53%,48.87,12.76,11.78,35.75%,36.81%,35.89%,64.9,24,6.0,17.7,71,87,3.4,9.91,NH-52900,42.8684841,-71.0436045
North Hampton,New Hampshire,4428,318,Boston-Cambridge-Newton,4912030,N/A,N/A,N/A,N/A,N/A,N/A,N/A,N/A,N/A,N/A,66,775,N/A,N/A,N/A,Rockingham County,44.10%,49.90%,N/A,N/A,N/A,N/A,N/A,Eastern Standard Time,81,34,47,62,17,53%,51%,35,57,82,55%,62%,53%,54.65,13.81,13.49,38.41%,39.01%,35.56%,60.2,18,6.0,17.7,77,54,3.4,13.92,NH-54580,42.9784682,-70.8284955
Northwood,New Hampshire,4282,153,Boston-Cambridge-Newton,4912030,N/A,N/A,N/A,N/A,N/A,N/A,N/A,N/A,N/A,N/A,46,720,N/A,N/A,N/A,Rockingham County,44.10%,49.90%,N/A,N/A,N/A,N/A,N/A,Eastern Standard Time,83,34,49,60,15,53%,51%,35,57,84,55%,62%,53%,46.91,13.0,10.79,36.11%,37.69%,35.22%,60.6,16,6.0,17.7,81,726,3.4,27.99,NH-56820,43.2133079,-71.2096832
Nottingham,New Hampshire,4962,107,Boston-Cambridge-Newton,4912030,N/A,N/A,N/A,N/A,N/A,N/A,N/A,N/A,N/A,N/A,58,135,N/A,N/A,N/A,Rockingham County,44.10%,49.90%,N/A,N/A,N/A,N/A,N/A,Eastern Standard Time,83,34,49,61,15,53%,51%,35,57,84,55%,62%,53%,46.91,13.0,10.79,36.11%,37.69%,35.22%,60.6,16,6.0,17.7,80,726,3.4,46.37,NH-57460,43.124195,-71.1209852
Plaistow,New Hampshire,7642,719,Boston-Cambridge-Newton,4912030,N/A,N/A,N/A,N/A,N/A,N/A,N/A,N/A,N/A,N/A,51,1254,N/A,N/A,N/A,Rockingham County,44.10%,49.90%,N/A,N/A,N/A,N/A,N/A,Eastern Standard Time,83,36,47,61,18,57%,57%,39,59,85,58%,66%,54%,48.87,12.76,11.78,35.95%,34.62%,38.0%,64.9,24,6.0,17.7,68,87,3.4,10.63,NH-62500,42.8403318,-71.0961133
Portsmouth,New Hampshire,21897,1398,Boston-Cambridge-Newton,4912030,$91915,62.81%,42,$860000,2043,$421,62,57.6%,$1499,51.38%,127,1635,6.01%,2.41%,69.67%,Rockingham County,44.10%,49.90%,4.98%,1.37%,87.31%,2.25%,9.04%,Eastern Standard Time,81,34,47,62,17,53%,51%,35,57,82,55%,62%,53%,52.16,13.27,12.4,32.08%,32.53%,32.44%,58.1,17,6.0,17.7,57,18,3.4,15.66,NH-62900,43.0580866,-70.7825601
Raymond,New Hampshire,3778,583,Boston-Cambridge-Newton,4912030,$59599,18.82%,39,$440000,1517,$290,43,72.97%,$1093,52.18%,133,1088,9.9%,4.88%,68.14%,Rockingham County,44.10%,49.90%,0.19%,0.0%,93.99%,3.73%,1.35%,Eastern Standard Time,83,34,49,61,15,53%,51%,35,57,84,55%,62%,53%,47.94,12.49,11.24,36.11%,37.69%,35.22%,60.6,16,6.0,17.7,76,147,3.4,6.48,NH-63940,43.036974,-71.1720248
Rochester,New Hampshire,32317,718,Boston-Cambridge-Newton,4912030,$70582,24.38%,43,$331000,1498,$221,43,68.73%,$1102,49.93%,298,3095,9.33%,3.81%,67.04%,Strafford County,50.60%,42.10%,1.78%,1.01%,90.95%,2.55%,3.64%,Eastern Standard Time,83,34,49,61,17,53%,51%,35,57,84,55%,62%,53%,40.88,11.49,8.26,36.49%,40.88%,33.89%,58.1,17,6.0,17.7,76,297,3.2,45.02,NH-65140,43.2989751,-70.9786086
Rollinsford,New Hampshire,2529,347,Boston-Cambridge-Newton,4912030,N/A,N/A,N/A,N/A,N/A,N/A,N/A,N/A,N/A,N/A,115,656,N/A,N/A,N/A,Strafford County,50.60%,42.10%,N/A,N/A,N/A,N/A,N/A,Eastern Standard Time,81,34,47,60,16,53%,51%,35,57,82,55%,62%,53%,49.91,12.84,12.18,36.55%,37.47%,38.56%,58.1,17,6.0,17.7,75,108,3.2,7.29,NH-65540,43.220977,-70.842616
Rye,New Hampshire,5401,428,Boston-Cambridge-Newton,4912030,N/A,N/A,N/A,N/A,N/A,N/A,N/A,N/A,N/A,N/A,0,768,N/A,N/A,N/A,Rockingham County,44.10%,49.90%,N/A,N/A,N/A,N/A,N/A,Eastern Standard Time,81,34,47,62,17,53%,51%,35,57,82,55%,62%,53%,53.2,13.87,12.88,35.29%,34.62%,35.33%,60.2,18,6.0,17.7,78,87,3.4,12.62,NH-66180,43.0018374,-70.7211163
Salem,New Hampshire,28951,1171,Boston-Cambridge-Newton,4912030,N/A,N/A,N/A,$575000,1910,$301,N/A,N/A,N/A,N/A,84,1512,N/A,N/A,N/A,Rockingham County,44.10%,49.90%,N/A,N/A,N/A,N/A,N/A,Eastern Standard Time,84,36,48,66,21,57%,57%,39,59,86,58%,66%,54%,48.87,12.76,11.78,34.03%,34.51%,33.11%,75.5,27,6.0,17.7,66,87,3.4,24.72,NH-66660,42.7901414,-71.2202352
Sandown,New Hampshire,6279,450,Boston-Cambridge-Newton,4912030,N/A,N/A,N/A,N/A,N/A,N/A,N/A,N/A,N/A,N/A,30,307,N/A,N/A,N/A,Rockingham County,44.10%,49.90%,N/A,N/A,N/A,N/A,N/A,Eastern Standard Time,83,35,48,61,16,53%,51%,35,57,84,55%,62%,53%,47.89,12.36,11.19,38.33%,40.44%,35.78%,75.5,27,6.0,17.7,74,264,3.4,13.95,NH-67620,42.9332254,-71.1833191
Seabrook,New Hampshire,8834,993,Boston-Cambridge-Newton,4912030,N/A,N/A,N/A,N/A,N/A,N/A,N/A,N/A,N/A,N/A,45,1542,N/A,N/A,N/A,Rockingham County,44.10%,49.90%,N/A,N/A,N/A,N/A,N/A,Eastern Standard Time,81,34,47,62,17,57%,57%,39,59,83,58%,66%,54%,51.82,12.66,13.02,35.75%,36.81%,35.89%,60.2,18,6.0,17.7,65,51,3.4,8.9,NH-68260,42.8869004,-70.8603852
Seabrook Beach,New Hampshire,863,822,Boston-Cambridge-Newton,4912030,$110658,50.95%,60,N/A,N/A,N/A,47,88.01%,$1385,42.32%,N/A,N/A,13.67%,11.25%,69.47%,Rockingham County,44.10%,49.90%,0.0%,1.27%,97.22%,2.78%,0.58%,Eastern Standard Time,81,34,47,62,17,57%,57%,39,59,83,58%,66%,54%,54.65,13.81,13.49,38.41%,39.01%,35.56%,60.2,18,6.0,17.7,69,54,3.4,1.05,NH-68340,42.8846327,-70.8230936
Somersworth,New Hampshire,11964,1221,Boston-Cambridge-Newton,4912030,$68762,25.06%,40,$315000,1340,$235,54,59.48%,$1189,52.83%,125,2946,10.88%,3.49%,70.23%,Strafford County,50.60%,42.10%,4.81%,1.74%,85.55%,4.44%,6.03%,Eastern Standard Time,83,34,49,61,17,53%,51%,35,57,84,55%,62%,53%,40.88,11.49,8.26,36.49%,40.88%,33.89%,58.1,17,6.0,17.7,72,297,3.2,9.8,NH-69940,43.2533842,-70.8854874
South Hampton,New Hampshire,793,99,Boston-Cambridge-Newton,4912030,N/A,N/A,N/A,N/A,N/A,N/A,N/A,N/A,N/A,N/A,0,603,N/A,N/A,N/A,Rockingham County,44.10%,49.90%,N/A,N/A,N/A,N/A,N/A,Eastern Standard Time,83,36,47,61,18,53%,51%,35,57,84,55%,62%,53%,51.82,12.66,13.02,35.75%,36.81%,35.89%,60.2,18,6.0,17.7,73,51,3.4,8.01,NH-71140,42.8854371,-70.9680545
Strafford,New Hampshire,4057,83,Boston-Cambridge-Newton,4912030,N/A,N/A,N/A,N/A,N/A,N/A,N/A,N/A,N/A,N/A,0,166,N/A,N/A,N/A,Strafford County,50.60%,42.10%,N/A,N/A,N/A,N/A,N/A,Eastern Standard Time,83,34,49,61,17,53%,51%,35,57,84,55%,62%,53%,51.61,13.8,11.9,36.49%,40.88%,33.89%,60.6,16,6.0,17.7,83,846,3.2,48.88,NH-73860,43.2802771,-71.1487357
Stratham,New Hampshire,7372,488,Boston-Cambridge-Newton,4912030,N/A,N/A,N/A,N/A,N/A,N/A,N/A,N/A,N/A,N/A,26,588,N/A,N/A,N/A,Rockingham County,44.10%,49.90%,N/A,N/A,N/A,N/A,N/A,Eastern Standard Time,81,34,47,62,17,53%,51%,35,57,82,55%,62%,53%,53.2,13.87,12.88,35.29%,34.62%,35.33%,60.2,18,6.0,17.7,74,87,3.4,15.11,NH-74340,43.0157953,-70.900619
Windham,New Hampshire,14344,535,Boston-Cambridge-Newton,4912030,N/A,N/A,N/A,N/A,N/A,N/A,N/A,N/A,N/A,N/A,33,396,N/A,N/A,N/A,Rockingham County,44.10%,49.90%,N/A,N/A,N/A,N/A,N/A,Eastern Standard Time,84,35,49,62,14,53%,51%,35,57,85,55%,62%,53%,47.46,12.29,11.52,38.3%,38.46%,38.78%,69.7,29,6.0,17.7,70,168,3.4,26.81,NH-85780,42.8075717,-71.299464
