City,State,Population,People per sq mi,Metro Name,Metro population,Median household income,% with at least Bachelor's degree,Median age,Median home price,Median home sqft,Median home cost per sqft,Median home age,Homeownership Rate,Avg Apartment Monthly Rent,Single Population,Num Violent Crimes Per 100k residents,Num Property Crimes Per 100k residents,Poverty Rate,Unemployment rate,Labor Force Participation rate,County,% Democrat,% Republican,% Asian,% Black,% Non-Hispanic White,% Hispanic,Foreign Born %,Timezone,Hottest month's avg high (F),Coldest month's avg high (F),Hottest high minus coldest high,Annual rainfall (in),Annual days of precipitation,Annual snowfall (in),Avg Summer Dew Point,Avg Annual Dew Point,Average yearly windspeed (mph),Air quality Index,Elevation (ft),UV Index,Land Area (sq mi),Fips Code,Latitude,Longitude,Annual Sunshine - Percentage of Possible,Summer Sunshine - Percentage of Possible,Winter Sunshine - Percentage of Possible
Abington,Massachusetts,16557,1662,Boston-Cambridge-Newton,4878211,$106001,38.25%,40,$435000,1299,$335,58,79.48%,$1364,45.87%,139,930,5.09%,6.22%,73.26%,Plymouth County,50.00%,42.50%,3.19%,2.51%,85.67%,3.06%,8.89%,Eastern Standard Time,83,38,45,50,129,45,N/A,N/A,10,75,29,3.3,9.96,MA-00135,42.1180452,-70.9590364,58%,66%,54%
Acton,Massachusetts,23455,1181,Boston-Cambridge-Newton,4878211,$120865,74.89%,N/A,$716000,2566,$279,43,72.90%,$2000,34.30%,134,277,N/A,2.20%,N/A,Middlesex County,65.30%,27.60%,24.7%,2.3%,69.2%,1.9%,N/A,Eastern Standard Time,83,35,48,48,129,51,N/A,N/A,7,72,29,3.5,19.86,MA-00380,42.484301,-71.4377767,58%,66%,54%
Amesbury Town,Massachusetts,17218,1401,Boston-Cambridge-Newton,4878211,$76463,41.13%,N/A,$600000,1881,$319,49,67.10%,$1492,47.90%,142,750,3.6%,2.90%,72.52%,Essex County,57.70%,35.40%,1.1%,0.8%,92.8%,2.7%,3.9%,Eastern Standard Time,82,34,48,50,129,56,57.8,37.7,N/A,63,29,3.2,12.29,MA-01220,42.8565677,-70.928135,58%,66%,54%
Andover,Massachusetts,8821,2391,Boston-Cambridge-Newton,4878211,$113684,71.23%,45,$772000,2325,$332,78,79.02%,$1063,50.08%,21,588,6.93%,5.04%,66.48%,Essex County,57.70%,35.40%,8.19%,1.85%,84.89%,3.08%,12.9%,Eastern Standard Time,83,35,48,48,126,52,N/A,N/A,8,64,29,3.2,3.69,MA-01430,42.6553902,-71.1418334,58%,66%,54%
Arlington,Massachusetts,45379,8829,Boston-Cambridge-Newton,4878211,$114576,72.52%,40,$947000,1913,$495,73,64.85%,$1756,44.14%,74,366,5.51%,3.4%,72.69%,Middlesex County,65.30%,27.60%,12.94%,3.0%,74.75%,5.16%,18.65%,Eastern Standard Time,82,35,47,48,134,53,N/A,N/A,N/A,60,29,3.5,5.14,MA-01640,42.4186592,-71.1638992,58%,66%,54%
Ashby,Massachusetts,3195,135,Boston-Cambridge-Newton,4878211,$83917,33.24%,N/A,$361000,1378,$262,51,86.40%,N/A,41.70%,N/A,N/A,N/A,2.40%,N/A,Middlesex County,65.30%,27.60%,0.8%,0.7%,94.9%,2.0%,N/A,Eastern Standard Time,80,31,49,49,119,70,N/A,N/A,7,82,29,3.5,23.67,MA-01955,42.6765143,-71.8231847,55%,62%,53%
Ashland,Massachusetts,17478,1418,Boston-Cambridge-Newton,4878211,$102721,58.55%,N/A,$551000,1818,$303,34,79.40%,$2146,39.30%,118,433,N/A,2.40%,N/A,Middlesex County,65.30%,27.60%,8.5%,3.0%,81.5%,4.9%,N/A,Eastern Standard Time,83,36,47,49,119,45,N/A,N/A,7,73,29,3.5,12.33,MA-02130,42.2572582,-71.4686535,58%,66%,54%
Avon,Massachusetts,4468,1041,Boston-Cambridge-Newton,4878211,$78750,26.89%,N/A,$469000,2535,$185,62,65.10%,N/A,48.20%,N/A,N/A,N/A,2.60%,N/A,Norfolk County,60.30%,32.60%,8.7%,11.4%,71.4%,5.9%,N/A,Eastern Standard Time,83,37,46,49,128,47,N/A,N/A,7,72,29,3.5,4.29,MA-02935,42.1266619,-71.0492423,58%,66%,54%
Ayer,Massachusetts,2551,1918,Boston-Cambridge-Newton,4878211,$69688,49.07%,44,$545000,1854,$294,79,56.06%,$1028,60.09%,N/A,N/A,9.41%,3.52%,70.89%,Middlesex County,65.30%,27.60%,1.25%,7.68%,83.03%,2.82%,10.66%,Eastern Standard Time,84,34,50,48,128,56,N/A,N/A,7,73,29,3.5,1.33,MA-03040,42.5613788,-71.584791,58%,66%,54%
Bedford,Massachusetts,14105,1033,Boston-Cambridge-Newton,4878211,$114676,71.79%,N/A,$775000,2808,$276,49,71.30%,N/A,37.00%,N/A,N/A,N/A,2.30%,N/A,Middlesex County,65.30%,27.60%,14.4%,3.1%,76.7%,4.0%,N/A,Eastern Standard Time,83,35,48,48,135,55,N/A,N/A,7,69,29,3.5,13.65,MA-04615,42.4969428,-71.2782929,58%,66%,54%
Bellingham,Massachusetts,4216,782,Boston-Cambridge-Newton,4878211,$62243,34.01%,49,$331000,1452,$228,50,78.5%,$1572,51.06%,N/A,N/A,4.78%,4.27%,63.42%,Norfolk County,60.30%,32.60%,0.62%,1.8%,93.29%,1.85%,7.26%,Eastern Standard Time,83,37,46,50,117,44,N/A,N/A,7,72,29,3.5,5.39,MA-04965,42.0939792,-71.4760889,57%,61%,55%
Belmont,Massachusetts,26158,5625,Boston-Cambridge-Newton,4878211,$140500,76.44%,41,$1150000,2233,$515,78,67.65%,$2062,36.42%,N/A,N/A,5.38%,4.4%,68.2%,Middlesex County,65.30%,27.60%,17.05%,1.13%,73.64%,4.19%,25.7%,Eastern Standard Time,83,35,48,49,134,53,N/A,N/A,8,61,29,3.5,4.65,MA-05105,42.3959909,-71.1794925,58%,66%,54%
Beverly,Massachusetts,42062,2787,Boston-Cambridge-Newton,4878211,$84354,49.4%,41,$535000,1375,$389,64,66.86%,$1308,51.49%,N/A,N/A,10.28%,2.58%,67.47%,Essex County,57.70%,35.40%,2.35%,3.05%,87.07%,5.35%,8.94%,Eastern Standard Time,80,35,45,47,114,44,58.9,39.2,N/A,64,29,3.2,15.09,MA-05595,42.5582768,-70.8434612,58%,66%,54%
Billerica,Massachusetts,42791,1674,Boston-Cambridge-Newton,4878211,$93761,36.11%,N/A,$575000,1753,$328,47,77.40%,$2265,45.30%,N/A,N/A,N/A,2.70%,N/A,Middlesex County,65.30%,27.60%,6.2%,3.3%,84.6%,4.3%,N/A,Eastern Standard Time,83,34,49,48,132,55,N/A,N/A,7,71,29,3.5,25.56,MA-05805,42.5586808,-71.2672687,58%,66%,54%
Boston,Massachusetts,689326,14260,Boston-Cambridge-Newton,4878211,$76298,51.34%,32,$760000,1260,$603,79,37.56%,$1685,66.81%,N/A,N/A,17.96%,6.88%,69.84%,Suffolk County,78.40%,16.10%,9.82%,24.2%,44.73%,19.54%,28.22%,Eastern Standard Time,82,36,46,47,130,48,59.2,39.6,8,43,29,3.4,48.34,MA-07000,42.3322325,-71.0163903,58%,66%,54%
Boxborough,Massachusetts,5546,539,Boston-Cambridge-Newton,4878211,$103996,66.18%,N/A,$586000,1843,$318,39,65.70%,$2552,41.90%,N/A,N/A,N/A,2.40%,N/A,Middlesex County,65.30%,27.60%,20.2%,0.9%,73.6%,2.9%,N/A,Eastern Standard Time,83,34,49,49,129,51,N/A,N/A,7,74,29,3.5,10.29,MA-07350,42.4883708,-71.5177924,58%,66%,54%
Boxford,Massachusetts,2925,546,Boston-Cambridge-Newton,4878211,$222153,78.54%,47,$914000,3067,$298,51,100.0%,N/A,27.14%,N/A,N/A,0.0%,3.15%,65.31%,Essex County,57.70%,35.40%,3.52%,0.0%,90.56%,2.29%,8.07%,Eastern Standard Time,83,35,48,47,116,52,N/A,N/A,9,69,29,3.2,5.36,MA-07385,42.6694146,-70.9831122,58%,66%,54%
Braintree Town,Massachusetts,37082,2695,Boston-Cambridge-Newton,4878211,$87500,43.45%,N/A,$598000,1685,$355,60,70.00%,$2386,47.40%,N/A,N/A,3.8%,2.60%,69.58%,Norfolk County,60.30%,32.60%,11.2%,3.4%,81.2%,2.0%,15.2%,Eastern Standard Time,84,37,47,50,129,46,59.3,39.9,N/A,69,29,3.5,13.76,MA-07700,42.2038376,-71.002153,58%,66%,54%
Bridgewater,Massachusetts,27434,1007,Boston-Cambridge-Newton,4878211,$88481,N/A,N/A,$456000,1817,$251,39,N/A,$1890,56.90%,N/A,N/A,14%,3.00%,N/A,Plymouth County,50.00%,42.50%,1.9%,7.8%,83.7%,3.6%,4.5%,Eastern Standard Time,83,38,45,51,121,36,N/A,N/A,11,79,29,3.3,27.25,MA-08050,41.9888088,-70.9718071,58%,66%,54%
Brockton,Massachusetts,95740,4489,Boston-Cambridge-Newton,4878211,$62249,18.36%,36,$453000,1595,$284,63,61.33%,$1193,57.98%,N/A,N/A,13.05%,8.37%,68.56%,Plymouth County,50.00%,42.50%,1.8%,43.72%,29.07%,11.88%,32.48%,Eastern Standard Time,83,38,45,50,123,46,58.7,39.1,7,70,29,3.3,21.33,MA-09000,42.0820603,-71.0241898,58%,66%,54%
Brookline,Massachusetts,59223,8761,Boston-Cambridge-Newton,4878211,$113642,83.57%,35,$763000,988,$772,80,52.37%,$2305,53.16%,N/A,N/A,10.84%,3.07%,69.92%,Norfolk County,60.30%,32.60%,17.39%,3.1%,66.78%,6.75%,29.18%,Eastern Standard Time,83,36,47,47,131,49,N/A,N/A,8,49,29,3.5,6.76,MA-09210,42.3242838,-71.1407801,58%,66%,54%
Burlington,Massachusetts,28077,2390,Boston-Cambridge-Newton,4878211,$121433,58.5%,45,$653000,1760,$371,48,79.23%,$2016,38.74%,N/A,N/A,4.2%,2.02%,65.98%,Middlesex County,65.30%,27.60%,16.34%,2.44%,74.77%,1.49%,22.6%,Eastern Standard Time,83,35,48,48,134,52,N/A,N/A,8,67,29,3.5,11.75,MA-09875,42.5021534,-71.2026829,58%,66%,54%
Cambridge,Massachusetts,117822,18438,Boston-Cambridge-Newton,4878211,$107490,79.08%,31,$1126000,1315,$856,75,36.32%,$2293,65.76%,N/A,N/A,11.98%,3.95%,69.48%,Middlesex County,65.30%,27.60%,17.53%,10.39%,58.65%,9.33%,29.25%,Eastern Standard Time,82,36,46,48,133,50,59.2,39.5,8,42,29,3.5,6.39,MA-11000,42.3758431,-71.1184919,58%,66%,54%
Canton,Massachusetts,22829,1215,Boston-Cambridge-Newton,4878211,$90878,55.14%,N/A,$693000,1952,$355,48,73.50%,$2275,40.80%,N/A,N/A,N/A,2.60%,N/A,Norfolk County,60.30%,32.60%,7.2%,6.1%,80.3%,4.2%,N/A,Eastern Standard Time,84,37,47,48,128,47,N/A,N/A,7,70,29,3.5,18.79,MA-11315,42.1750999,-71.1264124,58%,66%,54%
Carlisle,Massachusetts,5160,338,Boston-Cambridge-Newton,4878211,$157500,82.21%,N/A,$1198000,3247,$369,41,87.40%,N/A,31.60%,N/A,N/A,N/A,2.40%,N/A,Middlesex County,65.30%,27.60%,11.3%,0.0%,84.0%,2.3%,N/A,Eastern Standard Time,83,35,48,48,129,55,N/A,N/A,7,73,29,3.5,15.27,MA-11525,42.5300107,-71.3512692,58%,66%,54%
Carver,Massachusetts,11617,311,Boston-Cambridge-Newton,4878211,$72804,21.83%,N/A,$505000,1672,$302,36,86.20%,N/A,43.10%,N/A,N/A,N/A,2.60%,N/A,Plymouth County,50.00%,42.50%,0.7%,1.9%,94.3%,1.1%,N/A,Eastern Standard Time,82,38,44,51,129,36,N/A,N/A,11,83,29,3.3,37.35,MA-11665,41.8738839,-70.7562995,57%,61%,55%
Chelmsford,Massachusetts,35067,1568,Boston-Cambridge-Newton,4878211,$93643,56.47%,N/A,$590000,1861,$317,49,82.20%,$2078,40.20%,N/A,N/A,N/A,2.60%,N/A,Middlesex County,65.30%,27.60%,9.4%,0.8%,84.9%,3.7%,N/A,Eastern Standard Time,83,34,49,47,126,56,N/A,N/A,7,54,29,3.5,22.36,MA-13100,42.5998139,-71.3672838,58%,66%,54%
Chelsea,Massachusetts,39878,17963,Boston-Cambridge-Newton,4878211,$60370,19.86%,34,$520000,1372,$379,78,30.85%,$1474,60.88%,N/A,N/A,19.1%,6.22%,69.46%,Suffolk County,78.40%,16.10%,3.95%,6.25%,19.64%,67.7%,47.1%,Eastern Standard Time,82,36,46,48,127,48,59.3,39.8,N/A,42,29,3.4,2.22,MA-13205,42.3959078,-71.0325106,58%,66%,54%
Cochituate,Massachusetts,6730,1766,Boston-Cambridge-Newton,4878211,$175729,76.07%,42,$846000,2311,$366,62,95.35%,N/A,32.01%,N/A,N/A,1.47%,2.93%,67.1%,Middlesex County,65.30%,27.60%,10.86%,0.15%,78.38%,7.43%,18.02%,Eastern Standard Time,83,35,48,48,131,50,58.3,38.3,7,66,29,3.5,3.81,MA-14570,42.3289993,-71.3576617,58%,66%,54%
Cohasset,Massachusetts,8393,857,Boston-Cambridge-Newton,4878211,$117679,70.84%,N/A,$1150000,2457,$468,56,68.20%,$3028,30.50%,N/A,N/A,N/A,2.60%,N/A,Norfolk County,60.30%,32.60%,0.7%,0.1%,97.7%,0.7%,N/A,Eastern Standard Time,83,37,46,52,129,46,N/A,N/A,10,77,29,3.5,9.79,MA-14640,42.2896143,-70.7757101,58%,66%,54%
Concord,Massachusetts,19357,789,Boston-Cambridge-Newton,4878211,$132385,74.21%,N/A,$1115000,2440,$457,50,70.10%,$2672,38.50%,N/A,N/A,N/A,2.10%,N/A,Middlesex County,65.30%,27.60%,6.3%,3.4%,81.6%,6.4%,N/A,Eastern Standard Time,83,35,48,48,131,51,N/A,N/A,7,72,29,3.5,24.53,MA-15060,42.4619718,-71.363866,58%,66%,54%
Danvers,Massachusetts,27549,2074,Boston-Cambridge-Newton,4878211,$99269,44.74%,45,$612000,1925,$318,56,76.76%,$1620,51.34%,N/A,N/A,6.14%,4.38%,68.37%,Essex County,57.70%,35.40%,2.07%,1.88%,87.73%,5.77%,9.9%,Eastern Standard Time,81,36,45,47,124,42,N/A,N/A,9,60,29,3.2,13.28,MA-16285,42.5740579,-70.9494553,58%,66%,54%
Dedham,Massachusetts,25330,2466,Boston-Cambridge-Newton,4878211,$101780,55.36%,44,$615000,1704,$361,65,75.13%,$1823,46.6%,N/A,N/A,4.78%,3.68%,69.84%,Norfolk County,60.30%,32.60%,2.93%,7.59%,79.16%,9.33%,12.23%,Eastern Standard Time,83,36,47,49,127,47,N/A,N/A,8,56,29,3.5,10.27,MA-16530,42.2466262,-71.1776511,58%,66%,54%
Devens,Massachusetts,2007,296,Boston-Cambridge-Newton,4878211,$96500,31.12%,45,$450000,1335,$337,74,86.87%,$1384,65.16%,N/A,N/A,14.93%,1.91%,31.07%,Worcester County,51.00%,40.40%,14.6%,25.31%,49.03%,10.91%,20.93%,Eastern Standard Time,84,34,50,48,122,53,57.9,37.7,7,74,29,3.3,6.78,MA-16840,42.544698,-71.613181,58%,66%,54%
Dover,Massachusetts,2518,594,Boston-Cambridge-Newton,4878211,$217284,78.16%,44,$1830000,4598,$398,52,96.66%,N/A,27.62%,N/A,N/A,0.36%,12.16%,61.96%,Norfolk County,60.30%,32.60%,12.71%,0.0%,72.44%,0.68%,12.07%,Eastern Standard Time,83,36,47,49,122,47,N/A,N/A,7,72,29,3.5,4.24,MA-17370,42.2474384,-71.274166,58%,66%,54%
Dracut,Massachusetts,31113,1508,Boston-Cambridge-Newton,4878211,$76786,31.07%,N/A,$472000,1645,$287,40,76.30%,$1763,46.80%,N/A,N/A,N/A,2.90%,N/A,Middlesex County,65.30%,27.60%,4.1%,4.0%,83.3%,5.9%,N/A,Eastern Standard Time,83,33,50,45,125,56,N/A,N/A,7,67,29,3.5,20.63,MA-17475,42.6832452,-71.3009484,58%,66%,54%
Dunstable,Massachusetts,3337,203,Boston-Cambridge-Newton,4878211,$116125,54.81%,N/A,N/A,N/A,N/A,31,93.70%,N/A,37.70%,N/A,N/A,N/A,2.40%,N/A,Middlesex County,65.30%,27.60%,4.1%,0.0%,92.7%,1.1%,N/A,Eastern Standard Time,83,33,50,47,125,56,N/A,N/A,7,73,29,3.5,16.44,MA-17825,42.6764148,-71.5005243,58%,66%,54%
Duxbury,Massachusetts,1723,780,Boston-Cambridge-Newton,4878211,$116250,86.16%,53,$2050000,3445,$595,60,92.28%,$2065,34.69%,N/A,N/A,8.65%,4.54%,67.4%,Plymouth County,50.00%,42.50%,0.93%,0.0%,98.2%,0.87%,3.31%,Eastern Standard Time,82,38,44,52,130,39,N/A,N/A,10,82,29,3.3,2.21,MA-17860,42.042757,-70.6748702,58%,66%,54%
East Bridgewater,Massachusetts,14301,831,Boston-Cambridge-Newton,4878211,$88534,30.52%,N/A,$440000,1517,$290,47,78.90%,N/A,47.40%,N/A,N/A,N/A,2.50%,N/A,Plymouth County,50.00%,42.50%,2.0%,3.6%,89.1%,1.6%,N/A,Eastern Standard Time,83,38,45,51,126,37,N/A,N/A,10,78,29,3.3,17.21,MA-18455,42.0351529,-70.9423942,58%,66%,54%
East Pepperell,Massachusetts,1916,1349,Boston-Cambridge-Newton,4878211,$86635,24.15%,40,$489000,1874,$261,49,81.99%,$954,41.87%,N/A,N/A,3.39%,3.22%,66.79%,Middlesex County,65.30%,27.60%,3.44%,0.0%,93.48%,2.45%,6.63%,Eastern Standard Time,83,33,50,47,130,58,58.3,38.3,7,73,29,3.5,1.42,MA-20310,42.6653251,-71.5634107,58%,66%,54%
Essex,Massachusetts,1697,824,Boston-Cambridge-Newton,4878211,$126328,62.52%,46,$978000,2601,$376,57,94.4%,$483,46.37%,N/A,N/A,9.42%,2.56%,69.28%,Essex County,57.70%,35.40%,0.0%,0.0%,100.0%,0.0%,1.24%,Eastern Standard Time,80,35,45,48,114,44,N/A,N/A,9,76,29,3.2,2.06,MA-21815,42.633296,-70.7743117,58%,66%,54%
Everett,Massachusetts,46275,13531,Boston-Cambridge-Newton,4878211,$70627,23.71%,35,$603000,1718,$351,78,42.83%,$1587,56.76%,N/A,N/A,10.87%,5.61%,73.22%,Middlesex County,65.30%,27.60%,7.87%,17.82%,41.31%,29.23%,42.99%,Eastern Standard Time,82,36,46,48,127,48,59.3,39.7,8,47,29,3.5,3.42,MA-21990,42.4064415,-71.0544671,58%,66%,54%
Foxborough,Massachusetts,6119,2125,Boston-Cambridge-Newton,4878211,$66442,47.12%,42,$434000,1373,$316,59,51.3%,$1306,49.7%,N/A,N/A,7.96%,3.53%,66.07%,Norfolk County,60.30%,32.60%,7.39%,16.29%,71.38%,5.82%,11.31%,Eastern Standard Time,83,37,46,50,121,46,N/A,N/A,7,73,29,3.5,2.88,MA-24855,42.0644234,-71.2482657,57%,61%,55%
Framingham,Massachusetts,72846,2909,Boston-Cambridge-Newton,4878211,$86322,49.75%,39,$568000,1797,$316,56,59.95%,$1421,48.38%,N/A,N/A,8.29%,5.74%,72.22%,Middlesex County,65.30%,27.60%,8.46%,6.2%,62.59%,16.49%,28.39%,Eastern Standard Time,83,36,47,49,121,47,N/A,N/A,7,68,29,3.5,25.04,MA-24960,42.3085405,-71.4367564,58%,66%,54%
Franklin Town,Massachusetts,33644,1263,Boston-Cambridge-Newton,4878211,$118193,55.26%,41,$525000,1930,$272,35,86.16%,$1468,42.23%,N/A,N/A,5.29%,4.21%,71.74%,Norfolk County,60.30%,32.60%,5.92%,1.42%,87.56%,2.68%,8.49%,Eastern Standard Time,83,37,46,50,117,44,58.5,38.5,N/A,73,29,3.5,26.64,MA-25172,42.0862129,-71.4112801,57%,61%,55%
Georgetown,Massachusetts,8569,666,Boston-Cambridge-Newton,4878211,$106898,53.43%,N/A,$558000,1656,$337,43,79.20%,$2158,35.10%,N/A,N/A,N/A,2.90%,N/A,Essex County,57.70%,35.40%,0.9%,0.6%,93.0%,3.8%,N/A,Eastern Standard Time,82,34,48,51,119,54,N/A,N/A,9,67,29,3.2,12.87,MA-25625,42.7240056,-70.9821141,58%,66%,54%
Gloucester,Massachusetts,30291,1156,Boston-Cambridge-Newton,4878211,$76260,39.19%,51,$530000,1440,$368,79,67.36%,$1233,46.73%,N/A,N/A,9.6%,5.54%,64.36%,Essex County,57.70%,35.40%,1.91%,2.21%,91.4%,2.91%,8.44%,Eastern Standard Time,80,35,45,49,114,44,59.4,40.1,12,75,29,3.2,26.2,MA-26150,42.6306123,-70.6835946,58%,66%,54%
Green Harbor-Cedar Crest,Massachusetts,2501,1397,Boston-Cambridge-Newton,4878211,$84659,38.62%,N/A,$427000,960,$445,52,58.70%,$2084,38.00%,N/A,N/A,2.2%,3.00%,N/A,Plymouth County,50.00%,42.50%,0.0%,0.0%,99.3%,0.7%,2%,Eastern Standard Time,83,39,44,52,130,43,59.4,40,N/A,84,29,3.3,1.79,MA-27147,42.0748847,-70.6584289,58%,66%,54%
Groton,Massachusetts,1127,675,Boston-Cambridge-Newton,4878211,$101875,47.48%,39,$507000,1988,$255,36,77.5%,$944,67.08%,N/A,N/A,10.12%,4.02%,66.41%,Middlesex County,65.30%,27.60%,5.5%,1.95%,88.29%,6.21%,6.48%,Eastern Standard Time,83,33,50,47,126,57,N/A,N/A,7,74,29,3.5,1.67,MA-27445,42.6083621,-71.5706535,58%,66%,54%
Groveland,Massachusetts,6697,754,Boston-Cambridge-Newton,4878211,$92898,48.75%,N/A,$501000,1627,$308,55,85.10%,N/A,42.20%,N/A,N/A,N/A,2.90%,N/A,Essex County,57.70%,35.40%,0.2%,0.8%,95.0%,4.0%,N/A,Eastern Standard Time,82,34,48,48,130,57,N/A,N/A,7,67,29,3.2,8.88,MA-27620,42.751985,-71.0148715,58%,66%,54%
Halifax,Massachusetts,7739,484,Boston-Cambridge-Newton,4878211,$69917,30.64%,N/A,$402000,1349,$298,44,89.40%,N/A,41.80%,N/A,N/A,N/A,3.00%,N/A,Plymouth County,50.00%,42.50%,0.2%,2.7%,93.8%,2.5%,N/A,Eastern Standard Time,83,39,44,52,129,34,N/A,N/A,11,81,29,3.3,15.99,MA-27795,41.9913872,-70.8632477,58%,66%,54%
Hamilton,Massachusetts,7991,563,Boston-Cambridge-Newton,4878211,$108558,69.29%,N/A,$659000,1721,$383,59,74.50%,N/A,35.70%,N/A,N/A,N/A,2.90%,N/A,Essex County,57.70%,35.40%,5.1%,1.0%,91.5%,1.1%,N/A,Eastern Standard Time,80,35,45,48,114,44,N/A,N/A,9,73,29,3.2,14.19,MA-27900,42.626694,-70.8579622,58%,66%,54%
Hanover,Massachusetts,14328,918,Boston-Cambridge-Newton,4878211,$98750,48.73%,N/A,$625000,1703,$367,47,85.90%,$2219,36.70%,N/A,N/A,N/A,2.60%,N/A,Plymouth County,50.00%,42.50%,1.6%,0.5%,95.7%,0.6%,N/A,Eastern Standard Time,83,38,45,52,129,43,N/A,N/A,10,77,29,3.3,15.61,MA-28285,42.1223975,-70.8566503,58%,66%,54%
Hanscom AFB,Massachusetts,2119,2381,Boston-Cambridge-Newton,4878211,$105625,45.89%,24,N/A,N/A,N/A,42,0.0%,$3135,17.08%,N/A,N/A,0.0%,3.25%,73.02%,Middlesex County,65.30%,27.60%,10.71%,4.81%,52.76%,26.24%,10.1%,Eastern Standard Time,83,35,48,48,135,53,58.4,38.3,N/A,71,29,3.5,0.89,MA-28425,42.4582329,-71.2793216,58%,66%,54%
Hanson,Massachusetts,1880,1022,Boston-Cambridge-Newton,4878211,$115469,35.84%,40,$693000,2586,$268,52,99.2%,N/A,42.86%,N/A,N/A,2.29%,1.46%,67.17%,Plymouth County,50.00%,42.50%,0.59%,0.0%,94.84%,2.66%,2.66%,Eastern Standard Time,83,38,45,50,130,43,N/A,N/A,10,77,29,3.3,1.84,MA-28460,42.0649064,-70.8521278,58%,66%,54%
Haverhill,Massachusetts,63783,1930,Boston-Cambridge-Newton,4878211,$69237,29.42%,38,$475000,1786,$266,60,61.88%,$1222,56.14%,N/A,N/A,12.01%,5.07%,69.44%,Essex County,57.70%,35.40%,1.32%,3.22%,69.19%,23.23%,11.57%,Eastern Standard Time,82,34,48,48,129,56,58,37.8,7,58,29,3.2,33.04,MA-29405,42.7838791,-71.0871577,58%,66%,54%
Hingham,Massachusetts,5837,1883,Boston-Cambridge-Newton,4878211,$172768,76.63%,43,$1325000,2583,$513,50,93.15%,$1598,35.35%,N/A,N/A,5.04%,5.11%,65.22%,Plymouth County,50.00%,42.50%,0.31%,0.75%,98.13%,0.81%,4.28%,Eastern Standard Time,83,37,46,52,129,46,N/A,N/A,10,74,29,3.3,3.1,MA-30175,42.2365143,-70.8879799,58%,66%,54%
Holbrook,Massachusetts,11051,1522,Boston-Cambridge-Newton,4878211,$79718,29.55%,44,$480000,1348,$356,64,83.97%,$944,52.61%,N/A,N/A,6.47%,2.37%,63.19%,Norfolk County,60.30%,32.60%,2.56%,13.65%,72.4%,7.16%,10.6%,Eastern Standard Time,83,38,45,50,129,48,N/A,N/A,7,72,29,3.5,7.26,MA-30420,42.1470502,-71.0056831,58%,66%,54%
Holliston,Massachusetts,14480,777,Boston-Cambridge-Newton,4878211,$108350,66.22%,N/A,$750000,2259,$332,51,89.60%,N/A,34.10%,N/A,N/A,N/A,2.70%,N/A,Middlesex County,65.30%,27.60%,4.2%,1.1%,89.0%,3.7%,N/A,Eastern Standard Time,83,36,47,50,117,44,N/A,N/A,7,72,29,3.5,18.64,MA-30700,42.1977482,-71.4449871,58%,66%,54%
Hopkinton,Massachusetts,3864,2525,Boston-Cambridge-Newton,4878211,$141713,66.06%,44,$540000,1636,$330,61,82.21%,$1700,37.16%,N/A,N/A,2.0%,7.1%,67.77%,Middlesex County,65.30%,27.60%,2.46%,0.65%,89.03%,5.82%,5.54%,Eastern Standard Time,83,36,47,49,117,45,N/A,N/A,7,73,29,3.5,1.53,MA-31050,42.2235767,-71.5228235,58%,66%,54%
Hudson,Massachusetts,15222,2647,Boston-Cambridge-Newton,4878211,$87959,43.11%,44,$531000,1649,$322,52,73.17%,$1270,47.36%,N/A,N/A,5.65%,3.91%,68.8%,Middlesex County,65.30%,27.60%,1.89%,0.75%,86.63%,8.57%,18.28%,Eastern Standard Time,83,35,48,49,125,48,N/A,N/A,7,72,29,3.5,5.75,MA-31575,42.3918283,-71.5644874,58%,66%,54%
Hull,Massachusetts,10478,3651,Boston-Cambridge-Newton,4878211,$105403,50.17%,53,$417000,1341,$311,75,81.43%,$1530,53.98%,N/A,N/A,4.29%,5.36%,72.89%,Plymouth County,50.00%,42.50%,1.13%,0.6%,94.6%,0.83%,4.76%,Eastern Standard Time,83,37,46,51,128,45,N/A,N/A,10,73,29,3.3,2.87,MA-31680,42.308491,-70.8792393,58%,66%,54%
Ipswich,Massachusetts,4826,2943,Boston-Cambridge-Newton,4878211,$72452,51.45%,44,$655000,1326,$494,53,66.33%,$1237,49.81%,N/A,N/A,9.01%,5.15%,69.31%,Essex County,57.70%,35.40%,5.14%,3.92%,85.85%,4.62%,10.98%,Eastern Standard Time,81,35,46,49,117,52,N/A,N/A,9,73,29,3.2,1.64,MA-32275,42.6792246,-70.8307297,58%,66%,54%
Kingston,Massachusetts,6750,1403,Boston-Cambridge-Newton,4878211,$98304,42.45%,42,$366000,1253,$292,59,80.62%,$1082,46.75%,N/A,N/A,6.35%,2.46%,75.18%,Plymouth County,50.00%,42.50%,0.0%,0.7%,91.29%,4.33%,1.19%,Eastern Standard Time,82,38,44,51,130,36,N/A,N/A,10,81,29,3.3,4.81,MA-33185,41.9965419,-70.7224842,58%,66%,54%
Lakeville,Massachusetts,11245,380,Boston-Cambridge-Newton,4878211,$82418,39.23%,N/A,$517000,1494,$346,35,77.50%,$1954,39.90%,N/A,N/A,N/A,2.80%,N/A,Plymouth County,50.00%,42.50%,0.6%,0.4%,95.3%,2.2%,N/A,Eastern Standard Time,83,38,45,51,120,33,N/A,N/A,11,78,29,3.3,29.59,MA-33920,41.8310233,-70.9593886,57%,61%,55%
Lawrence,Massachusetts,80022,11547,Boston-Cambridge-Newton,4878211,$45045,12.51%,32,$450000,1568,$287,79,33.82%,$1188,61.86%,N/A,N/A,20.99%,10.99%,67.52%,Essex County,57.70%,35.40%,2.13%,5.29%,14.08%,81.09%,40.78%,Eastern Standard Time,83,35,48,48,128,54,58.2,38.1,8,56,29,3.2,6.93,MA-34550,42.7002436,-71.162615,58%,66%,54%
Lexington,Massachusetts,33304,2027,Boston-Cambridge-Newton,4878211,$185686,84.9%,46,$1084000,2109,$514,57,84.68%,$2431,31.4%,N/A,N/A,3.2%,3.51%,64.42%,Middlesex County,65.30%,27.60%,30.62%,1.32%,62.03%,1.86%,29.22%,Eastern Standard Time,83,35,48,48,135,52,N/A,N/A,8,66,29,3.5,16.43,MA-35250,42.4456303,-71.2307065,58%,66%,54%
Lincoln,Massachusetts,6696,471,Boston-Cambridge-Newton,4878211,$127763,74.80%,N/A,$1695000,3826,$443,42,56.80%,$2471,28.90%,N/A,N/A,N/A,2.40%,N/A,Middlesex County,65.30%,27.60%,10.3%,3.2%,74.0%,8.8%,N/A,Eastern Standard Time,84,35,49,47,132,53,N/A,N/A,7,72,29,3.5,14.22,MA-35425,42.4266262,-71.308641,58%,66%,54%
Littleton,Massachusetts,9754,590,Boston-Cambridge-Newton,4878211,$111652,55.96%,N/A,$550000,1627,$338,46,84.20%,$2253,41.80%,N/A,N/A,N/A,2.40%,N/A,Middlesex County,65.30%,27.60%,5.9%,0.7%,89.0%,0.8%,N/A,Eastern Standard Time,83,34,49,49,128,56,N/A,N/A,7,72,29,3.5,16.53,MA-35950,42.5350222,-71.4890967,58%,66%,54%
Lowell,Massachusetts,111311,8179,Boston-Cambridge-Newton,4878211,$62196,27.32%,34,$400000,1533,$261,75,46.52%,$1229,61.64%,N/A,N/A,17.31%,5.51%,67.2%,Middlesex County,65.30%,27.60%,21.19%,8.92%,49.83%,17.91%,26.67%,Eastern Standard Time,83,34,49,48,128,56,57.9,37.8,7,62,29,3.5,13.61,MA-37000,42.638871,-71.3217142,58%,66%,54%
Lynn,Massachusetts,94201,8771,Boston-Cambridge-Newton,4878211,$61329,19.45%,35,$525000,1572,$334,78,50.13%,$1241,57.73%,N/A,N/A,15.79%,6.35%,67.3%,Essex County,57.70%,35.40%,6.05%,14.38%,36.27%,43.01%,36.66%,Eastern Standard Time,81,35,46,48,121,42,59.1,39.7,10,56,29,3.2,10.74,MA-37490,42.4744867,-70.9607087,58%,66%,54%
Lynnfield,Massachusetts,12968,1315,Boston-Cambridge-Newton,4878211,$145594,59.46%,41,$850000,2058,$413,55,91.8%,$1742,34.62%,N/A,N/A,4.08%,3.24%,71.34%,Essex County,57.70%,35.40%,4.1%,2.45%,88.07%,1.2%,9.08%,Eastern Standard Time,82,35,47,49,127,48,N/A,N/A,8,64,29,3.2,9.86,MA-37595,42.535633,-71.0381619,58%,66%,54%
Malden,Massachusetts,60710,12046,Boston-Cambridge-Newton,4878211,$73399,40.65%,35,$515000,1471,$350,78,45.1%,$1650,48.87%,N/A,N/A,15.59%,6.66%,68.93%,Middlesex County,65.30%,27.60%,25.41%,16.4%,45.85%,9.63%,42.27%,Eastern Standard Time,82,36,46,48,129,48,59.1,39.5,8,53,29,3.5,5.04,MA-37875,42.4304692,-71.0576168,58%,66%,54%
Manchester-by-the-Sea,Massachusetts,5327,577,Boston-Cambridge-Newton,4878211,$89313,70.77%,N/A,N/A,N/A,N/A,63,68.90%,N/A,34.70%,N/A,N/A,N/A,2.90%,N/A,Essex County,57.70%,35.40%,0.6%,0.0%,97.2%,1.6%,N/A,Eastern Standard Time,80,35,45,49,114,44,N/A,N/A,N/A,76,29,3.2,9.23,MA-37995,42.5625402,-70.7585708,58%,66%,54%
Marblehead,Massachusetts,20530,4687,Boston-Cambridge-Newton,4878211,$131293,73.43%,49,$954000,2158,$442,77,82.69%,$1562,38.91%,N/A,N/A,3.26%,4.15%,66.82%,Essex County,57.70%,35.40%,1.56%,0.39%,91.9%,4.42%,8.63%,Eastern Standard Time,80,35,45,47,122,42,N/A,N/A,10,68,29,3.2,4.38,MA-38435,42.4928084,-70.8348865,58%,66%,54%
Marion,Massachusetts,5065,362,Boston-Cambridge-Newton,4878211,$76607,51.38%,N/A,$631000,2022,$312,43,62.80%,N/A,37.10%,N/A,N/A,N/A,3.00%,N/A,Plymouth County,50.00%,42.50%,0.5%,1.7%,89.3%,1.0%,N/A,Eastern Standard Time,82,38,44,51,125,35,N/A,N/A,13,83,29,3.3,13.99,MA-38540,41.6972239,-70.7433543,57%,61%,55%
Marlborough,Massachusetts,39663,1901,Boston-Cambridge-Newton,4878211,$83469,40.39%,39,$538000,1964,$274,48,62.92%,$1498,47.88%,N/A,N/A,7.21%,4.83%,72.85%,Middlesex County,65.30%,27.60%,5.32%,4.32%,70.0%,14.18%,23.96%,Eastern Standard Time,83,35,48,49,125,44,58.1,37.9,7,71,29,3.5,20.86,MA-38715,42.3494008,-71.5468106,58%,66%,54%
Marshfield,Massachusetts,5190,1028,Boston-Cambridge-Newton,4878211,$95046,57.61%,40,$560000,1767,$317,48,81.05%,$1028,40.62%,N/A,N/A,16.32%,3.53%,75.14%,Plymouth County,50.00%,42.50%,0.48%,0.02%,94.62%,4.7%,3.56%,Eastern Standard Time,83,39,44,52,130,43,59.4,40,10,84,29,3.3,5.05,MA-38820,42.0939576,-70.7048088,58%,66%,54%
Marshfield CDP,Massachusetts,5190,1028,Boston-Cambridge-Newton,4878211,$95046,57.61%,40,$560000,1767,$317,48,81.05%,$1028,40.62%,N/A,N/A,16.32%,3.53%,75.14%,Plymouth County,50.00%,42.50%,0.48%,0.02%,94.62%,4.7%,3.56%,Eastern Standard Time,83,39,44,52,130,43,N/A,N/A,N/A,84,29,3.3,5.05,MA-38820,42.0939576,-70.7048088,58%,66%,54%
Marshfield Hills,Massachusetts,2389,522,Boston-Cambridge-Newton,4878211,$157981,65.43%,47,N/A,N/A,N/A,54,100.0%,$2087,37.16%,N/A,N/A,12.01%,0.0%,66.18%,Plymouth County,50.00%,42.50%,0.0%,0.0%,100.0%,0.0%,3.06%,Eastern Standard Time,83,39,44,52,130,43,59.4,40,10,85,29,3.3,4.58,MA-38960,42.1486162,-70.7314825,58%,66%,54%
Mattapoisett,Massachusetts,6245,360,Boston-Cambridge-Newton,4878211,$78216,48.75%,N/A,$575000,1558,$369,56,61.80%,N/A,41.70%,N/A,N/A,N/A,3.00%,N/A,Plymouth County,50.00%,42.50%,0.1%,0.0%,96.2%,1.7%,N/A,Eastern Standard Time,81,38,43,50,126,35,N/A,N/A,13,85,29,3.3,17.35,MA-39450,41.6606869,-70.8116786,57%,61%,55%
Maynard,Massachusetts,10900,2092,Boston-Cambridge-Newton,4878211,$107891,56.73%,41,$550000,1708,$322,55,83.99%,$1114,41.78%,N/A,N/A,5.4%,3.12%,74.73%,Middlesex County,65.30%,27.60%,4.19%,1.61%,86.49%,2.89%,11.99%,Eastern Standard Time,83,35,48,48,131,50,N/A,N/A,7,70,29,3.5,5.21,MA-39660,42.4263949,-71.4561056,58%,66%,54%
Medfield,Massachusetts,6668,1347,Boston-Cambridge-Newton,4878211,$147868,71.06%,43,$770000,2188,$352,52,87.06%,$1440,32.66%,N/A,N/A,4.18%,3.64%,68.42%,Norfolk County,60.30%,32.60%,4.11%,2.47%,89.82%,1.06%,6.52%,Eastern Standard Time,83,36,47,49,122,47,N/A,N/A,7,72,29,3.5,4.95,MA-39730,42.1870171,-71.3031921,58%,66%,54%
Medford,Massachusetts,58290,7196,Boston-Cambridge-Newton,4878211,$101168,54.69%,35,$688000,1346,$511,79,57.32%,$2003,58.47%,N/A,N/A,8.57%,3.41%,73.47%,Middlesex County,65.30%,27.60%,11.36%,8.92%,68.79%,7.55%,22.08%,Eastern Standard Time,82,36,46,48,134,52,59.2,39.5,8,55,29,3.5,8.1,MA-39835,42.4234233,-71.1086728,58%,66%,54%
Medway,Massachusetts,13162,1140,Boston-Cambridge-Newton,4878211,$109841,59.02%,N/A,$547000,1759,$311,44,86.00%,N/A,40.00%,N/A,N/A,N/A,2.60%,N/A,Norfolk County,60.30%,32.60%,3.1%,2.1%,89.4%,3.8%,N/A,Eastern Standard Time,83,36,47,50,117,44,N/A,N/A,7,72,29,3.5,11.55,MA-39975,42.1535312,-71.4290271,57%,61%,55%
Melrose,Massachusetts,28054,5994,Boston-Cambridge-Newton,4878211,$114604,61.13%,42,$730000,1891,$386,78,75.32%,$1638,43.84%,N/A,N/A,3.91%,4.22%,69.61%,Middlesex County,65.30%,27.60%,9.25%,3.34%,80.36%,3.71%,12.12%,Eastern Standard Time,81,35,46,48,129,48,59,39.3,8,62,29,3.5,4.68,MA-40115,42.4556148,-71.0590082,58%,66%,54%
Merrimac,Massachusetts,6752,798,Boston-Cambridge-Newton,4878211,$80508,43.65%,N/A,$462000,1545,$299,33,84.80%,N/A,37.70%,N/A,N/A,N/A,2.90%,N/A,Essex County,57.70%,35.40%,0.3%,0.1%,96.3%,2.7%,N/A,Eastern Standard Time,82,34,48,50,130,57,N/A,N/A,7,63,29,3.2,8.46,MA-40430,42.8386587,-71.0120406,58%,66%,54%
Methuen Town,Massachusetts,50518,2275,Boston-Cambridge-Newton,4878211,$83527,29.56%,40,$545000,2049,$266,51,76.4%,$1276,52.27%,N/A,N/A,9.09%,6.6%,69.85%,Essex County,57.70%,35.40%,4.71%,5.17%,58.18%,30.18%,23.06%,Eastern Standard Time,83,35,48,48,126,56,57.7,37.6,N/A,62,29,3.2,22.21,MA-40710,42.7339839,-71.1888295,58%,66%,54%
Middleborough,Massachusetts,24213,351,Boston-Cambridge-Newton,4878211,$75727,26.18%,N/A,$475000,1678,$283,40,75.00%,$1431,44.90%,N/A,N/A,N/A,3.10%,N/A,Plymouth County,50.00%,42.50%,0.5%,2.3%,91.9%,1.9%,N/A,Eastern Standard Time,82,38,44,51,121,34,N/A,N/A,N/A,69,29,3.3,68.98,MA-40850,41.8803332,-70.8744164,57%,61%,55%
Middleton,Massachusetts,9656,718,Boston-Cambridge-Newton,4878211,$105646,39.28%,N/A,$545000,1632,$334,33,84.00%,N/A,49.10%,N/A,N/A,N/A,2.90%,N/A,Essex County,57.70%,35.40%,1.1%,1.5%,86.1%,9.5%,N/A,Eastern Standard Time,81,35,46,48,127,48,N/A,N/A,8,66,29,3.2,13.45,MA-41095,42.6043217,-71.016445,58%,66%,54%
Millis,Massachusetts,8144,677,Boston-Cambridge-Newton,4878211,$96773,52.38%,N/A,$580000,2035,$285,43,77.80%,$1673,39.60%,N/A,N/A,N/A,2.60%,N/A,Norfolk County,60.30%,32.60%,1.2%,0.2%,92.7%,5.2%,N/A,Eastern Standard Time,83,36,47,49,121,47,N/A,N/A,7,73,29,3.5,12.03,MA-41515,42.1693167,-71.362559,58%,66%,54%
Millis-Clicquot,Massachusetts,4455,1419,Boston-Cambridge-Newton,4878211,$96343,44.47%,45,$360000,1452,$248,46,81.08%,$1819,46.09%,N/A,N/A,2.1%,1.83%,66.96%,Norfolk County,60.30%,32.60%,1.82%,3.37%,89.85%,3.05%,10.19%,Eastern Standard Time,83,36,47,49,121,47,58.8,39.1,N/A,73,29,3.5,3.14,MA-41532,42.1648312,-71.3544105,58%,66%,54%
Milton,Massachusetts,27590,2121,Boston-Cambridge-Newton,4878211,$141050,62.49%,40,$843000,1998,$422,75,88.58%,$1239,46.24%,N/A,N/A,5.64%,3.32%,70.59%,Norfolk County,60.30%,32.60%,5.76%,17.15%,70.34%,3.53%,16.86%,Eastern Standard Time,83,36,47,50,130,45,N/A,N/A,7,63,29,3.5,13.01,MA-41725,42.241268,-71.0843103,58%,66%,54%
Nahant,Massachusetts,3512,3252,Boston-Cambridge-Newton,4878211,$94243,62.37%,56,N/A,N/A,N/A,78,82.86%,$1574,51.2%,N/A,N/A,3.2%,2.18%,66.24%,Essex County,57.70%,35.40%,2.71%,1.51%,92.48%,1.14%,8.51%,Eastern Standard Time,81,35,46,47,122,42,N/A,N/A,10,72,29,3.2,1.08,MA-43615,42.4145896,-70.9142273,58%,66%,54%
Natick,Massachusetts,35957,2405,Boston-Cambridge-Newton,4878211,$98902,68.78%,N/A,$710000,1888,$376,57,65.60%,$2080,40.60%,N/A,N/A,N/A,2.20%,N/A,Middlesex County,65.30%,27.60%,12.5%,1.7%,80.1%,3.9%,N/A,Eastern Standard Time,83,35,48,48,127,47,N/A,N/A,7,68,29,3.5,14.95,MA-43895,42.2847129,-71.3497033,58%,66%,54%
Needham,Massachusetts,31177,2535,Boston-Cambridge-Newton,4878211,$174707,78.13%,44,$1007000,1811,$556,61,90.69%,$1604,33.17%,N/A,N/A,2.36%,4.36%,64.78%,Norfolk County,60.30%,32.60%,8.71%,2.76%,84.07%,2.64%,13.78%,Eastern Standard Time,83,36,47,49,131,50,N/A,N/A,8,60,29,3.5,12.3,MA-44140,42.281369,-71.2410797,58%,66%,54%
Newbury,Massachusetts,6964,298,Boston-Cambridge-Newton,4878211,$95827,53.06%,N/A,$925000,2307,$401,45,75.40%,N/A,40.10%,N/A,N/A,N/A,2.90%,N/A,Essex County,57.70%,35.40%,0.8%,0.5%,95.4%,2.6%,N/A,Eastern Standard Time,82,35,47,50,119,55,N/A,N/A,7,69,29,3.2,23.37,MA-45175,42.7707972,-70.8729508,58%,66%,54%
Newburyport,Massachusetts,18197,2179,Boston-Cambridge-Newton,4878211,$110740,62.34%,46,$713000,1654,$431,72,79.56%,$1326,43.15%,N/A,N/A,5.53%,5.47%,68.66%,Essex County,57.70%,35.40%,1.73%,1.34%,92.64%,2.69%,7.36%,Eastern Standard Time,82,34,48,50,130,57,57.7,37.9,9,63,29,3.2,8.35,MA-45245,42.812392,-70.8874414,58%,66%,54%
Newton,Massachusetts,88322,4954,Boston-Cambridge-Newton,4878211,$154398,78.72%,41,$1250000,2381,$525,79,75.96%,$1897,44.95%,N/A,N/A,4.31%,3.29%,65.21%,Middlesex County,65.30%,27.60%,15.16%,2.95%,73.53%,4.51%,21.31%,Eastern Standard Time,83,35,48,48,131,50,58.5,38.6,8,59,29,3.5,17.83,MA-45560,42.3316041,-71.2084272,58%,66%,54%
Norfolk,Massachusetts,11671,783,Boston-Cambridge-Newton,4878211,$143682,50.48%,N/A,$687000,2245,$306,35,91.30%,N/A,46.20%,N/A,N/A,N/A,2.60%,N/A,Norfolk County,60.30%,32.60%,1.3%,5.6%,84.1%,7.6%,N/A,Eastern Standard Time,83,36,47,50,119,46,N/A,N/A,7,73,29,3.5,14.91,MA-46050,42.1163168,-71.3295339,57%,61%,55%
North Andover,Massachusetts,30170,1147,Boston-Cambridge-Newton,4878211,$100544,59.71%,N/A,$638000,1975,$323,42,67.40%,$2096,42.90%,N/A,N/A,N/A,2.70%,N/A,Essex County,57.70%,35.40%,6.2%,2.6%,82.8%,6.0%,N/A,Eastern Standard Time,83,35,48,48,127,54,N/A,N/A,8,65,29,3.2,26.3,MA-46365,42.6713466,-71.086519,58%,66%,54%
North Lakeville,Massachusetts,3226,639,Boston-Cambridge-Newton,4878211,$71447,31.2%,38,$500000,1462,$342,40,71.81%,$1548,50.78%,N/A,N/A,10.44%,3.39%,68.73%,Plymouth County,50.00%,42.50%,0.59%,5.49%,88.31%,2.73%,5.36%,Eastern Standard Time,83,38,45,51,120,33,59.4,40,N/A,75,29,3.3,5.05,MA-48220,41.8620074,-70.9410811,57%,61%,55%
North Pembroke,Massachusetts,4159,930,Boston-Cambridge-Newton,4878211,$141339,39.04%,51,N/A,N/A,N/A,42,81.63%,$2182,35.25%,N/A,N/A,2.96%,2.33%,59.29%,Plymouth County,50.00%,42.50%,0.7%,1.35%,90.26%,1.01%,3.01%,Eastern Standard Time,82,38,44,51,129,43,59.4,40,10,81,29,3.3,4.47,MA-48710,42.0988995,-70.7822765,58%,66%,54%
North Plymouth,Massachusetts,4258,3406,Boston-Cambridge-Newton,4878211,$51875,29.16%,42,$589000,1688,$349,74,45.07%,$1598,60.67%,N/A,N/A,16.84%,14.03%,73.14%,Plymouth County,50.00%,42.50%,0.0%,3.99%,84.05%,8.36%,16.93%,Eastern Standard Time,81,38,43,51,129,36,59.4,40,12,74,29,3.3,1.25,MA-48780,41.979285,-70.677709,58%,66%,54%
North Reading,Massachusetts,15598,1187,Boston-Cambridge-Newton,4878211,$112419,50.97%,N/A,$710000,2064,$344,44,84.00%,$2273,40.80%,N/A,N/A,N/A,2.20%,N/A,Middlesex County,65.30%,27.60%,5.3%,1.2%,90.1%,1.3%,N/A,Eastern Standard Time,82,36,46,49,128,48,N/A,N/A,8,70,29,3.5,13.14,MA-48955,42.5815579,-71.0875714,58%,66%,54%
North Scituate,Massachusetts,5372,1433,Boston-Cambridge-Newton,4878211,$116417,73.36%,48,$1100000,2494,$441,61,98.11%,N/A,44.5%,N/A,N/A,3.5%,6.32%,69.34%,Plymouth County,50.00%,42.50%,6.12%,0.15%,93.43%,0.02%,5.94%,Eastern Standard Time,83,39,44,52,129,43,59.4,40,10,79,29,3.3,3.75,MA-49165,42.2121284,-70.7651236,58%,66%,54%
Norwell,Massachusetts,10897,521,Boston-Cambridge-Newton,4878211,$110671,65.41%,N/A,$825000,2391,$345,48,88.60%,N/A,34.70%,N/A,N/A,N/A,2.50%,N/A,Plymouth County,50.00%,42.50%,0.9%,0.4%,94.9%,1.9%,N/A,Eastern Standard Time,83,38,45,52,129,43,N/A,N/A,10,80,29,3.3,20.92,MA-50145,42.160753,-70.8176987,58%,66%,54%
Norwood,Massachusetts,29446,2837,Boston-Cambridge-Newton,4878211,$90341,50.12%,40,$629000,1823,$345,61,60.03%,$1655,46.87%,N/A,N/A,8.1%,2.91%,71.03%,Norfolk County,60.30%,32.60%,5.47%,8.53%,77.57%,6.59%,18.95%,Eastern Standard Time,83,36,47,49,128,47,N/A,N/A,7,65,29,3.5,10.38,MA-50285,42.1860475,-71.1948205,58%,66%,54%
Ocean Bluff-Brant Rock,Massachusetts,4843,2232,Boston-Cambridge-Newton,4878211,$80000,37.22%,50,$550000,1185,$464,65,91.26%,$1099,52.53%,N/A,N/A,7.04%,4.74%,69.18%,Plymouth County,50.00%,42.50%,0.0%,0.64%,97.4%,1.18%,1.2%,Eastern Standard Time,83,39,44,52,130,43,59.4,40,N/A,83,29,3.3,2.17,MA-50862,42.102354,-70.6573763,58%,66%,54%
Onset,Massachusetts,1049,971,Boston-Cambridge-Newton,4878211,$33614,30.92%,55,$300000,444,$675,78,68.43%,$1253,60.46%,N/A,N/A,39.28%,20.5%,53.8%,Plymouth County,50.00%,42.50%,0.0%,11.53%,68.92%,0.0%,1.24%,Eastern Standard Time,81,37,44,51,114,36,59.4,40,13,83,29,3.3,1.08,MA-51160,41.7481264,-70.66699,57%,61%,55%
Peabody,Massachusetts,53004,3264,Boston-Cambridge-Newton,4878211,$80681,34.62%,47,$599000,1678,$357,55,69.94%,$1503,50.25%,N/A,N/A,7.7%,4.05%,64.9%,Essex County,57.70%,35.40%,1.27%,3.54%,81.89%,11.61%,15.59%,Eastern Standard Time,81,35,46,48,121,42,58.8,39.1,9,62,29,3.2,16.24,MA-52490,42.5335293,-70.9724663,58%,66%,54%
Pembroke,Massachusetts,18230,837,Boston-Cambridge-Newton,4878211,$89954,38.80%,N/A,$475000,1667,$285,42,81.90%,$2816,42.60%,N/A,N/A,N/A,2.70%,N/A,Plymouth County,50.00%,42.50%,1.5%,0.5%,93.5%,1.8%,N/A,Eastern Standard Time,82,38,44,51,129,43,N/A,N/A,10,80,29,3.3,21.78,MA-52630,42.065488,-70.8014201,58%,66%,54%
Pepperell,Massachusetts,2685,1297,Boston-Cambridge-Newton,4878211,$81538,27.54%,45,$423000,1792,$236,54,62.53%,$929,58.32%,N/A,N/A,16.99%,6.02%,61.95%,Middlesex County,65.30%,27.60%,2.38%,2.2%,89.68%,3.13%,3.54%,Eastern Standard Time,83,33,50,47,130,58,N/A,N/A,7,75,29,3.5,2.07,MA-52770,42.6694127,-71.5903878,58%,66%,54%
Pinehurst,Massachusetts,6997,1876,Boston-Cambridge-Newton,4878211,$108647,31.76%,42,$575000,2122,$271,52,92.3%,$1707,36.92%,N/A,N/A,4.3%,3.1%,66.17%,Middlesex County,65.30%,27.60%,8.22%,2.17%,85.77%,1.46%,10.25%,Eastern Standard Time,83,35,48,48,132,55,58.3,38.3,8,71,29,3.5,3.73,MA-53680,42.5333557,-71.2339554,58%,66%,54%
Plainville,Massachusetts,9000,818,Boston-Cambridge-Newton,4878211,$78516,43.57%,N/A,$361000,1241,$291,41,67.30%,$1891,40.60%,N/A,N/A,N/A,2.60%,N/A,Norfolk County,60.30%,32.60%,2.0%,0.7%,95.3%,0.2%,N/A,Eastern Standard Time,83,37,46,51,121,41,N/A,N/A,7,71,29,3.5,11.0,MA-54100,42.0140999,-71.3364388,57%,61%,55%
Plymouth,Massachusetts,6949,3102,Boston-Cambridge-Newton,4878211,$65647,33.28%,49,$723000,2054,$352,40,64.32%,$1243,57.2%,N/A,N/A,5.93%,5.49%,69.89%,Plymouth County,50.00%,42.50%,0.36%,2.35%,90.85%,3.19%,7.43%,Eastern Standard Time,81,38,43,51,129,36,N/A,N/A,12,82,29,3.3,2.24,MA-54275,41.9578757,-70.663581,58%,66%,54%
Plympton,Massachusetts,2912,198,Boston-Cambridge-Newton,4878211,$94505,33.26%,N/A,$550000,2015,$273,38,81.30%,N/A,41.00%,N/A,N/A,N/A,3.00%,N/A,Plymouth County,50.00%,42.50%,0.5%,1.0%,95.8%,1.8%,N/A,Eastern Standard Time,82,38,44,51,130,34,N/A,N/A,11,82,29,3.3,14.71,MA-54415,41.9634563,-70.8097314,58%,66%,54%
Quincy,Massachusetts,94389,5696,Boston-Cambridge-Newton,4878211,$80462,45.64%,39,$620000,1449,$428,63,52.3%,$1659,52.97%,N/A,N/A,9.82%,5.82%,69.8%,Norfolk County,60.30%,32.60%,29.77%,5.72%,57.95%,3.75%,32.89%,Eastern Standard Time,82,36,46,49,128,45,59.6,40.2,8,63,29,3.5,16.57,MA-55745,42.262159,-71.0072208,58%,66%,54%
Randolph,Massachusetts,33704,3429,Boston-Cambridge-Newton,4878211,$63259,N/A,N/A,$529000,1628,$325,50,N/A,$2135,53.80%,N/A,N/A,9.5%,2.60%,N/A,Norfolk County,60.30%,32.60%,12.4%,38.4%,36.2%,7.9%,32.2%,Eastern Standard Time,84,37,47,48,128,48,N/A,N/A,7,70,29,3.5,9.83,MA-55990,42.177847,-71.0539613,58%,66%,54%
Reading,Massachusetts,25236,2529,Boston-Cambridge-Newton,4878211,$131515,63.42%,44,$791000,2087,$379,62,89.26%,$1363,35.23%,N/A,N/A,3.04%,2.74%,70.09%,Middlesex County,65.30%,27.60%,5.33%,0.71%,88.66%,3.56%,9.36%,Eastern Standard Time,82,35,47,49,128,48,N/A,N/A,8,65,29,3.5,9.98,MA-56165,42.5350552,-71.1055739,58%,66%,54%
Revere,Massachusetts,53400,9368,Boston-Cambridge-Newton,4878211,$68331,24.1%,39,$570000,1579,$361,61,55.06%,$1462,52.8%,N/A,N/A,12.42%,7.0%,68.68%,Suffolk County,78.40%,16.10%,3.75%,4.61%,51.52%,37.33%,40.08%,Eastern Standard Time,81,35,46,47,127,47,59.3,39.9,10,49,29,3.4,5.7,MA-56585,42.4187096,-70.9914535,58%,66%,54%
Rochester,Massachusetts,5462,163,Boston-Cambridge-Newton,4878211,$94688,47.89%,N/A,$515000,1678,$307,34,90.70%,N/A,34.60%,N/A,N/A,N/A,3.00%,N/A,Plymouth County,50.00%,42.50%,1.9%,0.8%,94.5%,1.4%,N/A,Eastern Standard Time,82,38,44,51,124,35,N/A,N/A,13,84,29,3.3,33.51,MA-57600,41.7599814,-70.8384778,57%,61%,55%
Rockland,Massachusetts,17849,1780,Boston-Cambridge-Newton,4878211,$66860,33.73%,N/A,$455000,1458,$312,54,69.90%,$1838,52.80%,N/A,N/A,N/A,2.80%,N/A,Plymouth County,50.00%,42.50%,0.5%,3.4%,91.5%,2.0%,N/A,Eastern Standard Time,83,38,45,50,129,45,N/A,N/A,10,72,29,3.3,10.03,MA-57775,42.1294949,-70.9100229,58%,66%,54%
Rockport,Massachusetts,5247,1318,Boston-Cambridge-Newton,4878211,$85667,60.41%,59,$1261000,2340,$539,80,74.1%,$1545,43.83%,N/A,N/A,5.83%,6.88%,56.18%,Essex County,57.70%,35.40%,0.1%,0.08%,96.32%,1.94%,3.75%,Eastern Standard Time,80,35,45,49,114,46,N/A,N/A,12,80,29,3.2,3.98,MA-57845,42.6451019,-70.6158197,58%,66%,54%
Rowley,Massachusetts,1803,1054,Boston-Cambridge-Newton,4878211,$92949,54.63%,52,$719000,2624,$274,41,90.02%,$1342,40.78%,N/A,N/A,0.0%,2.79%,73.32%,Essex County,57.70%,35.40%,2.72%,0.0%,95.17%,1.44%,2.33%,Eastern Standard Time,82,35,47,50,117,54,N/A,N/A,9,67,29,3.2,1.71,MA-58370,42.7186322,-70.8749746,58%,66%,54%
Salem,Massachusetts,43350,5229,Boston-Cambridge-Newton,4878211,$66428,45.11%,38,$527000,1506,$350,78,52.93%,$1325,59.62%,N/A,N/A,15.88%,4.58%,68.77%,Essex County,57.70%,35.40%,2.61%,6.72%,70.59%,18.34%,14.47%,Eastern Standard Time,80,35,45,47,122,42,59,39.5,9,64,29,3.2,8.29,MA-59105,42.5138568,-70.8983295,58%,66%,54%
Salisbury,Massachusetts,5116,870,Boston-Cambridge-Newton,4878211,$79805,46.55%,47,$535000,1186,$451,40,80.24%,$1471,50.99%,N/A,N/A,6.94%,3.47%,65.74%,Essex County,57.70%,35.40%,1.54%,0.0%,89.7%,8.21%,5.63%,Eastern Standard Time,82,34,48,50,129,56,N/A,N/A,9,67,29,3.2,5.88,MA-59210,42.83443,-70.839241,58%,66%,54%
Saugus,Massachusetts,28326,2628,Boston-Cambridge-Newton,4878211,$88463,28.68%,46,$622000,1803,$345,60,81.79%,$965,46.65%,N/A,N/A,7.91%,4.3%,65.46%,Essex County,57.70%,35.40%,5.0%,2.34%,82.4%,8.46%,13.88%,Eastern Standard Time,81,35,46,48,129,47,N/A,N/A,N/A,62,29,3.2,10.78,MA-60050,42.4680573,-71.0144347,58%,66%,54%
Scituate,Massachusetts,5905,1454,Boston-Cambridge-Newton,4878211,$112455,49.15%,52,$927000,2341,$396,57,86.89%,$2087,45.16%,N/A,N/A,3.83%,1.14%,63.09%,Plymouth County,50.00%,42.50%,0.0%,0.0%,89.72%,2.52%,9.23%,Eastern Standard Time,83,39,44,52,129,43,N/A,N/A,10,80,29,3.3,4.06,MA-60295,42.1864188,-70.7341099,58%,66%,54%
Sharon,Massachusetts,6217,2079,Boston-Cambridge-Newton,4878211,$148009,75.24%,40,$800000,2395,$334,66,93.05%,$1465,32.43%,N/A,N/A,1.34%,2.69%,71.68%,Norfolk County,60.30%,32.60%,9.44%,0.77%,81.47%,3.57%,17.97%,Eastern Standard Time,83,36,47,49,121,46,N/A,N/A,7,73,29,3.5,2.99,MA-60820,42.117398,-71.1835121,58%,66%,54%
Sherborn,Massachusetts,4302,272,Boston-Cambridge-Newton,4878211,$155564,83.58%,N/A,$930000,2527,$368,47,91.40%,N/A,31.50%,N/A,N/A,N/A,2.40%,N/A,Middlesex County,65.30%,27.60%,4.1%,0.4%,89.4%,2.9%,N/A,Eastern Standard Time,83,36,47,49,121,47,N/A,N/A,7,74,29,3.5,15.82,MA-61380,42.2341714,-71.375322,58%,66%,54%
Shirley,Massachusetts,1716,1300,Boston-Cambridge-Newton,4878211,$61797,17.68%,57,N/A,N/A,N/A,41,64.8%,$810,49.87%,N/A,N/A,6.24%,0.0%,65.64%,Middlesex County,65.30%,27.60%,0.0%,0.0%,100.0%,0.0%,7.58%,Eastern Standard Time,83,34,49,48,127,56,N/A,N/A,7,76,29,3.5,1.32,MA-61555,42.5398005,-71.6585555,58%,66%,54%
Somerville,Massachusetts,81175,19703,Boston-Cambridge-Newton,4878211,$102311,65.65%,32,$958000,1607,$596,78,35.11%,$2026,67.64%,N/A,N/A,11.32%,3.01%,80.05%,Middlesex County,65.30%,27.60%,9.86%,5.57%,69.84%,11.42%,23.94%,Eastern Standard Time,82,36,46,48,134,51,59.2,39.6,8,46,29,3.5,4.12,MA-62535,42.3907393,-71.1013518,58%,66%,54%
South Duxbury,Massachusetts,3338,1135,Boston-Cambridge-Newton,4878211,$165516,80.07%,47,$929000,1873,$496,60,95.22%,$1680,31.87%,N/A,N/A,2.13%,5.13%,66.21%,Plymouth County,50.00%,42.50%,1.38%,0.03%,96.43%,0.84%,3.89%,Eastern Standard Time,82,38,44,52,130,39,59.4,40,N/A,83,29,3.3,2.94,MA-63690,42.0167563,-70.6891633,58%,66%,54%
Stoneham,Massachusetts,23625,3924,Boston-Cambridge-Newton,4878211,$103104,48.98%,42,$724000,2099,$345,59,72.84%,$1522,44.06%,N/A,N/A,4.99%,3.46%,72.27%,Middlesex County,65.30%,27.60%,5.38%,2.9%,85.41%,4.12%,13.3%,Eastern Standard Time,82,34,48,50,133,51,N/A,N/A,8,64,29,3.5,6.02,MA-67700,42.4740894,-71.0971622,58%,66%,54%
Stoughton,Massachusetts,28338,1761,Boston-Cambridge-Newton,4878211,$74688,37.56%,N/A,$430000,1396,$308,49,67.90%,$1923,48.50%,N/A,N/A,N/A,3.00%,N/A,Norfolk County,60.30%,32.60%,4.0%,14.0%,72.8%,4.5%,N/A,Eastern Standard Time,84,37,47,48,128,47,N/A,N/A,7,71,29,3.5,16.09,MA-67945,42.1192185,-71.1019009,58%,66%,54%
Stow,Massachusetts,7061,408,Boston-Cambridge-Newton,4878211,$131500,73.62%,N/A,$550000,1916,$287,40,86.30%,$1643,33.00%,N/A,N/A,N/A,2.40%,N/A,Middlesex County,65.30%,27.60%,4.0%,0.0%,91.0%,2.5%,N/A,Eastern Standard Time,83,35,48,48,131,48,N/A,N/A,7,75,29,3.5,17.31,MA-68050,42.4298311,-71.5114795,58%,66%,54%
Sudbury,Massachusetts,18697,770,Boston-Cambridge-Newton,4878211,$169505,80.47%,N/A,$1030000,2893,$356,46,90.10%,$3293,29.00%,N/A,N/A,N/A,2.30%,N/A,Middlesex County,65.30%,27.60%,10.1%,0.6%,84.7%,1.8%,N/A,Eastern Standard Time,83,35,48,49,131,50,N/A,N/A,7,74,29,3.5,24.28,MA-68260,42.3847031,-71.4233748,58%,66%,54%
Swampscott,Massachusetts,15184,5028,Boston-Cambridge-Newton,4878211,$102898,59.16%,45,$627000,1708,$367,78,76.37%,$2027,37.13%,N/A,N/A,4.92%,5.77%,68.3%,Essex County,57.70%,35.40%,2.4%,1.54%,90.29%,5.03%,17.56%,Eastern Standard Time,80,35,45,48,122,42,N/A,N/A,10,65,29,3.2,3.02,MA-68680,42.4679873,-70.8923851,58%,66%,54%
Tewksbury,Massachusetts,30666,1481,Boston-Cambridge-Newton,4878211,$87496,38.29%,N/A,$540000,1538,$351,39,83.00%,$2215,45.90%,N/A,N/A,N/A,2.60%,N/A,Middlesex County,65.30%,27.60%,3.8%,1.6%,91.2%,1.6%,N/A,Eastern Standard Time,83,34,49,50,132,55,N/A,N/A,8,71,29,3.5,20.71,MA-69415,42.61204,-71.2278353,58%,66%,54%
The Pinehills,Massachusetts,4531,1111,Boston-Cambridge-Newton,4878211,$106964,63.22%,68,$810000,2862,$283,12,92.01%,$2259,33.01%,N/A,N/A,3.51%,0.52%,38.63%,Plymouth County,50.00%,42.50%,1.39%,0.0%,98.61%,0.0%,5.16%,Eastern Standard Time,81,38,43,51,129,36,59.4,40,N/A,86,29,3.3,4.08,MA-69585,41.8945768,-70.5966013,58%,66%,54%
Topsfield,Massachusetts,3046,1124,Boston-Cambridge-Newton,4878211,$139077,68.77%,41,$465000,1329,$350,51,88.9%,$850,39.9%,N/A,N/A,7.94%,4.3%,60.33%,Essex County,57.70%,35.40%,2.36%,0.0%,93.37%,4.5%,4.53%,Eastern Standard Time,81,36,45,49,115,44,N/A,N/A,9,66,29,3.2,2.71,MA-70115,42.6393136,-70.9551366,58%,66%,54%
Townsend,Massachusetts,1276,755,Boston-Cambridge-Newton,4878211,$66767,25.09%,40,$309000,1343,$230,61,74.19%,$833,59.88%,N/A,N/A,9.8%,2.66%,69.05%,Middlesex County,65.30%,27.60%,5.49%,5.17%,76.33%,8.86%,8.07%,Eastern Standard Time,83,33,50,47,128,59,N/A,N/A,7,80,29,3.5,1.69,MA-70325,42.6716797,-71.7040545,55%,62%,53%
Tyngsborough,Massachusetts,12232,729,Boston-Cambridge-Newton,4878211,$93108,48.71%,N/A,$265000,914,$290,32,80.20%,$1549,42.00%,N/A,N/A,N/A,2.80%,N/A,Middlesex County,65.30%,27.60%,8.1%,0.5%,84.6%,3.1%,N/A,Eastern Standard Time,83,33,50,47,120,56,N/A,N/A,7,71,29,3.5,16.78,MA-71025,42.6661917,-71.4290285,58%,66%,54%
Wakefield,Massachusetts,27041,3659,Boston-Cambridge-Newton,4878211,$103696,53.61%,43,$653000,1705,$383,65,79.43%,$1513,42.54%,N/A,N/A,4.95%,2.67%,69.81%,Middlesex County,65.30%,27.60%,2.63%,1.01%,91.11%,3.58%,7.53%,Eastern Standard Time,82,35,47,49,128,48,N/A,N/A,8,62,29,3.5,7.39,MA-72250,42.5035042,-71.0655908,58%,66%,54%
Walpole,Massachusetts,6211,2210,Boston-Cambridge-Newton,4878211,$98795,50.56%,42,$580000,1616,$359,60,79.1%,$1520,46.65%,N/A,N/A,5.24%,4.54%,70.0%,Norfolk County,60.30%,32.60%,3.78%,0.9%,87.33%,7.57%,12.56%,Eastern Standard Time,83,36,47,49,122,47,N/A,N/A,7,70,29,3.5,2.81,MA-72460,42.1370827,-71.2438199,58%,66%,54%
Waltham,Massachusetts,62597,4913,Boston-Cambridge-Newton,4878211,$95851,52.5%,34,$720000,1915,$376,62,52.53%,$1774,60.98%,N/A,N/A,9.2%,2.58%,69.27%,Middlesex County,65.30%,27.60%,11.79%,7.59%,64.48%,14.28%,26.62%,Eastern Standard Time,83,35,48,48,131,50,58.5,38.5,8,61,29,3.5,12.74,MA-72600,42.3889141,-71.2423132,58%,66%,54%
Wareham,Massachusetts,22535,628,Boston-Cambridge-Newton,4878211,$62560,24.10%,N/A,$413000,1177,$351,53,54.30%,N/A,53.80%,N/A,N/A,N/A,3.50%,N/A,Plymouth County,50.00%,42.50%,0.8%,2.3%,84.3%,2.9%,N/A,Eastern Standard Time,81,38,43,51,121,35,N/A,N/A,12,82,29,3.3,35.88,MA-72985,41.760446,-70.6985424,57%,61%,55%
Watertown Town,Massachusetts,35749,8937,Boston-Cambridge-Newton,4878211,$100434,65.97%,40,$775000,1615,$480,75,53.56%,$1876,50.48%,N/A,N/A,6.39%,5.21%,73.86%,Middlesex County,65.30%,27.60%,12.2%,3.0%,73.64%,7.24%,23.18%,Eastern Standard Time,83,35,48,47,134,53,58.6,38.8,N/A,56,29,3.5,4.0,MA-73440,42.3699733,-71.1774323,58%,66%,54%
Wayland,Massachusetts,13700,911,Boston-Cambridge-Newton,4878211,$142306,80.73%,N/A,$823000,2280,$361,58,85.10%,N/A,30.80%,N/A,N/A,N/A,2.30%,N/A,Middlesex County,65.30%,27.60%,11.0%,0.7%,82.5%,3.9%,N/A,Eastern Standard Time,83,35,48,48,131,50,N/A,N/A,7,69,29,3.5,15.04,MA-73790,42.3585413,-71.3593699,58%,66%,54%
Wellesley,Massachusetts,28747,2869,Boston-Cambridge-Newton,4878211,$213684,84.05%,35,$1500000,2530,$593,65,86.08%,$2177,45.54%,N/A,N/A,4.23%,4.71%,58.75%,Norfolk County,60.30%,32.60%,13.6%,2.92%,75.04%,5.15%,17.47%,Eastern Standard Time,83,35,48,49,128,50,N/A,N/A,7,65,29,3.5,10.02,MA-74210,42.3043039,-71.2854442,58%,66%,54%
Wenham,Massachusetts,5179,676,Boston-Cambridge-Newton,4878211,$116875,N/A,N/A,$600000,2390,$251,57,87.80%,N/A,56.80%,N/A,N/A,N/A,2.90%,N/A,Essex County,57.70%,35.40%,2.9%,1.9%,89.7%,4.7%,N/A,Eastern Standard Time,80,35,45,48,114,44,N/A,N/A,9,69,29,3.2,7.66,MA-74595,42.6007973,-70.88264,58%,66%,54%
West Bridgewater,Massachusetts,7117,465,Boston-Cambridge-Newton,4878211,$81573,35.44%,N/A,$475000,1673,$284,59,80.30%,N/A,46.30%,N/A,N/A,N/A,3.00%,N/A,Plymouth County,50.00%,42.50%,0.1%,1.7%,91.9%,4.3%,N/A,Eastern Standard Time,83,37,46,51,118,39,N/A,N/A,7,77,29,3.3,15.31,MA-75260,42.0213916,-71.0266869,58%,66%,54%
West Concord,Massachusetts,7294,2158,Boston-Cambridge-Newton,4878211,$132619,63.48%,41,$1203000,2785,$432,44,58.29%,$2259,52.54%,N/A,N/A,3.95%,3.81%,48.36%,Middlesex County,65.30%,27.60%,4.33%,8.72%,72.07%,12.57%,12.9%,Eastern Standard Time,83,35,48,48,131,51,58.3,38.3,7,71,29,3.5,3.38,MA-75680,42.4517618,-71.4035411,58%,66%,54%
West Newbury,Massachusetts,4545,338,Boston-Cambridge-Newton,4878211,$122969,62.35%,N/A,$778000,2198,$354,41,86.20%,N/A,29.00%,N/A,N/A,N/A,2.90%,N/A,Essex County,57.70%,35.40%,0.9%,0.0%,97.4%,1.0%,N/A,Eastern Standard Time,82,34,48,50,130,57,N/A,N/A,7,70,29,3.2,13.45,MA-77150,42.7939122,-70.9690947,58%,66%,54%
West Wareham,Massachusetts,2398,641,Boston-Cambridge-Newton,4878211,$48583,11.71%,58,$715000,1902,$376,40,89.37%,$1303,61.51%,N/A,N/A,5.09%,4.88%,61.34%,Plymouth County,50.00%,42.50%,0.33%,0.88%,89.62%,0.58%,2.17%,Eastern Standard Time,82,38,44,51,124,35,59.4,40,11,79,29,3.3,3.74,MA-78410,41.7899975,-70.7549885,57%,61%,55%
Westford,Massachusetts,24087,796,Boston-Cambridge-Newton,4878211,$125143,67.40%,N/A,$737000,2261,$326,34,83.40%,$2403,32.40%,N/A,N/A,N/A,2.40%,N/A,Middlesex County,65.30%,27.60%,17.7%,0.4%,78.4%,2.2%,N/A,Eastern Standard Time,83,34,49,48,128,56,N/A,N/A,7,71,29,3.5,30.26,MA-76135,42.5864179,-71.4400641,58%,66%,54%
Weston,Massachusetts,12027,715,Boston-Cambridge-Newton,4878211,$201200,82.79%,N/A,$2225000,4151,$536,54,81.90%,$1869,39.00%,N/A,N/A,N/A,2.00%,N/A,Middlesex County,65.30%,27.60%,10.7%,1.7%,79.7%,4.1%,N/A,Eastern Standard Time,83,35,48,48,131,50,N/A,N/A,8,71,29,3.5,16.82,MA-77255,42.3589289,-71.3000811,58%,66%,54%
Westwood,Massachusetts,15597,1434,Boston-Cambridge-Newton,4878211,$128813,71.48%,N/A,$1010000,2235,$452,52,78.80%,$2799,35.50%,N/A,N/A,N/A,2.30%,N/A,Norfolk County,60.30%,32.60%,7.5%,0.3%,88.2%,1.9%,N/A,Eastern Standard Time,83,36,47,48,122,47,N/A,N/A,7,62,29,3.5,10.88,MA-78690,42.2202588,-71.2106395,58%,66%,54%
Weweantic,Massachusetts,1287,1013,Boston-Cambridge-Newton,4878211,$74866,29.25%,51,$440000,1053,$418,46,94.17%,$397,46.72%,N/A,N/A,0.78%,1.97%,66.39%,Plymouth County,50.00%,42.50%,3.19%,2.33%,80.34%,0.0%,0.0%,Eastern Standard Time,82,38,44,51,124,35,59.4,40,N/A,79,29,3.3,1.27,MA-78850,41.7323422,-70.732257,57%,61%,55%
Weymouth Town,Massachusetts,57213,3412,Boston-Cambridge-Newton,4878211,$85536,40.03%,N/A,$500000,1389,$360,58,73.29%,$2028,51.10%,N/A,N/A,6.35%,6.34%,70.25%,Norfolk County,60.30%,32.60%,6.25%,5.58%,82.03%,4.06%,12.75%,Eastern Standard Time,83,38,45,52,129,46,59.4,40,N/A,71,29,3.5,16.77,MA-78900,42.2068172,-70.944337,58%,66%,54%
White Island Shores,Massachusetts,2409,2077,Boston-Cambridge-Newton,4878211,$92353,11.74%,38,$443000,1438,$308,48,80.82%,$1278,57.58%,N/A,N/A,11.96%,5.96%,72.49%,Plymouth County,50.00%,42.50%,2.45%,0.0%,76.05%,6.64%,0.66%,Eastern Standard Time,81,38,43,50,118,36,59.4,40,N/A,85,29,3.3,1.16,MA-79390,41.7932106,-70.6389381,57%,61%,55%
Whitman,Massachusetts,14864,2142,Boston-Cambridge-Newton,4878211,$76494,28.96%,N/A,$455000,1661,$274,63,67.80%,$1761,51.40%,N/A,N/A,N/A,2.90%,N/A,Plymouth County,50.00%,42.50%,0.9%,0.7%,94.0%,2.2%,N/A,Eastern Standard Time,83,38,45,50,129,45,N/A,N/A,10,73,29,3.3,6.94,MA-79530,42.079995,-70.9399189,58%,66%,54%
Wilmington,Massachusetts,23390,1378,Boston-Cambridge-Newton,4878211,$133873,48.33%,41,$665000,1873,$355,44,89.81%,$2009,41.73%,N/A,N/A,2.77%,4.39%,73.34%,Middlesex County,65.30%,27.60%,5.44%,2.91%,86.59%,1.22%,9.86%,Eastern Standard Time,83,36,47,48,133,53,N/A,N/A,8,67,29,3.5,16.97,MA-80195,42.5609155,-71.1654058,58%,66%,54%
Winchester,Massachusetts,22760,3774,Boston-Cambridge-Newton,4878211,$173058,75.34%,42,$1259000,2543,$495,67,87.49%,$2068,37.36%,N/A,N/A,2.82%,2.76%,65.71%,Middlesex County,65.30%,27.60%,14.51%,0.9%,77.32%,2.31%,17.69%,Eastern Standard Time,82,35,47,47,135,53,N/A,N/A,8,65,29,3.5,6.03,MA-80545,42.4517894,-71.146306,58%,66%,54%
Winthrop Town,Massachusetts,18558,9326,Boston-Cambridge-Newton,4878211,$76996,40.53%,N/A,$523000,1072,$488,78,62.45%,$2093,50.50%,N/A,N/A,7.86%,5.79%,70.54%,Suffolk County,78.40%,16.10%,0.75%,4.27%,82.69%,11.66%,15.24%,Eastern Standard Time,83,36,47,48,126,44,59.4,40,N/A,47,29,3.4,1.99,MA-80965,42.3794297,-70.965676,58%,66%,54%
Woburn,Massachusetts,40297,3186,Boston-Cambridge-Newton,4878211,$92084,47.1%,40,$585000,1519,$385,54,60.72%,$1763,50.54%,N/A,N/A,5.72%,5.56%,71.22%,Middlesex County,65.30%,27.60%,10.13%,4.75%,76.52%,6.27%,19.17%,Eastern Standard Time,83,35,48,49,134,52,58.7,38.8,8,65,29,3.5,12.65,MA-81035,42.4868785,-71.1542665,58%,66%,54%
Wrentham,Massachusetts,11597,534,Boston-Cambridge-Newton,4878211,$99302,51.39%,N/A,$485000,1283,$378,38,83.20%,$2156,42.00%,N/A,N/A,N/A,2.40%,N/A,Norfolk County,60.30%,32.60%,0.8%,2.0%,94.1%,2.8%,N/A,Eastern Standard Time,83,37,46,50,119,46,N/A,N/A,7,71,29,3.5,21.72,MA-82315,42.0513312,-71.3551688,57%,61%,55%
Atkinson,New Hampshire,6839,614,Boston-Cambridge-Newton,4878211,$95341,N/A,N/A,N/A,N/A,N/A,34,88.00%,N/A,35.40%,0,412,N/A,2.70%,N/A,Rockingham County,44.10%,49.90%,1.9%,0.0%,94.6%,3.1%,N/A,Eastern Standard Time,82,34,48,47,132,59,N/A,N/A,N/A,71,29,3.4,11.14,NH-02340,42.8370493,-71.1605133,55%,62%,53%
Auburn,New Hampshire,5293,210,Boston-Cambridge-Newton,4878211,$106222,45.48%,N/A,N/A,N/A,N/A,34,90.00%,N/A,35.40%,35,659,N/A,2.70%,N/A,Rockingham County,44.10%,49.90%,1.2%,0.0%,97.1%,1.7%,N/A,Eastern Standard Time,82,33,49,45,120,59,N/A,N/A,7,74,29,3.4,25.2,NH-02820,42.9906379,-71.3438267,55%,62%,53%
Barrington,New Hampshire,8841,190,Boston-Cambridge-Newton,4878211,$82431,42.99%,N/A,N/A,N/A,N/A,34,80.80%,N/A,40.50%,64,388,N/A,2.30%,N/A,Strafford County,50.60%,42.10%,1.9%,0.0%,95.2%,1.7%,N/A,Eastern Standard Time,82,32,50,48,116,51,N/A,N/A,8,81,29,3.2,46.53,NH-03460,43.2139685,-71.0424134,55%,62%,53%
Brentwood,New Hampshire,4691,280,Boston-Cambridge-Newton,4878211,$101840,48.72%,N/A,N/A,N/A,N/A,28,88.70%,N/A,38.10%,N/A,N/A,N/A,2.70%,N/A,Rockingham County,44.10%,49.90%,0.7%,0.1%,96.1%,0.7%,N/A,Eastern Standard Time,82,33,49,50,122,56,N/A,N/A,7,75,29,3.4,16.75,NH-07220,42.9889162,-71.0448802,55%,62%,53%
Candia,New Hampshire,3932,130,Boston-Cambridge-Newton,4878211,$93977,30.73%,N/A,N/A,N/A,N/A,41,92.90%,N/A,38.80%,25,811,N/A,2.70%,N/A,Rockingham County,44.10%,49.90%,2.4%,0.0%,92.8%,2.7%,N/A,Eastern Standard Time,82,32,50,44,127,61,N/A,N/A,N/A,78,29,3.4,30.25,NH-09300,43.0595387,-71.3095247,55%,62%,53%
Chester,New Hampshire,4935,190,Boston-Cambridge-Newton,4878211,$107833,N/A,N/A,N/A,N/A,N/A,30,91.00%,N/A,36.00%,169,528,N/A,2.70%,N/A,Rockingham County,44.10%,49.90%,1.1%,0.2%,92.7%,4.1%,N/A,Eastern Standard Time,82,33,49,45,120,59,N/A,N/A,7,75,29,3.4,25.97,NH-12100,42.9672123,-71.2509263,55%,62%,53%
Danville,New Hampshire,4479,382,Boston-Cambridge-Newton,4878211,$90938,26.70%,N/A,N/A,N/A,N/A,26,83.30%,N/A,41.70%,0,239,N/A,2.70%,N/A,Rockingham County,44.10%,49.90%,1.2%,0.6%,93.3%,2.9%,N/A,Eastern Standard Time,82,33,49,48,118,52,N/A,N/A,7,75,29,3.4,11.73,NH-17140,42.9284141,-71.1212206,55%,62%,53%
Deerfield,New Hampshire,4422,87,Boston-Cambridge-Newton,4878211,$87982,42.81%,N/A,N/A,N/A,N/A,31,75.70%,N/A,37.20%,21,372,N/A,2.70%,N/A,Rockingham County,44.10%,49.90%,0.5%,0.9%,97.4%,0.3%,N/A,Eastern Standard Time,82,31,51,44,128,57,N/A,N/A,8,80,29,3.4,50.83,NH-17460,43.138063,-71.2568807,55%,62%,53%
Derry,New Hampshire,22891,1429,Boston-Cambridge-Newton,4878211,$69813,29.69%,38,$425000,1786,$238,41,64.39%,$1183,50.12%,98,828,7.86%,6.8%,75.7%,Rockingham County,44.10%,49.90%,1.36%,0.75%,91.99%,4.81%,5.08%,Eastern Standard Time,82,33,49,45,123,58,N/A,N/A,7,64,29,3.4,16.02,NH-17860,42.8937301,-71.2848671,55%,62%,53%
Dover,New Hampshire,31922,1194,Boston-Cambridge-Newton,4878211,$74833,46.47%,36,$375000,1609,$233,47,58.14%,$1184,51.35%,78,1086,8.52%,3.18%,71.59%,Strafford County,50.60%,42.10%,4.54%,1.06%,88.02%,3.3%,5.93%,Eastern Standard Time,81,33,48,47,118,53,56.6,36.5,9,70,29,3.2,26.73,NH-18820,43.1886988,-70.8845327,55%,62%,53%
Durham,New Hampshire,12016,3966,Boston-Cambridge-Newton,4878211,$61845,79.95%,20,$585000,2612,$224,47,54.47%,$1035,87.59%,35,249,24.88%,5.9%,64.13%,Strafford County,50.60%,42.10%,4.74%,0.67%,88.87%,2.97%,5.78%,Eastern Standard Time,81,33,48,47,118,53,N/A,N/A,9,75,29,3.2,3.03,NH-19620,43.1408324,-70.9252881,55%,62%,53%
East Kingston,New Hampshire,2465,247,Boston-Cambridge-Newton,4878211,$85333,N/A,N/A,N/A,N/A,N/A,27,91.40%,N/A,40.90%,41,329,N/A,2.70%,N/A,Rockingham County,44.10%,49.90%,0.0%,0.0%,96.3%,3.1%,N/A,Eastern Standard Time,82,33,49,49,122,56,N/A,N/A,7,73,29,3.4,9.98,NH-21380,42.9246292,-71.0036117,55%,62%,53%
Epping,New Hampshire,3001,698,Boston-Cambridge-Newton,4878211,$66388,19.49%,41,$490000,1404,$349,32,73.48%,$1547,46.78%,42,1039,11.03%,2.78%,68.68%,Rockingham County,44.10%,49.90%,0.0%,0.0%,87.8%,9.53%,0.0%,Eastern Standard Time,82,32,50,47,117,53,N/A,N/A,8,77,29,3.4,4.3,NH-24580,43.0363752,-71.0939001,55%,62%,53%
Exeter,New Hampshire,9349,2078,Boston-Cambridge-Newton,4878211,$68984,42.04%,47,$500000,1502,$333,54,72.08%,$1276,55.52%,181,641,6.9%,2.15%,71.35%,Rockingham County,44.10%,49.90%,3.47%,0.46%,90.95%,2.42%,5.85%,Eastern Standard Time,82,33,49,50,122,56,N/A,N/A,N/A,67,29,3.4,4.5,NH-25300,42.9775884,-70.9466818,55%,62%,53%
Farmington,New Hampshire,4140,661,Boston-Cambridge-Newton,4878211,$41962,11.82%,39,$290000,1847,$157,49,62.63%,$1010,48.54%,115,1485,10.55%,4.99%,68.49%,Strafford County,50.60%,42.10%,0.0%,3.33%,93.55%,1.74%,4.88%,Eastern Standard Time,81,31,50,51,125,54,N/A,N/A,N/A,83,29,3.2,6.26,NH-25940,43.3994245,-71.0723864,55%,62%,53%
Fremont,New Hampshire,4589,268,Boston-Cambridge-Newton,4878211,$82218,36.05%,N/A,N/A,N/A,N/A,29,87.30%,N/A,32.70%,0,770,N/A,2.70%,N/A,Rockingham County,44.10%,49.90%,1.8%,0.0%,96.3%,1.1%,N/A,Eastern Standard Time,81,32,49,48,119,51,N/A,N/A,7,75,29,3.4,17.12,NH-27940,42.989,-71.1249478,55%,62%,53%
Greenland,New Hampshire,3866,371,Boston-Cambridge-Newton,4878211,$86972,54.63%,N/A,N/A,N/A,N/A,34,78.50%,N/A,36.80%,0,381,N/A,2.70%,N/A,Rockingham County,44.10%,49.90%,4.1%,0.2%,93.7%,1.0%,N/A,Eastern Standard Time,82,33,49,50,118,53,N/A,N/A,9,76,29,3.4,10.42,NH-31700,43.0384879,-70.8479721,55%,62%,53%
Hampstead,New Hampshire,8601,647,Boston-Cambridge-Newton,4878211,$88689,42.63%,N/A,N/A,N/A,N/A,34,74.20%,N/A,43.10%,80,554,N/A,2.70%,N/A,Rockingham County,44.10%,49.90%,1.3%,0.7%,92.9%,4.2%,N/A,Eastern Standard Time,82,33,49,46,120,54,N/A,N/A,7,73,29,3.4,13.29,NH-32900,42.8820942,-71.1709448,55%,62%,53%
Hampton,New Hampshire,10002,1835,Boston-Cambridge-Newton,4878211,$82092,43.16%,46,$555000,1595,$348,46,82.9%,$1374,46.06%,198,883,3.09%,2.16%,67.96%,Rockingham County,44.10%,49.90%,1.07%,0.61%,95.02%,1.0%,4.07%,Eastern Standard Time,82,33,49,50,123,56,N/A,N/A,9,67,29,3.4,5.45,NH-32980,42.9428602,-70.8254962,55%,62%,53%
Hampton Beach,New Hampshire,2485,1957,Boston-Cambridge-Newton,4878211,$64917,35.69%,56,$601000,1244,$483,53,62.86%,$1080,55.97%,N/A,N/A,9.98%,3.69%,64.04%,Rockingham County,44.10%,49.90%,1.61%,0.8%,90.5%,5.03%,2.58%,Eastern Standard Time,82,33,49,50,123,56,57.2,37.1,9,70,29,3.4,1.27,NH-33140,42.9145448,-70.811565,58%,66%,54%
Hampton Falls,New Hampshire,2336,192,Boston-Cambridge-Newton,4878211,$105909,54.29%,N/A,N/A,N/A,N/A,35,87.20%,N/A,38.50%,83,754,N/A,2.70%,N/A,Rockingham County,44.10%,49.90%,1.4%,0.3%,96.2%,0.0%,N/A,Eastern Standard Time,82,33,49,50,123,56,N/A,N/A,9,76,29,3.4,12.17,NH-33460,42.927135,-70.8861299,55%,62%,53%
Kensington,New Hampshire,2195,184,Boston-Cambridge-Newton,4878211,$107054,49.94%,N/A,N/A,N/A,N/A,41,84.20%,N/A,34.10%,47,141,N/A,2.70%,N/A,Rockingham County,44.10%,49.90%,0.5%,0.4%,95.7%,1.6%,N/A,Eastern Standard Time,82,33,49,50,122,56,N/A,N/A,9,73,29,3.4,11.93,NH-39780,42.9285348,-70.949886,55%,62%,53%
Kingston,New Hampshire,6141,312,Boston-Cambridge-Newton,4878211,$74817,35.61%,N/A,N/A,N/A,N/A,44,73.50%,N/A,45.30%,78,172,N/A,2.70%,N/A,Rockingham County,44.10%,49.90%,0.6%,0.0%,94.9%,0.5%,N/A,Eastern Standard Time,82,33,49,48,124,52,N/A,N/A,7,73,29,3.4,19.68,NH-40100,42.9156153,-71.0664718,55%,62%,53%
Lee,New Hampshire,4375,219,Boston-Cambridge-Newton,4878211,$96083,56.27%,N/A,N/A,N/A,N/A,33,82.30%,N/A,39.10%,22,378,N/A,2.30%,N/A,Strafford County,50.60%,42.10%,6.2%,0.1%,88.0%,4.5%,N/A,Eastern Standard Time,81,33,48,47,117,52,N/A,N/A,8,77,29,3.2,19.98,NH-41460,43.1196695,-71.0068732,55%,62%,53%
Londonderry,New Hampshire,12053,986,Boston-Cambridge-Newton,4878211,$107813,42.72%,44,$525000,2333,$225,38,82.31%,$1491,41.85%,75,651,2.56%,4.52%,72.36%,Rockingham County,44.10%,49.90%,0.68%,1.57%,92.99%,3.73%,4.51%,Eastern Standard Time,82,33,49,46,123,58,N/A,N/A,7,68,29,3.4,12.22,NH-43140,42.8507342,-71.3619814,55%,62%,53%
Madbury,New Hampshire,1906,164,Boston-Cambridge-Newton,4878211,$97969,54.98%,N/A,N/A,N/A,N/A,33,80.00%,N/A,32.20%,0,107,N/A,2.30%,N/A,Strafford County,50.60%,42.10%,3.1%,0.0%,94.4%,0.5%,N/A,Eastern Standard Time,81,33,48,47,116,51,N/A,N/A,9,77,29,3.2,11.62,NH-44820,43.1747891,-70.9408544,55%,62%,53%
Middleton,New Hampshire,1687,93,Boston-Cambridge-Newton,4878211,$61250,18.10%,N/A,N/A,N/A,N/A,36,69.60%,N/A,42.00%,0,930,N/A,2.30%,N/A,Strafford County,50.60%,42.10%,0.0%,0.7%,96.6%,1.1%,N/A,Eastern Standard Time,81,30,51,46,125,60,N/A,N/A,7,85,29,3.2,18.14,NH-47700,43.4831561,-71.068528,55%,62%,53%
Milton,New Hampshire,537,663,Boston-Cambridge-Newton,4878211,$64330,13.01%,48,$306000,1645,$186,40,89.01%,$669,47.02%,150,902,4.1%,4.88%,82.49%,Strafford County,50.60%,42.10%,0.0%,0.0%,100.0%,0.0%,0.0%,Eastern Standard Time,81,31,50,48,127,63,N/A,N/A,8,84,29,3.2,0.81,NH-48580,43.4035942,-70.9898123,55%,62%,53%
New Castle,New Hampshire,917,1118,Boston-Cambridge-Newton,4878211,$122604,65.23%,N/A,N/A,N/A,N/A,57,69.00%,N/A,30.80%,0,101,N/A,2.70%,N/A,Rockingham County,44.10%,49.90%,0.0%,0.0%,93.9%,6.1%,N/A,Eastern Standard Time,82,33,49,50,118,53,N/A,N/A,9,70,29,3.4,0.82,NH-50980,43.0634993,-70.7178291,55%,62%,53%
New Durham,New Hampshire,2663,64,Boston-Cambridge-Newton,4878211,$78583,31.15%,N/A,N/A,N/A,N/A,38,55.80%,N/A,35.00%,110,887,N/A,2.30%,N/A,Strafford County,50.60%,42.10%,0.0%,0.0%,97.8%,0.3%,N/A,Eastern Standard Time,81,30,51,47,131,60,N/A,N/A,7,85,29,3.2,41.61,NH-51220,43.4633296,-71.1417564,55%,62%,53%
Newfields,New Hampshire,254,668,Boston-Cambridge-Newton,4878211,$158750,51.06%,50,N/A,N/A,N/A,25,97.64%,N/A,30.47%,57,806,3.54%,1.91%,72.02%,Rockingham County,44.10%,49.90%,0.0%,2.36%,97.64%,0.0%,4.72%,Eastern Standard Time,82,33,49,49,117,53,N/A,N/A,9,74,29,3.4,0.38,NH-51300,43.0354773,-70.9390418,55%,62%,53%
Newington,New Hampshire,819,100,Boston-Cambridge-Newton,4878211,$87857,51.49%,N/A,N/A,N/A,N/A,38,78.70%,N/A,38.20%,617,13950,N/A,2.70%,N/A,Rockingham County,44.10%,49.90%,2.4%,1.3%,94.6%,1.6%,N/A,Eastern Standard Time,82,33,49,50,118,53,N/A,N/A,9,76,29,3.4,8.19,NH-51620,43.0931573,-70.8359029,55%,62%,53%
Newmarket,New Hampshire,5737,2550,Boston-Cambridge-Newton,4878211,$69259,48.35%,36,$398000,1679,$237,43,48.74%,$1324,57.39%,87,469,7.0%,0.36%,79.34%,Rockingham County,44.10%,49.90%,4.27%,1.36%,90.62%,1.95%,5.6%,Eastern Standard Time,82,33,49,48,117,53,N/A,N/A,9,74,29,3.4,2.25,NH-52260,43.0749932,-70.941379,55%,62%,53%
Newton,New Hampshire,4824,487,Boston-Cambridge-Newton,4878211,$78980,32.69%,N/A,N/A,N/A,N/A,38,78.10%,N/A,44.60%,N/A,N/A,N/A,2.70%,N/A,Rockingham County,44.10%,49.90%,0.8%,0.6%,95.5%,2.6%,N/A,Eastern Standard Time,82,33,49,48,124,52,N/A,N/A,7,71,29,3.4,9.91,NH-52900,42.8684841,-71.0436045,55%,62%,53%
North Hampton,New Hampshire,4428,318,Boston-Cambridge-Newton,4878211,$86853,50.99%,N/A,N/A,N/A,N/A,37,79.90%,N/A,36.50%,66,775,N/A,2.70%,N/A,Rockingham County,44.10%,49.90%,1.2%,2.1%,91.8%,3.5%,N/A,Eastern Standard Time,82,33,49,50,123,56,N/A,N/A,9,77,29,3.4,13.92,NH-54580,42.9784682,-70.8284955,55%,62%,53%
Northwood,New Hampshire,4282,153,Boston-Cambridge-Newton,4878211,$71379,33.92%,N/A,N/A,N/A,N/A,38,67.50%,N/A,34.70%,46,720,N/A,2.70%,N/A,Rockingham County,44.10%,49.90%,0.8%,0.0%,94.2%,3.5%,N/A,Eastern Standard Time,81,30,51,46,130,62,N/A,N/A,8,81,29,3.4,27.99,NH-56820,43.2133079,-71.2096832,55%,62%,53%
Nottingham,New Hampshire,4962,107,Boston-Cambridge-Newton,4878211,$86250,41.12%,N/A,N/A,N/A,N/A,34,87.80%,N/A,33.20%,58,135,N/A,2.70%,N/A,Rockingham County,44.10%,49.90%,0.0%,0.0%,99.0%,0.7%,N/A,Eastern Standard Time,82,32,50,46,116,51,N/A,N/A,8,80,29,3.4,46.37,NH-57460,43.124195,-71.1209852,55%,62%,53%
Plaistow,New Hampshire,7642,719,Boston-Cambridge-Newton,4878211,$70264,24.86%,N/A,N/A,N/A,N/A,41,78.10%,N/A,43.30%,51,1254,N/A,2.70%,N/A,Rockingham County,44.10%,49.90%,0.9%,0.4%,93.7%,3.0%,N/A,Eastern Standard Time,82,34,48,48,130,57,N/A,N/A,7,68,29,3.4,10.63,NH-62500,42.8403318,-71.0961133,58%,66%,54%
Portsmouth,New Hampshire,21418,1368,Boston-Cambridge-Newton,4878211,$78712,61.4%,42,$790000,1783,$443,63,57.6%,$1353,53.37%,127,1635,6.6%,1.59%,69.95%,Rockingham County,44.10%,49.90%,4.84%,2.02%,87.73%,2.42%,7.92%,Eastern Standard Time,82,33,49,50,118,53,57.6,37.6,9,57,29,3.4,15.66,NH-62900,43.0580866,-70.7825601,55%,62%,53%
Raymond,New Hampshire,3807,588,Boston-Cambridge-Newton,4878211,$55822,18.33%,37,$376000,1782,$211,42,72.97%,$970,51.72%,133,1088,9.13%,3.8%,68.04%,Rockingham County,44.10%,49.90%,0.6%,0.0%,94.93%,2.89%,1.94%,Eastern Standard Time,82,33,49,46,114,53,N/A,N/A,8,76,29,3.4,6.48,NH-63940,43.036974,-71.1720248,55%,62%,53%
Rochester,New Hampshire,31305,695,Boston-Cambridge-Newton,4878211,$66831,20.87%,43,$346000,1632,$212,42,68.73%,$1071,49.06%,298,3095,8.91%,5.09%,66.19%,Strafford County,50.60%,42.10%,1.53%,0.7%,92.19%,3.07%,3.32%,Eastern Standard Time,82,32,50,49,119,51,56.7,36.4,8,76,29,3.2,45.02,NH-65140,43.2989751,-70.9786086,55%,62%,53%
Rollinsford,New Hampshire,2529,347,Boston-Cambridge-Newton,4878211,$63269,36.98%,N/A,N/A,N/A,N/A,58,71.60%,N/A,35.80%,115,656,N/A,2.30%,N/A,Strafford County,50.60%,42.10%,0.0%,2.5%,91.5%,3.9%,N/A,Eastern Standard Time,81,33,48,48,117,51,N/A,N/A,9,75,29,3.2,7.29,NH-65540,43.220977,-70.842616,55%,62%,53%
Rye,New Hampshire,5401,428,Boston-Cambridge-Newton,4878211,$95583,62.06%,N/A,N/A,N/A,N/A,48,63.50%,N/A,42.10%,0,768,N/A,2.70%,N/A,Rockingham County,44.10%,49.90%,0.9%,0.2%,96.1%,0.9%,N/A,Eastern Standard Time,82,33,49,50,123,56,N/A,N/A,9,78,29,3.4,12.62,NH-66180,43.0018374,-70.7211163,55%,62%,53%
Salem,New Hampshire,28951,1171,Boston-Cambridge-Newton,4878211,$78395,36.19%,N/A,$560000,2066,$271,42,75.00%,N/A,45.20%,84,1512,N/A,3.60%,N/A,Rockingham County,44.10%,49.90%,2.8%,0.3%,89.0%,6.4%,N/A,Eastern Standard Time,83,34,49,47,132,59,N/A,N/A,7,66,29,3.4,24.72,NH-66660,42.7901414,-71.2202352,58%,66%,54%
Sandown,New Hampshire,6279,450,Boston-Cambridge-Newton,4878211,$78840,29.71%,N/A,N/A,N/A,N/A,30,85.70%,N/A,40.30%,30,307,N/A,2.70%,N/A,Rockingham County,44.10%,49.90%,0.5%,0.3%,96.5%,1.4%,N/A,Eastern Standard Time,82,33,49,46,120,56,N/A,N/A,7,74,29,3.4,13.95,NH-67620,42.9332254,-71.1833191,55%,62%,53%
Seabrook,New Hampshire,8834,993,Boston-Cambridge-Newton,4878211,$51684,18.23%,N/A,N/A,N/A,N/A,38,54.50%,N/A,44.90%,45,1542,N/A,2.70%,N/A,Rockingham County,44.10%,49.90%,1.9%,0.0%,96.0%,0.9%,N/A,Eastern Standard Time,82,34,48,50,127,60,N/A,N/A,9,65,29,3.4,8.9,NH-68260,42.8869004,-70.8603852,58%,66%,54%
Seabrook Beach,New Hampshire,976,930,Boston-Cambridge-Newton,4878211,$110577,54.2%,55,$934000,2113,$442,48,88.01%,$1130,47.92%,N/A,N/A,8.2%,7.69%,75.43%,Rockingham County,44.10%,49.90%,0.0%,0.0%,99.39%,0.0%,0.51%,Eastern Standard Time,82,34,48,50,127,60,57.2,37.1,N/A,69,29,3.4,1.05,NH-68340,42.8846327,-70.8230936,58%,66%,54%
Somersworth,New Hampshire,12027,1227,Boston-Cambridge-Newton,4878211,$67209,24.7%,39,$315000,1853,$170,58,59.48%,$1153,51.44%,125,2946,8.12%,4.06%,72.21%,Strafford County,50.60%,42.10%,6.6%,3.76%,81.93%,4.0%,7.66%,Eastern Standard Time,82,32,50,48,120,51,56.8,36.5,8,72,29,3.2,9.8,NH-69940,43.2533842,-70.8854874,55%,62%,53%
South Hampton,New Hampshire,793,99,Boston-Cambridge-Newton,4878211,$91250,39.90%,N/A,N/A,N/A,N/A,45,70.40%,N/A,33.90%,0,603,N/A,2.70%,N/A,Rockingham County,44.10%,49.90%,0.9%,0.4%,94.5%,3.4%,N/A,Eastern Standard Time,82,33,49,49,122,56,N/A,N/A,9,73,29,3.4,8.01,NH-71140,42.8854371,-70.9680545,55%,62%,53%
Strafford,New Hampshire,4057,83,Boston-Cambridge-Newton,4878211,$97333,42.51%,N/A,N/A,N/A,N/A,34,71.80%,N/A,34.80%,0,166,N/A,2.30%,N/A,Strafford County,50.60%,42.10%,0.1%,0.6%,92.4%,5.6%,N/A,Eastern Standard Time,81,30,51,48,130,58,N/A,N/A,7,83,29,3.2,48.88,NH-73860,43.2802771,-71.1487357,55%,62%,53%
Stratham,New Hampshire,7372,488,Boston-Cambridge-Newton,4878211,$116875,58.56%,N/A,N/A,N/A,N/A,32,84.00%,N/A,28.90%,26,588,N/A,2.70%,N/A,Rockingham County,44.10%,49.90%,3.1%,0.0%,94.0%,1.1%,N/A,Eastern Standard Time,82,33,49,50,122,53,N/A,N/A,9,74,29,3.4,15.11,NH-74340,43.0157953,-70.900619,55%,62%,53%
Windham,New Hampshire,14344,535,Boston-Cambridge-Newton,4878211,$111982,57.90%,N/A,N/A,N/A,N/A,31,86.50%,N/A,34.80%,33,396,N/A,3.30%,N/A,Rockingham County,44.10%,49.90%,3.5%,0.8%,90.9%,3.0%,N/A,Eastern Standard Time,82,33,49,46,124,58,N/A,N/A,7,70,29,3.4,26.81,NH-85780,42.8075717,-71.299464,55%,62%,53%
