City,State,Population,People per sq mi,Metro Name,Metro population,Median household income,% with at least Bachelor's degree,Median age,Median home price,Median home sqft,Median home cost per sqft,Median home age,Homeownership Rate,Avg Apartment Monthly Rent,Single Population,Num Violent Crimes Per 100k residents,Num Property Crimes Per 100k residents,Poverty Rate,Unemployment rate,Labor Force Participation rate,County,% Democrat,% Republican,% Asian,% Black,% Non-Hispanic White,% Hispanic,Foreign Born %,Timezone,Hottest month's avg high (F),Coldest month's avg high (F),Hottest high minus coldest high,Hottest month's avg low (F),Coldest month's avg low (F),Annual Relative Humidity (afternoon),Summer Relative Humidity (afternoon),Annual dew point (F),Average summer dew point (F),Hottest month's avg heat index high (F),Annual Sunshine - Percentage of Possible,Summer Sunshine - Percentage of Possible,Winter Sunshine - Percentage of Possible,Annual rainfall (in),Summer rainfall (in),Winter rainfall (in),Percent of days that include precipitation,Percent of Summer days that include precipitation,Percent of Winter days that include precipitation,Annual snowfall (in),Days of snow per year,Average yearly windspeed (mph),Number of days with thunder per year,Air quality Index,Elevation (ft),UV Index,Land Area (sq mi),Fips Code,Latitude,Longitude
Addison,Illinois,35470,3608,Chicago-Naperville-Elgin,9607711,$87587,21.86%,41,$319000,1430,$223,48,66.17%,$1238,46.06%,199,1153,8.84%,4.43%,69.97%,DuPage County,53.10%,38.60%,8.94%,3.41%,42.86%,43.77%,35.38%,Central Standard Time,85,32,53,67,19,60%,56%,39,59,88,52%,65%,39%,43.04,13.55,7.46,34.08%,33.85%,34.67%,42.4,27,8.1,38.4,52,660,3.4,9.83,IL-00243,41.9313394,-88.0085115
Addison township,Illinois,35470,3608,Chicago-Naperville-Elgin,9607711,$87587,21.86%,41,$319000,1430,$223,48,66.17%,$1238,46.06%,199,1153,8.84%,4.43%,69.97%,DuPage County,53.10%,38.60%,8.94%,3.41%,42.86%,43.77%,35.38%,Central Standard Time,85,32,53,67,19,60%,56%,39,59,88,52%,65%,39%,43.04,13.55,7.46,34.08%,33.85%,34.67%,42.4,27,8.1,38.4,50,660,3.4,9.83,IL-00243,41.9313394,-88.0085115
Afton,Illinois,966,28,Chicago-Naperville-Elgin,9607711,N/A,N/A,N/A,N/A,N/A,N/A,N/A,N/A,N/A,N/A,N/A,N/A,N/A,N/A,N/A,DeKalb County,46.90%,43.80%,N/A,N/A,N/A,N/A,N/A,Central Standard Time,82,29,53,61,14,60%,56%,39,59,84,52%,65%,39%,38.79,12.72,6.29,35.29%,33.41%,38.33%,29.1,18,8.1,38.4,77,786,3.5,34.5,IL-00386,41.8490928,-88.7714976
Alden,Illinois,36,277,Chicago-Naperville-Elgin,9607711,N/A,16.67%,68,$85000,1809,$47,82,7.19%,N/A,66.67%,N/A,N/A,0.0%,0.0%,47.22%,McHenry County,42.20%,49.80%,0.0%,0.0%,75.0%,0.0%,0.0%,Central Standard Time,82,30,52,60,15,63%,61%,37,58,84,53%,66%,44%,40.39,14.2,6.18,33.67%,35.05%,30.78%,35.8,22,8.1,34.2,81,831,3.4,0.13,IL-00594,42.4586075,-88.5185166
Algonquin,Illinois,29904,2431,Chicago-Naperville-Elgin,9607711,$131753,43.61%,41,$316000,1915,$165,26,87.68%,$1800,40.86%,74,976,4.51%,4.36%,73.64%,McHenry County,42.20%,49.80%,5.59%,2.23%,74.01%,14.18%,12.17%,Central Standard Time,84,31,53,63,14,60%,56%,39,59,86,52%,65%,39%,42.34,14.3,6.86,37.1%,36.15%,37.11%,47.4,28,8.1,38.4,72,762,3.4,12.3,IL-00685,42.1628707,-88.315887
Algonquin township,Illinois,29904,2431,Chicago-Naperville-Elgin,9607711,$131753,43.61%,41,$316000,1915,$165,26,87.68%,$1800,40.86%,74,976,4.51%,4.36%,73.64%,McHenry County,42.20%,49.80%,5.59%,2.23%,74.01%,14.18%,12.17%,Central Standard Time,84,31,53,63,14,60%,56%,39,59,86,52%,65%,39%,42.34,14.3,6.86,37.1%,36.15%,37.11%,47.4,28,8.1,38.4,72,762,3.4,12.3,IL-00685,42.1628707,-88.315887
Alsip,Illinois,18650,2856,Chicago-Naperville-Elgin,9607711,$67557,21.29%,40,$217000,1428,$152,46,66.53%,$1102,56.71%,281,N/A,11.38%,7.63%,65.01%,Cook County,73.90%,20.80%,2.58%,21.96%,43.62%,27.36%,11.23%,Central Standard Time,86,33,53,68,20,60%,56%,39,59,89,52%,65%,39%,44.11,13.81,7.37,36.44%,36.26%,37.89%,40.8,28,8.1,38.4,48,564,3.6,6.53,IL-01010,41.6700752,-87.7367927
Antioch,Illinois,14751,1797,Chicago-Naperville-Elgin,9607711,$118635,41.7%,37,$333000,2362,$141,27,81.65%,$1118,50.73%,119,969,7.43%,7.65%,72.34%,Lake County,56.40%,36.20%,3.52%,5.81%,76.59%,9.56%,7.15%,Central Standard Time,83,29,54,61,14,63%,61%,37,58,86,53%,66%,44%,40.14,13.17,6.35,33.34%,33.96%,33.22%,47.4,28,8.1,34.2,73,720,3.7,8.21,IL-01595,42.4741547,-88.0720427
Antioch township,Illinois,14751,1797,Chicago-Naperville-Elgin,9607711,$118635,41.7%,37,$333000,2362,$141,27,81.65%,$1118,50.73%,119,969,7.43%,7.65%,72.34%,Lake County,56.40%,36.20%,3.52%,5.81%,76.59%,9.56%,7.15%,Central Standard Time,83,29,54,61,14,63%,61%,37,58,86,53%,66%,44%,40.14,13.17,6.35,33.34%,33.96%,33.22%,47.4,28,8.1,34.2,74,720,3.7,8.21,IL-01595,42.4741547,-88.0720427
Arlington Heights,Illinois,76220,4589,Chicago-Naperville-Elgin,9607711,$118532,60.16%,43,$375000,1667,$225,47,77.37%,$1727,40.31%,43,797,6.25%,3.56%,67.71%,Cook County,73.90%,20.80%,9.62%,2.98%,74.63%,9.65%,21.0%,Central Standard Time,84,32,52,66,19,60%,56%,39,59,86,52%,65%,39%,39.77,13.11,6.68,37.15%,38.24%,33.33%,42.4,27,8.1,38.4,56,669,3.6,16.61,IL-02154,42.0955692,-87.9825553
Aurora,Illinois,179867,3995,Chicago-Naperville-Elgin,9607711,$90109,37.24%,35,$286000,1589,$180,34,66.03%,$1535,51.03%,258,1008,9.82%,5.89%,72.5%,Kane County,51.90%,41.40%,11.01%,10.93%,32.53%,42.76%,25.75%,Central Standard Time,84,31,53,65,16,60%,56%,39,59,86,52%,65%,39%,42.19,12.88,6.51,32.79%,33.3%,30.67%,46.2,27,8.1,38.4,64,603,3.5,45.02,IL-03012,41.76373,-88.2901415
Aurora township,Illinois,179867,3995,Chicago-Naperville-Elgin,9607711,$90109,37.24%,35,$286000,1589,$180,34,66.03%,$1535,51.03%,258,1008,9.82%,5.89%,72.5%,Kane County,51.90%,41.40%,11.01%,10.93%,32.53%,42.76%,25.75%,Central Standard Time,84,31,53,65,16,60%,56%,39,59,86,52%,65%,39%,42.19,12.88,6.51,32.79%,33.3%,30.67%,46.2,27,8.1,38.4,62,603,3.5,45.02,IL-03012,41.76373,-88.2901415
Aux Sable,Illinois,13180,453,Chicago-Naperville-Elgin,9607711,N/A,N/A,N/A,N/A,N/A,N/A,N/A,N/A,N/A,N/A,N/A,N/A,N/A,N/A,N/A,Grundy County,34.70%,57.90%,N/A,N/A,N/A,N/A,N/A,Central Standard Time,85,32,53,66,16,60%,56%,39,59,88,52%,65%,39%,43.47,13.69,7.2,35.48%,37.25%,34.44%,27.7,15,8.1,38.4,74,546,3.5,29.09,IL-03090,41.423581,-88.30995
Avon township,Illinois,64782,147232,Chicago-Naperville-Elgin,9607711,N/A,N/A,N/A,$72000,1059,$68,N/A,N/A,N/A,N/A,N/A,N/A,N/A,N/A,N/A,Lake County,56.40%,36.20%,N/A,N/A,N/A,N/A,N/A,Central Standard Time,83,30,53,63,14,60%,56%,39,59,85,52%,65%,39%,40.14,13.17,6.35,36.63%,35.82%,34.33%,47.4,28,8.1,38.4,72,720,3.7,0.44,IL-03220,42.3570385,-88.0623574
Bannockburn,Illinois,1125,554,Chicago-Naperville-Elgin,9607711,$195625,86.72%,31,N/A,N/A,N/A,45,77.72%,N/A,51.77%,0,1993,3.16%,1.95%,60.49%,Lake County,56.40%,36.20%,8.53%,12.0%,71.11%,7.56%,21.96%,Central Standard Time,84,32,52,66,19,60%,56%,39,59,86,52%,65%,39%,42.37,13.61,6.91,30.82%,33.63%,23.0%,47.4,28,8.1,38.4,62,630,3.7,2.03,IL-03610,42.1932603,-87.8694596
Barrington,Illinois,11049,2397,Chicago-Naperville-Elgin,9607711,$150714,72.57%,43,$553000,2458,$225,47,77.04%,$1886,35.46%,19,847,4.84%,3.39%,59.62%,Cook County,73.90%,20.80%,9.36%,1.25%,81.37%,2.87%,11.3%,Central Standard Time,82,29,53,63,14,60%,56%,39,59,84,52%,65%,39%,44.08,14.83,6.54,37.78%,38.57%,34.56%,47.4,28,8.1,38.4,69,801,3.6,4.61,IL-03844,42.1515239,-88.1282037
Barrington Hills,Illinois,3923,145,Chicago-Naperville-Elgin,9607711,$186667,70.63%,44,$868000,3300,$263,46,91.28%,$3241,36.87%,0,428,7.9%,3.77%,60.01%,Cook County,73.90%,20.80%,9.23%,0.64%,87.1%,1.12%,15.57%,Central Standard Time,82,29,53,63,14,60%,56%,39,59,84,52%,65%,39%,44.08,14.83,6.54,37.78%,38.57%,34.56%,47.4,28,8.1,38.4,73,801,3.6,27.0,IL-03883,42.1398599,-88.2033814
Barrington township,Illinois,11049,2397,Chicago-Naperville-Elgin,9607711,$150714,72.57%,43,$553000,2458,$225,47,77.04%,$1886,35.46%,19,847,4.84%,3.39%,59.62%,Cook County,73.90%,20.80%,9.36%,1.25%,81.37%,2.87%,11.3%,Central Standard Time,82,29,53,63,14,60%,56%,39,59,84,52%,65%,39%,44.08,14.83,6.54,37.78%,38.57%,34.56%,47.4,28,8.1,38.4,70,801,3.6,4.61,IL-03844,42.1515239,-88.1282037
Bartlett,Illinois,40531,2577,Chicago-Naperville-Elgin,9607711,$130479,48.47%,41,$344000,1782,$193,28,87.36%,$1857,37.89%,56,459,2.68%,2.04%,72.5%,DuPage County,53.10%,38.60%,17.88%,4.29%,60.84%,14.75%,20.34%,Central Standard Time,84,31,53,64,16,60%,56%,39,59,86,52%,65%,39%,34.87,11.28,4.53,33.32%,36.48%,27.89%,46.2,27,8.1,38.4,69,690,3.4,15.73,IL-04013,41.9565914,-88.21499
Batavia,Illinois,26730,2517,Chicago-Naperville-Elgin,9607711,$119167,55.12%,41,$380000,2011,$189,35,82.74%,$1255,41.51%,125,1279,5.03%,3.47%,69.65%,Kane County,51.90%,41.40%,1.43%,2.65%,81.51%,8.59%,5.79%,Central Standard Time,84,31,53,65,16,60%,56%,39,59,86,52%,65%,39%,41.97,13.32,6.76,32.79%,33.3%,30.67%,46.2,27,8.1,38.4,67,663,3.5,10.62,IL-04078,41.8478394,-88.3109762
Batavia township,Illinois,26730,2517,Chicago-Naperville-Elgin,9607711,$119167,55.12%,41,$380000,2011,$189,35,82.74%,$1255,41.51%,125,1279,5.03%,3.47%,69.65%,Kane County,51.90%,41.40%,1.43%,2.65%,81.51%,8.59%,5.79%,Central Standard Time,84,31,53,65,16,60%,56%,39,59,86,52%,65%,39%,41.97,13.32,6.76,32.79%,33.3%,30.67%,46.2,27,8.1,38.4,67,663,3.5,10.62,IL-04078,41.8478394,-88.3109762
Beach Park,Illinois,13988,1976,Chicago-Naperville-Elgin,9607711,$83069,15.51%,36,$192000,1371,$140,33,83.74%,$1235,46.09%,N/A,N/A,11.77%,8.87%,63.1%,Lake County,56.40%,36.20%,4.31%,12.55%,31.78%,50.22%,20.2%,Central Standard Time,82,32,50,63,16,60%,56%,39,59,84,52%,65%,39%,37.81,12.37,5.47,35.56%,38.13%,29.33%,47.4,28,8.1,38.4,74,666,3.7,7.08,IL-04303,42.4194789,-87.8380193
Bedford Park,Illinois,594,100,Chicago-Naperville-Elgin,9607711,$111250,32.98%,40,$415000,2902,$143,73,80.87%,$1771,50.43%,1495,64451,10.14%,5.58%,60.86%,Cook County,73.90%,20.80%,0.0%,6.57%,48.65%,41.41%,11.78%,Central Standard Time,86,33,53,68,20,60%,56%,39,59,89,52%,65%,39%,41.97,12.33,7.17,36.44%,36.26%,37.89%,40.8,28,8.1,38.4,61,564,3.6,5.93,IL-04572,41.7669429,-87.791537
Beecher,Illinois,4837,1772,Chicago-Naperville-Elgin,9607711,$101957,25.77%,39,$218000,1912,$114,26,83.77%,$1065,47.22%,178,536,2.69%,0.62%,67.5%,Will County,49.90%,43.60%,0.37%,1.3%,87.57%,10.01%,0.48%,Central Standard Time,84,32,52,64,16,60%,56%,39,59,86,52%,65%,39%,42.7,13.96,7.25,38.11%,38.02%,37.89%,40.8,28,8.1,38.4,78,660,3.7,2.73,IL-04585,41.3500466,-87.6172919
Bellwood,Illinois,18373,7655,Chicago-Naperville-Elgin,9607711,$76990,15.73%,38,$235000,1291,$182,65,78.84%,$1221,61.54%,675,2301,11.39%,7.67%,63.29%,Cook County,73.90%,20.80%,1.23%,71.08%,3.53%,23.27%,10.25%,Central Standard Time,85,32,53,67,19,60%,56%,39,59,88,52%,65%,39%,42.04,13.19,6.75,36.08%,35.82%,37.22%,42.4,27,8.1,38.4,56,627,3.6,2.4,IL-04975,41.8829011,-87.8761705
Bensenville,Illinois,18576,3359,Chicago-Naperville-Elgin,9607711,$78298,20.58%,37,$277000,1522,$182,50,57.49%,$1374,52.93%,93,1070,8.4%,4.59%,69.2%,DuPage County,53.10%,38.60%,3.17%,5.81%,40.18%,49.74%,31.61%,Central Standard Time,85,32,53,67,19,60%,56%,39,59,88,52%,65%,39%,41.62,13.0,6.94,36.08%,35.82%,37.22%,42.4,27,8.1,38.4,41,603,3.4,5.53,IL-05248,41.9580468,-87.9442133
Benton township (Lake Cnty),Illinois,19090,3484,Chicago-Naperville-Elgin,9607711,N/A,N/A,N/A,N/A,N/A,N/A,N/A,N/A,N/A,N/A,N/A,N/A,N/A,N/A,N/A,Lake County,56.40%,36.20%,N/A,N/A,N/A,N/A,N/A,Central Standard Time,82,32,50,63,16,60%,56%,39,59,84,52%,65%,39%,37.81,12.37,5.47,35.56%,38.13%,29.33%,47.4,28,8.1,38.4,77,666,3.7,5.48,IL-05326,42.42832,-87.8637835
Berkeley,Illinois,5222,3730,Chicago-Naperville-Elgin,9607711,$83224,20.68%,37,$250000,923,$271,65,92.13%,$1292,53.81%,118,1265,6.62%,2.35%,67.45%,Cook County,73.90%,20.80%,2.68%,25.81%,26.18%,44.03%,17.14%,Central Standard Time,85,32,53,67,19,60%,56%,39,59,88,52%,65%,39%,42.04,13.19,6.75,36.08%,35.82%,37.22%,42.4,27,8.1,38.4,49,627,3.6,1.4,IL-05404,41.8891167,-87.9114709
Berwyn,Illinois,55888,14330,Chicago-Naperville-Elgin,9607711,$75235,25.39%,36,$315000,1649,$191,82,65.64%,$1175,55.79%,208,1087,10.85%,6.27%,69.33%,Cook County,73.90%,20.80%,4.23%,8.7%,26.3%,60.24%,23.85%,Central Standard Time,85,33,52,68,20,60%,56%,39,59,88,52%,65%,39%,43.19,12.97,7.07,34.47%,36.37%,30.44%,40.8,28,8.1,38.4,59,564,3.6,3.9,IL-05573,41.8433349,-87.7909259
Berwyn township,Illinois,55888,14330,Chicago-Naperville-Elgin,9607711,$75235,25.39%,36,$315000,1649,$191,82,65.64%,$1175,55.79%,208,1087,10.85%,6.27%,69.33%,Cook County,73.90%,20.80%,4.23%,8.7%,26.3%,60.24%,23.85%,Central Standard Time,85,33,52,68,20,60%,56%,39,59,88,52%,65%,39%,43.19,12.97,7.07,34.47%,36.37%,30.44%,40.8,28,8.1,38.4,59,564,3.6,3.9,IL-05573,41.8433349,-87.7909259
Big Grove,Illinois,2048,57,Chicago-Naperville-Elgin,9607711,N/A,N/A,N/A,N/A,N/A,N/A,N/A,N/A,N/A,N/A,N/A,N/A,N/A,N/A,N/A,Kendall County,46.00%,46.20%,N/A,N/A,N/A,N/A,N/A,Central Standard Time,85,32,53,66,16,60%,56%,39,59,88,52%,65%,39%,43.2,14.0,6.84,34.36%,34.62%,32.78%,27.7,15,8.1,38.4,78,666,3.4,35.93,IL-05872,41.5011997,-88.5401356
Big Rock,Illinois,1208,280,Chicago-Naperville-Elgin,9607711,$126667,35.33%,41,N/A,N/A,N/A,48,89.69%,N/A,28.03%,N/A,N/A,4.55%,3.65%,68.14%,Kane County,51.90%,41.40%,1.24%,0.33%,84.77%,9.35%,3.48%,Central Standard Time,85,31,54,62,15,60%,56%,39,59,88,52%,65%,39%,35.9,11.48,5.03,35.32%,40.0%,27.22%,42.4,16,8.1,38.4,79,648,3.5,4.32,IL-05976,41.7668028,-88.5264414
Big Rock township,Illinois,1208,280,Chicago-Naperville-Elgin,9607711,$126667,35.33%,41,N/A,N/A,N/A,48,89.69%,N/A,28.03%,N/A,N/A,4.55%,3.65%,68.14%,Kane County,51.90%,41.40%,1.24%,0.33%,84.77%,9.35%,3.48%,Central Standard Time,85,31,54,62,15,60%,56%,39,59,88,52%,65%,39%,35.9,11.48,5.03,35.32%,40.0%,27.22%,42.4,16,8.1,38.4,79,648,3.5,4.32,IL-05976,41.7668028,-88.5264414
Blackberry,Illinois,15502,444,Chicago-Naperville-Elgin,9607711,N/A,N/A,N/A,N/A,N/A,N/A,N/A,N/A,N/A,N/A,N/A,N/A,N/A,N/A,N/A,Kane County,51.90%,41.40%,N/A,N/A,N/A,N/A,N/A,Central Standard Time,85,31,54,62,15,60%,56%,39,59,88,52%,65%,39%,41.42,12.97,6.69,31.92%,33.63%,31.78%,42.4,16,8.1,38.4,76,795,3.5,34.91,IL-06262,41.852874,-88.4322549
Bloom,Illinois,91247,1964,Chicago-Naperville-Elgin,9607711,N/A,N/A,N/A,N/A,N/A,N/A,N/A,N/A,N/A,N/A,N/A,N/A,N/A,N/A,N/A,Cook County,73.90%,20.80%,N/A,N/A,N/A,N/A,N/A,Central Standard Time,84,32,52,64,16,60%,56%,39,59,86,52%,65%,39%,43.47,14.34,7.16,34.71%,33.41%,34.33%,40.8,28,8.1,38.4,63,567,3.6,46.46,IL-06561,41.5137291,-87.6000248
Bloomingdale,Illinois,22388,3307,Chicago-Naperville-Elgin,9607711,$98891,43.69%,43,$323000,1727,$187,39,74.51%,$1607,44.1%,86,1975,6.75%,4.48%,63.87%,DuPage County,53.10%,38.60%,14.57%,4.1%,68.78%,11.65%,19.46%,Central Standard Time,84,31,53,64,16,60%,56%,39,59,86,52%,65%,39%,42.64,12.83,6.89,34.08%,33.85%,34.67%,42.4,27,8.1,38.4,62,696,3.4,6.77,IL-06587,41.9496536,-88.0894771
Bloomingdale township,Illinois,22388,3307,Chicago-Naperville-Elgin,9607711,$98891,43.69%,43,$323000,1727,$187,39,74.51%,$1607,44.1%,86,1975,6.75%,4.48%,63.87%,DuPage County,53.10%,38.60%,14.57%,4.1%,68.78%,11.65%,19.46%,Central Standard Time,84,31,53,64,16,60%,56%,39,59,86,52%,65%,39%,42.64,12.83,6.89,34.08%,33.85%,34.67%,42.4,27,8.1,38.4,61,696,3.4,6.77,IL-06587,41.9496536,-88.0894771
Blue Island,Illinois,23416,5753,Chicago-Naperville-Elgin,9607711,$60965,19.3%,37,$155000,994,$156,59,57.23%,$1071,63.2%,551,1428,16.13%,11.69%,66.4%,Cook County,73.90%,20.80%,0.7%,35.27%,19.22%,43.06%,19.42%,Central Standard Time,86,33,53,68,20,60%,56%,39,59,89,52%,65%,39%,44.11,13.81,7.37,36.44%,36.26%,37.89%,40.8,28,8.1,38.4,56,564,3.6,4.07,IL-06704,41.6577828,-87.6811463
Bolingbrook,Illinois,73813,2970,Chicago-Naperville-Elgin,9607711,$107552,38.48%,37,$320000,1798,$178,31,82.04%,$1718,47.38%,163,862,8.21%,4.95%,72.13%,Will County,49.90%,43.60%,14.02%,18.46%,36.28%,28.24%,22.49%,Central Standard Time,85,32,53,65,16,60%,56%,39,59,88,52%,65%,39%,43.44,13.82,6.99,36.66%,36.92%,35.89%,35.6,25,8.1,38.4,64,609,3.7,24.85,IL-07133,41.6901131,-88.1020488
Braceville,Illinois,890,286,Chicago-Naperville-Elgin,9607711,$70278,10.0%,31,$183000,1346,$136,49,65.46%,N/A,52.81%,N/A,N/A,13.15%,2.87%,67.43%,Grundy County,34.70%,57.90%,0.0%,0.0%,77.75%,21.35%,0.45%,Central Standard Time,83,31,52,63,15,60%,56%,39,59,85,52%,65%,39%,41.87,13.9,6.71,35.48%,37.25%,34.44%,27.7,15,8.1,38.4,82,531,3.5,3.11,IL-07640,41.2235199,-88.235666
Braceville township,Illinois,890,286,Chicago-Naperville-Elgin,9607711,$70278,10.0%,31,$183000,1346,$136,49,65.46%,N/A,52.81%,N/A,N/A,13.15%,2.87%,67.43%,Grundy County,34.70%,57.90%,0.0%,0.0%,77.75%,21.35%,0.45%,Central Standard Time,83,31,52,63,15,60%,56%,39,59,85,52%,65%,39%,41.87,13.9,6.71,35.48%,37.25%,34.44%,27.7,15,8.1,38.4,80,531,3.5,3.11,IL-07640,41.2235199,-88.235666
Braidwood,Illinois,6175,1165,Chicago-Naperville-Elgin,9607711,$83365,18.24%,44,$190000,1092,$174,26,82.73%,$1089,45.39%,161,548,9.39%,3.23%,64.1%,Will County,49.90%,43.60%,0.0%,0.18%,88.37%,8.57%,0.89%,Central Standard Time,85,32,53,66,16,60%,56%,39,59,88,52%,65%,39%,41.87,13.9,6.71,35.48%,37.25%,34.44%,27.7,15,8.1,38.4,74,531,3.7,5.3,IL-07770,41.2695432,-88.2234951
Bremen,Illinois,110567,2930,Chicago-Naperville-Elgin,9607711,N/A,N/A,N/A,N/A,N/A,N/A,N/A,N/A,N/A,N/A,N/A,N/A,N/A,N/A,N/A,Cook County,73.90%,20.80%,N/A,N/A,N/A,N/A,N/A,Central Standard Time,84,32,52,64,16,60%,56%,39,59,86,52%,65%,39%,44.6,14.72,7.31,34.71%,33.41%,34.33%,40.8,28,8.1,38.4,51,588,3.6,37.74,IL-07939,41.6022079,-87.7347431
Bridgeview,Illinois,16721,4049,Chicago-Naperville-Elgin,9607711,$65153,17.85%,41,$245000,1369,$179,45,72.73%,$1139,56.28%,260,1950,13.21%,8.55%,59.48%,Cook County,73.90%,20.80%,2.52%,4.11%,60.34%,30.93%,23.75%,Central Standard Time,86,33,53,68,20,60%,56%,39,59,89,52%,65%,39%,41.97,12.33,7.17,36.44%,36.26%,37.89%,40.8,28,8.1,38.4,54,564,3.6,4.13,IL-08225,41.7402851,-87.8066456
Bristol,Illinois,28192,996,Chicago-Naperville-Elgin,9607711,N/A,N/A,N/A,N/A,N/A,N/A,N/A,N/A,N/A,N/A,N/A,N/A,N/A,N/A,N/A,Kendall County,46.00%,46.20%,N/A,N/A,N/A,N/A,N/A,Central Standard Time,85,31,54,62,15,60%,56%,39,59,88,52%,65%,39%,43.2,14.0,6.84,35.32%,40.0%,27.22%,42.4,16,8.1,38.4,74,666,3.4,28.31,IL-08368,41.6865039,-88.4354343
Broadview,Illinois,7898,4437,Chicago-Naperville-Elgin,9607711,$60139,14.85%,42,$240000,1283,$187,66,79.64%,$1092,62.25%,260,4475,10.74%,7.8%,60.22%,Cook County,73.90%,20.80%,1.89%,63.32%,10.64%,21.25%,11.08%,Central Standard Time,85,33,52,68,20,60%,56%,39,59,88,52%,65%,39%,44.46,13.66,7.7,34.47%,36.37%,30.44%,40.8,28,8.1,38.4,59,603,3.6,1.78,IL-08446,41.8583676,-87.8561917
Brookfield,Illinois,19235,6286,Chicago-Naperville-Elgin,9607711,$108429,41.82%,42,$338000,1673,$202,68,82.51%,$1328,43.86%,N/A,N/A,5.0%,3.46%,69.23%,Cook County,73.90%,20.80%,0.95%,5.45%,69.88%,20.41%,9.3%,Central Standard Time,85,33,52,68,20,60%,56%,39,59,88,52%,65%,39%,44.46,13.66,7.7,34.47%,36.37%,30.44%,40.8,28,8.1,38.4,61,603,3.6,3.06,IL-08576,41.8245298,-87.8470016
Buffalo Grove,Illinois,42824,4479,Chicago-Naperville-Elgin,9607711,$129820,66.64%,42,$295000,1528,$193,38,81.13%,$2042,35.54%,26,706,6.54%,2.48%,69.24%,Lake County,56.40%,36.20%,28.24%,3.78%,58.6%,6.32%,36.65%,Central Standard Time,84,32,52,66,19,60%,56%,39,59,86,52%,65%,39%,41.98,13.97,6.52,30.82%,33.63%,23.0%,47.4,28,8.1,38.4,60,639,3.7,9.56,IL-09447,42.167538,-87.9616033
Bull Valley,Illinois,1121,123,Chicago-Naperville-Elgin,9607711,$185417,51.14%,58,$580000,2140,$271,40,94.93%,$3292,34.64%,N/A,N/A,5.8%,5.55%,55.48%,McHenry County,42.20%,49.80%,5.26%,0.0%,80.82%,11.78%,8.47%,Central Standard Time,84,32,52,63,15,60%,56%,39,59,86,52%,65%,39%,42.63,13.92,6.37,33.51%,34.4%,30.22%,47.4,28,8.1,38.4,79,876,3.4,9.13,IL-09531,42.3226202,-88.3634474
Burbank,Illinois,28822,6912,Chicago-Naperville-Elgin,9607711,$83975,15.48%,38,$280000,1321,$212,55,79.81%,$1241,46.46%,189,856,10.75%,7.74%,65.01%,Cook County,73.90%,20.80%,2.73%,1.68%,44.41%,49.69%,31.64%,Central Standard Time,86,33,53,68,20,60%,56%,39,59,89,52%,65%,39%,45.01,14.1,7.45,36.44%,36.26%,37.89%,40.8,28,8.1,38.4,57,567,3.6,4.17,IL-09642,41.7444198,-87.7685043
Burlington,Illinois,479,70,Chicago-Naperville-Elgin,9607711,$83250,25.08%,38,$450000,2446,$184,53,67.12%,$1196,48.19%,N/A,N/A,14.13%,1.98%,69.32%,Kane County,51.90%,41.40%,0.0%,0.0%,90.81%,6.89%,0.42%,Central Standard Time,84,31,53,63,14,60%,56%,39,59,86,52%,65%,39%,40.53,13.96,6.12,33.62%,33.08%,32.89%,42.4,16,8.1,38.4,82,756,3.5,6.86,IL-09759,42.0515169,-88.5505445
Burlington township,Illinois,479,70,Chicago-Naperville-Elgin,9607711,$83250,25.08%,38,$450000,2446,$184,53,67.12%,$1196,48.19%,N/A,N/A,14.13%,1.98%,69.32%,Kane County,51.90%,41.40%,0.0%,0.0%,90.81%,6.89%,0.42%,Central Standard Time,84,31,53,63,14,60%,56%,39,59,86,52%,65%,39%,40.53,13.96,6.12,33.62%,33.08%,32.89%,42.4,16,8.1,38.4,82,756,3.5,6.86,IL-09759,42.0515169,-88.5505445
Burnham,Illinois,3978,2139,Chicago-Naperville-Elgin,9607711,$55708,11.7%,37,N/A,N/A,N/A,50,63.43%,$1183,70.1%,N/A,N/A,13.82%,9.93%,60.3%,Cook County,73.90%,20.80%,0.25%,60.91%,10.61%,28.15%,7.82%,Central Standard Time,84,32,52,64,16,60%,56%,39,59,86,52%,65%,39%,43.47,14.34,7.16,34.71%,33.41%,34.33%,40.8,28,8.1,38.4,70,567,3.6,1.86,IL-09798,41.6375377,-87.544703
Burr Ridge,Illinois,11119,1557,Chicago-Naperville-Elgin,9607711,$154508,69.23%,58,$575000,2255,$255,31,94.2%,$3000,32.78%,64,1477,5.19%,3.62%,55.37%,DuPage County,53.10%,38.60%,14.89%,0.16%,72.42%,4.18%,22.81%,Central Standard Time,90,34,56,64,15,60%,56%,39,59,97,52%,65%,39%,43.76,14.04,7.34,35.48%,37.8%,33.89%,40.8,28,8.1,38.4,62,663,3.4,7.14,IL-09980,41.7484974,-87.9199317
Burton township (McHenry Cnty),Illinois,4924,14921,Chicago-Naperville-Elgin,9607711,N/A,N/A,N/A,N/A,N/A,N/A,N/A,N/A,N/A,N/A,N/A,N/A,N/A,N/A,N/A,McHenry County,42.20%,49.80%,N/A,N/A,N/A,N/A,N/A,Central Standard Time,82,30,52,60,15,63%,61%,37,58,84,53%,66%,44%,40.14,13.17,6.35,34.36%,35.16%,33.22%,47.4,28,8.1,34.2,77,720,3.4,0.33,IL-10032,42.4552021,-88.218374
Calumet,Illinois,35253,4910,Chicago-Naperville-Elgin,9607711,$53991,20.46%,38,$139000,1219,$114,52,57.75%,$1138,65.63%,514,2878,23.28%,9.43%,63.6%,Cook County,73.90%,20.80%,0.16%,74.01%,7.36%,15.43%,9.0%,Central Standard Time,84,32,52,64,16,60%,56%,39,59,86,52%,65%,39%,43.47,14.34,7.16,34.71%,33.41%,34.33%,40.8,28,8.1,38.4,63,567,3.6,7.18,IL-10487,41.6095242,-87.5384287
Calumet City,Illinois,35253,4910,Chicago-Naperville-Elgin,9607711,$53991,20.46%,38,$139000,1219,$114,52,57.75%,$1138,65.63%,514,2878,23.28%,9.43%,63.6%,Cook County,73.90%,20.80%,0.16%,74.01%,7.36%,15.43%,9.0%,Central Standard Time,84,32,52,64,16,60%,56%,39,59,86,52%,65%,39%,43.47,14.34,7.16,34.71%,33.41%,34.33%,40.8,28,8.1,38.4,67,567,3.6,7.18,IL-10487,41.6095242,-87.5384287
Calumet Park,Illinois,6836,6104,Chicago-Naperville-Elgin,9607711,$57389,18.83%,37,$180000,1040,$173,62,60.55%,$1157,65.05%,N/A,N/A,13.73%,17.17%,63.04%,Cook County,73.90%,20.80%,0.0%,80.72%,2.08%,5.27%,1.87%,Central Standard Time,86,33,53,68,20,60%,56%,39,59,89,52%,65%,39%,44.6,14.72,7.31,36.44%,36.26%,37.89%,40.8,28,8.1,38.4,64,588,3.6,1.12,IL-10513,41.6649425,-87.6577095
Campton,Illinois,17524,510,Chicago-Naperville-Elgin,9607711,N/A,N/A,N/A,N/A,N/A,N/A,N/A,N/A,N/A,N/A,N/A,N/A,N/A,N/A,N/A,Kane County,51.90%,41.40%,N/A,N/A,N/A,N/A,N/A,Central Standard Time,84,31,53,64,16,60%,56%,39,59,86,52%,65%,39%,41.18,12.97,6.45,31.92%,33.63%,31.78%,42.4,16,8.1,38.4,76,780,3.5,34.36,IL-10903,41.9403958,-88.432666
Campton Hills,Illinois,10724,635,Chicago-Naperville-Elgin,9607711,$192727,57.7%,43,$539000,2882,$187,32,95.05%,$1424,26.53%,8,62,2.67%,5.85%,69.35%,Kane County,51.90%,41.40%,2.39%,1.3%,87.45%,4.54%,4.17%,Central Standard Time,84,31,53,64,16,60%,56%,39,59,86,52%,65%,39%,41.18,12.97,6.45,31.92%,33.63%,31.78%,42.4,16,8.1,38.4,76,780,3.5,16.89,IL-10906,41.9498075,-88.4165971
Carbon Hill,Illinois,485,2694,Chicago-Naperville-Elgin,9607711,$100368,8.8%,33,N/A,N/A,N/A,42,65.28%,$1229,39.34%,N/A,N/A,7.01%,7.55%,72.4%,Grundy County,34.70%,57.90%,0.0%,0.0%,85.57%,11.96%,0.21%,Central Standard Time,85,32,53,66,16,60%,56%,39,59,88,52%,65%,39%,41.87,13.9,6.71,35.48%,37.25%,34.44%,27.7,15,8.1,38.4,79,531,3.5,0.18,IL-11176,41.296977,-88.2998925
Carol Stream,Illinois,39427,4323,Chicago-Naperville-Elgin,9607711,$105395,43.76%,39,$290000,1450,$200,36,71.01%,$1465,43.96%,73,1040,7.0%,4.17%,70.22%,DuPage County,53.10%,38.60%,19.55%,6.4%,50.48%,18.35%,28.56%,Central Standard Time,84,31,53,64,16,60%,56%,39,59,86,52%,65%,39%,43.3,13.45,7.39,33.32%,36.48%,27.89%,46.2,27,8.1,38.4,64,693,3.4,9.12,IL-11332,41.9181638,-88.1307503
Carpentersville,Illinois,37544,4764,Chicago-Naperville-Elgin,9607711,$86327,23.99%,34,$223000,1297,$172,43,70.95%,$1420,50.21%,55,1006,9.69%,6.3%,74.08%,Kane County,51.90%,41.40%,4.02%,5.23%,32.09%,56.02%,28.77%,Central Standard Time,84,31,53,63,14,60%,56%,39,59,86,52%,65%,39%,41.99,14.09,6.4,37.1%,36.15%,37.11%,46.2,27,8.1,38.4,71,771,3.5,7.88,IL-11358,42.1226534,-88.2897555
Cary,Illinois,17875,2869,Chicago-Naperville-Elgin,9607711,$109790,45.5%,39,$294000,1633,$180,35,88.54%,$1456,40.63%,45,778,4.58%,5.14%,74.31%,McHenry County,42.20%,49.80%,1.28%,0.75%,80.22%,13.73%,7.19%,Central Standard Time,84,31,53,62,13,60%,56%,39,59,86,52%,65%,39%,42.11,13.68,6.75,37.78%,38.57%,34.56%,47.4,28,8.1,38.4,73,741,3.4,6.23,IL-11592,42.212836,-88.2494103
Channahon,Illinois,13854,887,Chicago-Naperville-Elgin,9607711,$121458,29.79%,38,$307000,1806,$170,21,86.95%,$1718,40.93%,53,600,4.5%,7.1%,72.28%,Will County,49.90%,43.60%,0.51%,1.45%,82.1%,14.21%,3.29%,Central Standard Time,85,32,53,66,16,60%,56%,39,59,88,52%,65%,39%,43.47,13.69,7.2,35.48%,37.25%,34.44%,27.7,15,8.1,38.4,73,546,3.7,15.62,IL-12476,41.421102,-88.2599202
Channahon township,Illinois,13854,887,Chicago-Naperville-Elgin,9607711,$121458,29.79%,38,$307000,1806,$170,21,86.95%,$1718,40.93%,53,600,4.5%,7.1%,72.28%,Will County,49.90%,43.60%,0.51%,1.45%,82.1%,14.21%,3.29%,Central Standard Time,85,32,53,66,16,60%,56%,39,59,88,52%,65%,39%,43.47,13.69,7.2,35.48%,37.25%,34.44%,27.7,15,8.1,38.4,74,546,3.7,15.62,IL-12476,41.421102,-88.2599202
Channel Lake,Illinois,1988,1104,Chicago-Naperville-Elgin,9607711,$63958,19.9%,35,$219000,1058,$207,58,81.67%,$1526,58.86%,N/A,N/A,19.37%,3.81%,60.32%,Lake County,56.40%,36.20%,0.0%,1.11%,86.92%,4.58%,1.16%,Central Standard Time,83,29,54,61,14,63%,61%,37,58,86,53%,66%,44%,40.14,13.17,6.35,33.34%,33.96%,33.22%,47.4,28,8.1,34.2,76,720,3.7,1.8,IL-12489,42.4825828,-88.1487668
Chemung CDP,Illinois,251,896,Chicago-Naperville-Elgin,9607711,$68463,1.99%,75,N/A,N/A,N/A,28,59.76%,N/A,11.16%,N/A,N/A,0.0%,31.25%,6.37%,McHenry County,42.20%,49.80%,0.0%,0.0%,100.0%,0.0%,0.0%,Central Standard Time,84,29,55,62,12,60%,57%,37,58,86,52%,64%,45%,40.39,14.2,6.18,33.67%,35.05%,30.78%,35.8,22,8.1,40.5,81,831,3.4,0.28,IL-12879,42.4162008,-88.6641601
Chemung township,Illinois,251,896,Chicago-Naperville-Elgin,9607711,$68463,1.99%,75,N/A,N/A,N/A,28,59.76%,N/A,11.16%,N/A,N/A,0.0%,31.25%,6.37%,McHenry County,42.20%,49.80%,0.0%,0.0%,100.0%,0.0%,0.0%,Central Standard Time,84,29,55,62,12,60%,57%,37,58,86,52%,64%,45%,40.39,14.2,6.18,33.67%,35.05%,30.78%,35.8,22,8.1,40.5,77,831,3.4,0.28,IL-12879,42.4162008,-88.6641601
Chicago,Illinois,2707648,11890,Chicago-Naperville-Elgin,9607711,$75134,43.32%,36,$350000,1434,$244,68,50.21%,$1380,62.15%,943,2982,16.83%,7.92%,67.33%,Cook County,73.90%,20.80%,7.13%,28.42%,32.21%,29.61%,20.71%,Central Standard Time,81,33,48,68,20,60%,56%,39,59,82,52%,65%,39%,37.29,12.25,5.35,34.47%,36.37%,30.44%,40.8,28,8.1,38.4,48,534,3.6,227.73,IL-14000,41.837107,-87.6851202
Chicago Heights,Illinois,26938,2620,Chicago-Naperville-Elgin,9607711,$57479,20.22%,36,$175000,1563,$112,62,61.41%,$1035,64.36%,773,1954,24.71%,12.7%,59.75%,Cook County,73.90%,20.80%,0.23%,40.34%,20.28%,37.19%,15.68%,Central Standard Time,84,32,52,64,16,60%,56%,39,59,86,52%,65%,39%,45.17,14.1,7.99,34.71%,33.41%,34.33%,40.8,28,8.1,38.4,69,648,3.6,10.28,IL-14026,41.5100147,-87.6344967
Chicago Ridge,Illinois,14147,6232,Chicago-Naperville-Elgin,9607711,$69389,27.72%,34,$140000,940,$149,47,56.79%,$1198,46.53%,121,2468,16.96%,4.64%,63.64%,Cook County,73.90%,20.80%,4.07%,9.04%,58.93%,17.08%,26.14%,Central Standard Time,86,33,53,68,20,60%,56%,39,59,89,52%,65%,39%,44.11,13.81,7.37,36.44%,36.26%,37.89%,40.8,28,8.1,38.4,51,564,3.6,2.27,IL-14065,41.7034149,-87.7794686
Cicero town,Illinois,83223,14178,Chicago-Naperville-Elgin,9607711,$68548,10.99%,34,$230000,1361,$169,82,57.55%,$1121,57.68%,317,1942,13.09%,4.33%,63.09%,Cook County,73.90%,20.80%,0.55%,3.36%,7.37%,88.85%,39.95%,Central Standard Time,85,33,52,68,20,60%,56%,39,59,88,52%,65%,39%,43.18,13.44,7.24,34.47%,36.37%,30.44%,40.8,28,8.1,38.4,56,567,3.6,5.87,IL-14351,41.844539,-87.7592897
Clarendon Hills,Illinois,8642,4775,Chicago-Naperville-Elgin,9607711,$125826,77.39%,41,$865000,2637,$328,39,90.89%,$1124,37.41%,56,498,7.88%,2.83%,62.89%,DuPage County,53.10%,38.60%,11.13%,0.69%,80.85%,3.33%,13.12%,Central Standard Time,85,32,53,62,15,60%,56%,39,59,88,52%,65%,39%,45.41,14.27,7.61,33.78%,35.38%,32.22%,40.8,28,8.1,38.4,59,684,3.4,1.81,IL-14572,41.7980534,-87.95685
Clinton township,Illinois,1801,504,Chicago-Naperville-Elgin,9607711,N/A,N/A,N/A,N/A,N/A,N/A,N/A,N/A,N/A,N/A,174,2809,N/A,N/A,N/A,DeKalb County,46.90%,43.80%,N/A,N/A,N/A,N/A,N/A,Central Standard Time,82,29,53,61,14,60%,56%,39,59,84,52%,65%,39%,40.57,13.47,6.17,35.29%,33.41%,38.33%,29.1,18,8.1,38.4,82,777,3.5,3.57,IL-14988,41.7617033,-88.7718014
Coal City,Illinois,5145,915,Chicago-Naperville-Elgin,9607711,$73030,24.88%,42,$253000,1454,$174,36,77.88%,$1064,47.8%,74,543,4.67%,6.28%,63.29%,Grundy County,34.70%,57.90%,0.21%,0.76%,90.18%,7.48%,3.03%,Central Standard Time,85,32,53,66,16,60%,56%,39,59,88,52%,65%,39%,41.87,13.9,6.71,35.48%,37.25%,34.44%,27.7,15,8.1,38.4,79,531,3.5,5.62,IL-15170,41.2772021,-88.280234
Coral,Illinois,3490,87250,Chicago-Naperville-Elgin,9607711,N/A,N/A,N/A,N/A,N/A,N/A,N/A,0.0%,N/A,0.0%,N/A,N/A,0.0%,0.0%,0.0%,McHenry County,42.20%,49.80%,0.0%,0.0%,0.0%,0.0%,0.0%,Central Standard Time,84,29,55,62,12,60%,56%,39,59,86,52%,65%,39%,41.93,14.39,6.52,33.51%,34.4%,30.22%,35.8,22,8.1,38.4,79,744,3.4,0.04,IL-16301,42.2179945,-88.5662034
Cortland town,Illinois,4556,1248,Chicago-Naperville-Elgin,9607711,$82750,31.09%,32,$245000,1424,$172,24,75.26%,$1420,55.02%,45,984,7.96%,6.06%,76.47%,DeKalb County,46.90%,43.80%,0.0%,9.88%,71.36%,17.45%,2.3%,Central Standard Time,83,29,54,64,13,60%,56%,39,59,85,52%,65%,39%,36.84,12.62,5.88,32.52%,33.74%,33.11%,42.4,16,8.1,38.4,77,822,3.5,3.65,IL-16470,41.919331,-88.6532732
Cortland township,Illinois,4556,1248,Chicago-Naperville-Elgin,9607711,$82750,31.09%,32,$245000,1424,$172,24,75.26%,$1420,55.02%,45,984,7.96%,6.06%,76.47%,DeKalb County,46.90%,43.80%,0.0%,9.88%,71.36%,17.45%,2.3%,Central Standard Time,83,29,54,64,13,60%,56%,39,59,85,52%,65%,39%,36.84,12.62,5.88,32.52%,33.74%,33.11%,42.4,16,8.1,38.4,74,822,3.5,3.65,IL-16470,41.919331,-88.6532732
Country Club Hills,Illinois,16419,3304,Chicago-Naperville-Elgin,9607711,$77463,27.62%,39,$180000,1314,$137,44,80.41%,$1677,68.71%,266,3353,10.09%,7.88%,62.76%,Cook County,73.90%,20.80%,0.46%,87.79%,7.23%,3.84%,4.12%,Central Standard Time,84,32,52,64,16,60%,56%,39,59,86,52%,65%,39%,44.6,14.72,7.31,34.71%,33.41%,34.33%,40.8,28,8.1,38.4,44,588,3.6,4.97,IL-16691,41.563661,-87.7250311
Countryside,Illinois,6294,2185,Chicago-Naperville-Elgin,9607711,$78132,36.72%,49,$175000,1094,$160,45,77.28%,$1212,52.33%,151,3038,8.79%,6.02%,65.31%,Cook County,73.90%,20.80%,4.51%,2.72%,70.69%,19.11%,17.91%,Central Standard Time,90,34,56,64,15,60%,56%,39,59,97,52%,65%,39%,41.97,12.33,7.17,35.48%,37.8%,33.89%,40.8,28,8.1,38.4,60,564,3.6,2.88,IL-16873,41.7742058,-87.8752224
Crest Hill,Illinois,19754,2183,Chicago-Naperville-Elgin,9607711,$71408,21.54%,39,$245000,1424,$172,28,70.26%,$1386,61.09%,267,1071,10.9%,5.43%,56.46%,Will County,49.90%,43.60%,3.78%,20.68%,47.73%,24.26%,10.88%,Central Standard Time,85,32,53,65,16,60%,56%,39,59,88,52%,65%,39%,44.16,14.3,7.09,36.08%,36.59%,35.67%,35.6,25,8.1,38.4,68,603,3.7,9.05,IL-17458,41.5723694,-88.1123439
Crestwood,Illinois,10622,3483,Chicago-Naperville-Elgin,9607711,$68686,23.07%,51,$151000,1041,$145,45,74.66%,$1300,64.56%,N/A,N/A,10.25%,7.61%,56.78%,Cook County,73.90%,20.80%,2.0%,12.4%,68.75%,14.65%,12.1%,Central Standard Time,86,33,53,68,20,60%,56%,39,59,89,52%,65%,39%,44.11,13.81,7.37,36.44%,36.26%,37.89%,40.8,28,8.1,38.4,53,564,3.6,3.05,IL-17497,41.6453872,-87.7397
Crete,Illinois,8382,891,Chicago-Naperville-Elgin,9607711,$97984,33.73%,49,$201000,1703,$118,44,90.76%,$1283,57.58%,234,1803,8.19%,7.06%,61.91%,Will County,49.90%,43.60%,0.95%,35.02%,49.07%,10.4%,3.79%,Central Standard Time,84,32,52,64,16,60%,56%,39,59,86,52%,65%,39%,42.84,13.08,7.97,38.11%,38.02%,37.89%,40.8,28,8.1,38.4,74,639,3.7,9.41,IL-17523,41.4400583,-87.6234673
Crete township,Illinois,8382,891,Chicago-Naperville-Elgin,9607711,$97984,33.73%,49,$201000,1703,$118,44,90.76%,$1283,57.58%,234,1803,8.19%,7.06%,61.91%,Will County,49.90%,43.60%,0.95%,35.02%,49.07%,10.4%,3.79%,Central Standard Time,84,32,52,64,16,60%,56%,39,59,86,52%,65%,39%,42.84,13.08,7.97,38.11%,38.02%,37.89%,40.8,28,8.1,38.4,73,639,3.7,9.41,IL-17523,41.4400583,-87.6234673
Crystal Lake,Illinois,40436,2137,Chicago-Naperville-Elgin,9607711,$105428,41.97%,40,$251000,1662,$151,34,79.93%,$1431,44.84%,112,1229,6.1%,4.61%,70.51%,McHenry County,42.20%,49.80%,3.4%,0.56%,80.86%,12.1%,9.32%,Central Standard Time,84,32,52,63,15,60%,56%,39,59,86,52%,65%,39%,41.93,14.39,6.52,37.78%,38.57%,34.56%,47.4,28,8.1,38.4,72,861,3.4,18.92,IL-17887,42.233276,-88.3350897
Crystal Lawns,Illinois,1965,2977,Chicago-Naperville-Elgin,9607711,$109415,28.15%,38,$255000,1386,$184,56,93.88%,N/A,44.06%,N/A,N/A,5.8%,3.42%,74.77%,Will County,49.90%,43.60%,0.41%,5.5%,71.45%,25.8%,5.8%,Central Standard Time,85,32,53,65,16,60%,56%,39,59,88,52%,65%,39%,46.19,15.4,7.44,36.93%,37.14%,36.22%,35.6,25,8.1,38.4,64,543,3.7,0.66,IL-17939,41.5685313,-88.1639134
Cuba township,Illinois,16730,30981,Chicago-Naperville-Elgin,9607711,N/A,N/A,N/A,$61000,1089,$56,N/A,N/A,N/A,N/A,N/A,N/A,N/A,N/A,N/A,Lake County,56.40%,36.20%,N/A,N/A,N/A,N/A,N/A,Central Standard Time,82,29,53,63,14,60%,56%,39,59,84,52%,65%,39%,42.11,13.68,6.75,37.78%,38.57%,34.56%,47.4,28,8.1,38.4,73,741,3.7,0.54,IL-18004,42.1978512,-88.1600891
Custer,Illinois,1265,49,Chicago-Naperville-Elgin,9607711,N/A,N/A,N/A,N/A,N/A,N/A,N/A,N/A,N/A,N/A,N/A,N/A,N/A,N/A,N/A,Will County,49.90%,43.60%,N/A,N/A,N/A,N/A,N/A,Central Standard Time,85,33,52,65,17,60%,56%,39,59,88,52%,65%,39%,41.87,13.9,6.71,35.84%,34.73%,36.11%,27.7,15,8.1,38.4,81,531,3.7,25.82,IL-18199,41.2341811,-88.1325632
Darien,Illinois,21855,3542,Chicago-Naperville-Elgin,9607711,$109354,51.71%,45,$273000,1345,$203,42,82.99%,$1671,42.68%,50,998,3.83%,3.94%,66.45%,DuPage County,53.10%,38.60%,11.16%,3.05%,73.55%,8.56%,18.57%,Central Standard Time,90,34,56,64,15,60%,56%,39,59,97,52%,65%,39%,43.99,14.55,7.06,35.48%,37.8%,33.89%,40.8,28,8.1,38.4,63,687,3.4,6.17,IL-18628,41.7447642,-87.982206
Deer Park,Illinois,3711,1017,Chicago-Naperville-Elgin,9607711,$160750,71.94%,44,$615000,2510,$245,32,91.61%,$2389,38.9%,N/A,N/A,1.4%,1.99%,62.5%,Lake County,56.40%,36.20%,8.87%,0.0%,82.83%,3.48%,12.42%,Central Standard Time,82,29,53,63,14,60%,56%,39,59,84,52%,65%,39%,39.77,13.11,6.68,37.15%,38.24%,33.33%,47.4,28,8.1,38.4,69,669,3.7,3.65,IL-19083,42.1654541,-88.0863874
Deerfield,Illinois,19185,3469,Chicago-Naperville-Elgin,9607711,$189705,82.7%,45,$488000,1992,$245,51,85.01%,$2345,32.85%,37,695,2.45%,2.39%,68.02%,Lake County,56.40%,36.20%,5.82%,0.27%,86.73%,4.96%,9.56%,Central Standard Time,84,33,51,64,17,60%,56%,39,59,86,52%,65%,39%,42.37,13.61,6.91,38.0%,36.7%,38.44%,42.4,27,8.1,38.4,61,630,3.7,5.53,IL-18992,42.165392,-87.8515615
DeKalb,Illinois,40464,2506,Chicago-Naperville-Elgin,9607711,$46564,35.72%,25,$220000,1642,$134,43,44.32%,$1030,70.28%,577,3026,25.7%,10.59%,67.75%,DeKalb County,46.90%,43.80%,3.9%,15.2%,57.49%,18.35%,9.06%,Central Standard Time,83,29,54,64,13,60%,56%,39,59,85,52%,65%,39%,39.51,13.36,6.06,34.88%,35.82%,32.67%,42.4,16,8.1,38.4,71,819,3.5,16.15,IL-19161,41.9313634,-88.7481869
DeKalb township,Illinois,40464,2506,Chicago-Naperville-Elgin,9607711,$46564,35.72%,25,$220000,1642,$134,43,44.32%,$1030,70.28%,577,3026,25.7%,10.59%,67.75%,DeKalb County,46.90%,43.80%,3.9%,15.2%,57.49%,18.35%,9.06%,Central Standard Time,83,29,54,64,13,60%,56%,39,59,85,52%,65%,39%,39.51,13.36,6.06,34.88%,35.82%,32.67%,42.4,16,8.1,38.4,71,819,3.5,16.15,IL-19161,41.9313634,-88.7481869
Des Plaines,Illinois,59408,4172,Chicago-Naperville-Elgin,9607711,$94303,38.67%,43,$278000,1258,$221,54,79.77%,$1435,45.7%,94,1101,5.83%,4.58%,65.74%,Cook County,73.90%,20.80%,14.19%,4.02%,55.78%,23.25%,32.58%,Central Standard Time,85,32,53,67,19,60%,56%,39,59,88,52%,65%,39%,41.62,13.0,6.94,36.08%,35.82%,37.22%,42.4,27,8.1,38.4,33,603,3.6,14.24,IL-19642,42.034481,-87.9008515
Diamond,Illinois,2900,1526,Chicago-Naperville-Elgin,9607711,$60000,12.06%,36,$260000,1699,$153,29,76.45%,$1224,53.96%,0,0,14.14%,0.71%,66.68%,Grundy County,34.70%,57.90%,0.0%,0.14%,89.93%,6.9%,0.62%,Central Standard Time,85,32,53,66,16,60%,56%,39,59,88,52%,65%,39%,41.87,13.9,6.71,35.48%,37.25%,34.44%,27.7,15,8.1,38.4,79,531,3.5,1.9,IL-19837,41.2852242,-88.2507004
Dixmoor,Illinois,2962,2370,Chicago-Naperville-Elgin,9607711,$39861,6.37%,28,N/A,N/A,N/A,48,48.82%,$1227,64.77%,N/A,N/A,27.89%,6.84%,61.84%,Cook County,73.90%,20.80%,0.0%,37.91%,10.4%,50.88%,6.79%,Central Standard Time,86,33,53,68,20,60%,56%,39,59,89,52%,65%,39%,44.6,14.72,7.31,36.44%,36.26%,37.89%,40.8,28,8.1,38.4,60,588,3.6,1.25,IL-20149,41.6329507,-87.6672326
Dolton,Illinois,20979,4591,Chicago-Naperville-Elgin,9607711,$58706,22.73%,40,$144000,1263,$114,55,62.71%,$1399,71.64%,N/A,N/A,20.45%,10.89%,58.85%,Cook County,73.90%,20.80%,0.21%,90.94%,4.35%,1.23%,3.41%,Central Standard Time,84,32,52,64,16,60%,56%,39,59,86,52%,65%,39%,44.6,14.72,7.31,34.71%,33.41%,34.33%,40.8,28,8.1,38.4,65,588,3.6,4.57,IL-20292,41.6283609,-87.5978714
Dorr,Illinois,21150,588,Chicago-Naperville-Elgin,9607711,N/A,N/A,N/A,N/A,N/A,N/A,N/A,N/A,N/A,N/A,N/A,N/A,N/A,N/A,N/A,McHenry County,42.20%,49.80%,N/A,N/A,N/A,N/A,N/A,Central Standard Time,84,32,52,63,15,60%,56%,39,59,86,52%,65%,39%,41.93,14.39,6.52,33.51%,34.4%,30.22%,47.4,28,8.1,38.4,72,861,3.4,35.97,IL-20396,42.2841035,-88.41361
Downers Grove,Illinois,49867,3406,Chicago-Naperville-Elgin,9607711,$119649,58.79%,43,$400000,1754,$228,46,80.08%,$1589,43.42%,93,1480,4.93%,3.95%,67.79%,DuPage County,53.10%,38.60%,5.89%,2.78%,82.05%,5.67%,9.89%,Central Standard Time,85,32,53,62,15,60%,56%,39,59,88,52%,65%,39%,45.41,14.27,7.61,33.78%,35.38%,32.22%,40.8,28,8.1,38.4,60,684,3.4,14.64,IL-20591,41.7948752,-88.0171449
Downers Grove township,Illinois,49867,3406,Chicago-Naperville-Elgin,9607711,$119649,58.79%,43,$400000,1754,$228,46,80.08%,$1589,43.42%,93,1480,4.93%,3.95%,67.79%,DuPage County,53.10%,38.60%,5.89%,2.78%,82.05%,5.67%,9.89%,Central Standard Time,85,32,53,62,15,60%,56%,39,59,88,52%,65%,39%,45.41,14.27,7.61,33.78%,35.38%,32.22%,40.8,28,8.1,38.4,61,684,3.4,14.64,IL-20591,41.7948752,-88.0171449
Du Page,Illinois,88695,2446,Chicago-Naperville-Elgin,9607711,N/A,N/A,N/A,N/A,N/A,N/A,N/A,N/A,N/A,N/A,N/A,N/A,N/A,N/A,N/A,Will County,49.90%,43.60%,N/A,N/A,N/A,N/A,N/A,Central Standard Time,85,32,53,65,16,60%,56%,39,59,88,52%,65%,39%,43.1,13.69,6.72,36.08%,36.59%,35.67%,35.6,25,8.1,38.4,64,702,3.7,36.26,IL-21241,41.6837677,-88.0878166
Dundee,Illinois,65622,1873,Chicago-Naperville-Elgin,9607711,N/A,N/A,N/A,N/A,N/A,N/A,N/A,N/A,N/A,N/A,N/A,N/A,N/A,N/A,N/A,Kane County,51.90%,41.40%,N/A,N/A,N/A,N/A,N/A,Central Standard Time,84,31,53,63,14,60%,56%,39,59,86,52%,65%,39%,41.99,14.09,6.4,37.1%,36.15%,37.11%,46.2,27,8.1,38.4,72,771,3.5,35.04,IL-21046,42.1103598,-88.296497
Dunham,Illinois,2791,78,Chicago-Naperville-Elgin,9607711,N/A,N/A,N/A,N/A,N/A,N/A,N/A,N/A,N/A,N/A,N/A,N/A,N/A,N/A,N/A,McHenry County,42.20%,49.80%,N/A,N/A,N/A,N/A,N/A,Central Standard Time,84,29,55,62,12,63%,61%,37,58,88,53%,66%,44%,40.39,14.2,6.18,33.67%,35.05%,30.78%,35.8,22,8.1,34.2,81,831,3.4,35.78,IL-21111,42.3713369,-88.6473164
Dwight,Illinois,3794,1150,Chicago-Naperville-Elgin,9607711,$67712,20.63%,38,$182000,1838,$99,60,75.73%,$992,54.05%,100,1009,14.32%,3.56%,67.38%,Livingston County,26.20%,66.50%,0.0%,0.74%,85.79%,9.62%,3.22%,Central Standard Time,83,31,52,63,15,60%,56%,39,59,85,52%,65%,39%,39.77,13.02,5.71,28.68%,29.23%,26.0%,27.7,15,8.1,38.4,64,573,3.6,3.3,IL-21358,41.0983967,-88.4248584
East Dundee,Illinois,3156,1111,Chicago-Naperville-Elgin,9607711,$87102,35.97%,53,$234000,1265,$185,32,79.91%,$1074,50.67%,61,1174,11.91%,1.73%,67.88%,Kane County,51.90%,41.40%,2.76%,7.13%,68.66%,15.02%,18.76%,Central Standard Time,84,31,53,63,14,60%,56%,39,59,86,52%,65%,39%,42.52,13.53,6.94,37.1%,36.15%,37.11%,46.2,27,8.1,38.4,72,756,3.5,2.84,IL-21696,42.0972413,-88.254473
East Hazel Crest,Illinois,1122,1438,Chicago-Naperville-Elgin,9607711,$57000,17.74%,43,N/A,N/A,N/A,56,57.19%,$1453,67.79%,132,3516,20.14%,10.17%,61.05%,Cook County,73.90%,20.80%,0.0%,55.97%,19.16%,16.31%,6.51%,Central Standard Time,84,32,52,64,16,60%,56%,39,59,86,52%,65%,39%,44.6,14.72,7.31,34.71%,33.41%,34.33%,40.8,28,8.1,38.4,60,588,3.6,0.78,IL-21904,41.5757983,-87.6502726
Ela,Illinois,43646,1269,Chicago-Naperville-Elgin,9607711,N/A,N/A,N/A,N/A,N/A,N/A,N/A,N/A,N/A,N/A,N/A,N/A,N/A,N/A,N/A,Lake County,56.40%,36.20%,N/A,N/A,N/A,N/A,N/A,Central Standard Time,83,30,53,63,14,60%,56%,39,59,85,52%,65%,39%,41.73,13.51,6.73,36.0%,35.49%,35.67%,47.4,28,8.1,38.4,69,768,3.7,34.39,IL-22853,42.1973162,-88.0625531
Elburn,Illinois,6054,1677,Chicago-Naperville-Elgin,9607711,$106506,52.57%,43,$394000,1970,$200,21,87.98%,$1705,46.99%,16,335,7.09%,0.52%,74.38%,Kane County,51.90%,41.40%,2.58%,0.0%,88.14%,9.23%,1.24%,Central Standard Time,85,31,54,62,15,60%,56%,39,59,88,52%,65%,39%,41.42,12.97,6.69,31.92%,33.63%,31.78%,42.4,16,8.1,38.4,76,795,3.5,3.61,IL-22931,41.8851848,-88.4605142
Elgin,Illinois,114106,3000,Chicago-Naperville-Elgin,9607711,$88316,25.98%,36,$305000,1743,$175,44,69.79%,$1260,49.63%,198,1274,10.41%,6.35%,69.2%,Kane County,51.90%,41.40%,6.03%,5.17%,36.25%,48.42%,26.5%,Central Standard Time,84,31,53,63,14,60%,56%,39,59,86,52%,65%,39%,43.07,14.11,6.83,37.1%,36.15%,37.11%,46.2,27,8.1,38.4,67,750,3.5,38.03,IL-23074,42.0383424,-88.3240001
Elgin township,Illinois,114106,3000,Chicago-Naperville-Elgin,9607711,$88316,25.98%,36,$305000,1743,$175,44,69.79%,$1260,49.63%,198,1274,10.41%,6.35%,69.2%,Kane County,51.90%,41.40%,6.03%,5.17%,36.25%,48.42%,26.5%,Central Standard Time,84,31,53,63,14,60%,56%,39,59,86,52%,65%,39%,43.07,14.11,6.83,37.1%,36.15%,37.11%,46.2,27,8.1,38.4,68,750,3.5,38.03,IL-23074,42.0383424,-88.3240001
Elk Grove Village,Illinois,32132,2760,Chicago-Naperville-Elgin,9607711,$95216,40.91%,44,$335000,1580,$212,46,76.24%,$1574,43.89%,92,1396,6.92%,4.33%,67.85%,Cook County,73.90%,20.80%,11.84%,2.97%,69.02%,14.63%,21.48%,Central Standard Time,85,32,53,67,19,60%,56%,39,59,88,52%,65%,39%,41.72,12.99,6.98,36.08%,35.82%,37.22%,42.4,27,8.1,38.4,57,639,3.6,11.64,IL-23256,42.0064053,-87.9921516
Elmhurst,Illinois,45538,4456,Chicago-Naperville-Elgin,9607711,$145374,63.01%,42,$471000,1581,$298,56,85.93%,$1877,40.23%,74,1020,3.48%,4.76%,66.43%,DuPage County,53.10%,38.60%,6.7%,1.84%,77.63%,10.08%,10.35%,Central Standard Time,85,32,53,67,19,60%,56%,39,59,88,52%,65%,39%,42.04,13.19,6.75,36.08%,35.82%,37.22%,42.4,27,8.1,38.4,44,627,3.4,10.22,IL-23620,41.8973381,-87.9432107
Elmwood Park,Illinois,23982,12556,Chicago-Naperville-Elgin,9607711,$84121,29.52%,40,$340000,2024,$168,64,63.82%,$1295,52.83%,268,1108,6.72%,6.83%,65.49%,Cook County,73.90%,20.80%,3.47%,1.73%,55.02%,38.11%,24.82%,Central Standard Time,85,32,53,67,19,60%,56%,39,59,88,52%,65%,39%,44.14,13.31,7.51,36.08%,35.82%,37.22%,42.4,27,8.1,38.4,55,579,3.6,1.91,IL-23724,41.9224591,-87.816321
Elwood,Illinois,2141,157,Chicago-Naperville-Elgin,9607711,$73640,14.71%,42,$235000,1643,$143,29,89.5%,$986,43.16%,132,1063,6.17%,2.53%,63.91%,Will County,49.90%,43.60%,0.0%,7.05%,80.43%,12.94%,4.34%,Central Standard Time,84,32,52,64,16,60%,56%,39,59,86,52%,65%,39%,43.29,14.17,6.73,35.48%,37.25%,34.44%,35.6,25,8.1,38.4,77,465,3.7,13.64,IL-23945,41.3996234,-88.126199
Erienna,Illinois,2502,120,Chicago-Naperville-Elgin,9607711,N/A,N/A,N/A,N/A,N/A,N/A,N/A,N/A,N/A,N/A,N/A,N/A,N/A,N/A,N/A,Grundy County,34.70%,57.90%,N/A,N/A,N/A,N/A,N/A,Central Standard Time,85,32,53,66,16,60%,56%,39,59,88,52%,65%,39%,43.47,14.02,6.99,34.36%,34.62%,32.78%,27.7,15,8.1,38.4,67,468,3.5,20.85,IL-24400,41.3488117,-88.5294708
Evanston,Illinois,76552,9840,Chicago-Naperville-Elgin,9607711,$95766,70.3%,38,$355000,1268,$280,68,60.81%,$1698,56.66%,155,2615,11.89%,6.33%,63.35%,Cook County,73.90%,20.80%,9.02%,14.85%,58.43%,12.34%,16.54%,Central Standard Time,84,33,51,64,17,60%,56%,39,59,86,52%,65%,39%,43.38,13.18,7.53,38.0%,36.7%,38.44%,42.4,27,8.1,38.4,60,573,3.6,7.78,IL-24582,42.0463447,-87.6939447
Evergreen Park,Illinois,19498,6170,Chicago-Naperville-Elgin,9607711,$95738,42.88%,38,$265000,1293,$205,65,81.42%,$1425,44.7%,321,4371,5.25%,4.82%,68.03%,Cook County,73.90%,20.80%,2.77%,22.83%,53.23%,18.5%,10.19%,Central Standard Time,86,33,53,68,20,60%,56%,39,59,89,52%,65%,39%,44.11,13.81,7.37,36.44%,36.26%,37.89%,40.8,28,8.1,38.4,55,564,3.6,3.16,IL-24634,41.7212753,-87.7013341
Felix,Illinois,4353,400,Chicago-Naperville-Elgin,9607711,N/A,N/A,N/A,N/A,N/A,N/A,N/A,N/A,N/A,N/A,N/A,N/A,N/A,N/A,N/A,Grundy County,34.70%,57.90%,N/A,N/A,N/A,N/A,N/A,Central Standard Time,85,32,53,66,16,60%,56%,39,59,88,52%,65%,39%,41.87,13.9,6.71,35.48%,37.25%,34.44%,27.7,15,8.1,38.4,79,531,3.5,10.88,IL-25778,41.309538,-88.2859262
Florence township (Will Cnty),Illinois,1013,3618,Chicago-Naperville-Elgin,9607711,N/A,N/A,N/A,N/A,N/A,N/A,N/A,N/A,N/A,N/A,N/A,N/A,N/A,N/A,N/A,Will County,49.90%,43.60%,N/A,N/A,N/A,N/A,N/A,Central Standard Time,84,32,52,64,16,60%,56%,39,59,86,52%,65%,39%,45.0,14.68,7.52,35.48%,37.25%,34.44%,35.6,25,8.1,38.4,80,615,3.7,0.28,IL-26519,41.3356648,-88.0750307
Flossmoor,Illinois,9666,2641,Chicago-Naperville-Elgin,9607711,$137768,66.97%,44,$305000,2521,$121,53,84.83%,$2191,39.59%,151,2312,2.95%,10.59%,66.21%,Cook County,73.90%,20.80%,1.7%,63.24%,27.35%,4.87%,5.19%,Central Standard Time,84,32,52,64,16,60%,56%,39,59,86,52%,65%,39%,44.6,14.72,7.31,34.71%,33.41%,34.33%,40.8,28,8.1,38.4,68,588,3.6,3.66,IL-26571,41.5391189,-87.6856864
Ford Heights,Illinois,1587,814,Chicago-Naperville-Elgin,9607711,$34323,8.93%,42,$149000,1202,$124,55,44.44%,$924,80.28%,N/A,N/A,40.77%,11.02%,39.84%,Cook County,73.90%,20.80%,0.0%,98.36%,1.64%,0.0%,0.0%,Central Standard Time,84,32,52,64,16,60%,56%,39,59,86,52%,65%,39%,44.02,14.1,7.59,38.11%,38.02%,37.89%,40.8,28,8.1,38.4,71,576,3.6,1.95,IL-26710,41.5108978,-87.5814315
Forest Lake,Illinois,1797,5134,Chicago-Naperville-Elgin,9607711,$92956,52.37%,41,$570000,2864,$199,26,92.96%,N/A,22.16%,N/A,N/A,5.34%,5.29%,81.32%,Lake County,56.40%,36.20%,5.45%,0.0%,70.9%,23.65%,41.24%,Central Standard Time,83,30,53,63,14,60%,56%,39,59,85,52%,65%,39%,41.73,13.51,6.73,36.0%,35.49%,35.67%,47.4,28,8.1,38.4,72,768,3.7,0.35,IL-26896,42.2102586,-88.0531661
Forest Park,Illinois,14000,5833,Chicago-Naperville-Elgin,9607711,$81323,49.76%,40,$151000,782,$193,71,55.49%,$1352,62.55%,436,4149,10.82%,5.1%,68.22%,Cook County,73.90%,20.80%,7.17%,24.8%,53.0%,11.12%,8.51%,Central Standard Time,85,33,52,68,20,60%,56%,39,59,88,52%,65%,39%,43.18,13.44,7.24,34.47%,36.37%,30.44%,40.8,28,8.1,38.4,56,567,3.6,2.4,IL-26935,41.8683705,-87.8156628
Forest View,Illinois,1022,874,Chicago-Naperville-Elgin,9607711,$108833,18.68%,35,N/A,N/A,N/A,65,93.75%,N/A,38.36%,592,4444,1.66%,1.25%,68.13%,Cook County,73.90%,20.80%,0.2%,0.2%,49.12%,50.39%,7.73%,Central Standard Time,85,33,52,68,20,60%,56%,39,59,88,52%,65%,39%,37.29,12.25,5.35,34.47%,36.37%,30.44%,40.8,28,8.1,38.4,43,561,3.6,1.17,IL-26987,41.8072535,-87.7795692
Fox Lake,Illinois,10872,1389,Chicago-Naperville-Elgin,9607711,$69896,23.25%,43,$212000,1386,$153,43,72.48%,$1059,52.8%,191,2476,12.61%,4.53%,64.34%,Lake County,56.40%,36.20%,0.92%,4.21%,76.39%,16.61%,10.38%,Central Standard Time,84,31,53,62,13,60%,56%,39,59,86,52%,65%,39%,40.14,13.17,6.35,36.63%,35.82%,34.33%,47.4,28,8.1,38.4,73,720,3.7,7.83,IL-27442,42.3993894,-88.182939
Fox Lake Hills,Illinois,2304,1814,Chicago-Naperville-Elgin,9607711,$111477,27.07%,45,$230000,1237,$186,43,90.4%,$1514,37.81%,N/A,N/A,4.04%,8.23%,68.6%,Lake County,56.40%,36.20%,0.0%,2.26%,79.04%,14.93%,10.24%,Central Standard Time,84,31,53,62,13,63%,61%,37,58,88,53%,66%,44%,40.14,13.17,6.35,36.63%,35.82%,34.33%,47.4,28,8.1,34.2,74,720,3.7,1.27,IL-27455,42.412718,-88.127023
Fox River Grove,Illinois,4501,2632,Chicago-Naperville-Elgin,9607711,$125104,45.3%,39,$322000,1677,$192,40,85.19%,$2157,39.05%,43,1041,2.87%,8.13%,73.9%,McHenry County,42.20%,49.80%,3.2%,0.0%,81.8%,14.2%,8.75%,Central Standard Time,82,29,53,63,14,60%,56%,39,59,84,52%,65%,39%,42.11,13.68,6.75,37.78%,38.57%,34.56%,47.4,28,8.1,38.4,74,741,3.4,1.71,IL-27533,42.1954999,-88.2148004
Fox township (Kendall Cnty),Illinois,1534,42,Chicago-Naperville-Elgin,9607711,N/A,N/A,N/A,N/A,N/A,N/A,N/A,N/A,N/A,N/A,N/A,N/A,N/A,N/A,N/A,Kendall County,46.00%,46.20%,N/A,N/A,N/A,N/A,N/A,Central Standard Time,85,31,54,62,15,60%,56%,39,59,88,52%,65%,39%,43.2,14.0,6.84,35.32%,40.0%,27.22%,27.7,15,8.1,38.4,76,666,3.4,36.52,IL-27416,41.5891265,-88.5422636
Frankfort,Illinois,20417,1293,Chicago-Naperville-Elgin,9607711,$153714,59.19%,42,$402000,2221,$181,20,96.35%,$2175,34.52%,82,1095,4.42%,3.62%,66.71%,Will County,49.90%,43.60%,2.61%,10.92%,78.57%,5.54%,7.25%,Central Standard Time,84,32,52,64,16,60%,56%,39,59,86,52%,65%,39%,44.5,14.36,7.65,34.71%,33.41%,34.33%,35.6,25,8.1,38.4,68,684,3.7,15.79,IL-27624,41.4907505,-87.8289043
Frankfort Square,Illinois,9777,3911,Chicago-Naperville-Elgin,9607711,$126953,31.85%,40,$304000,1698,$179,35,91.24%,$1511,37.46%,N/A,N/A,5.69%,7.35%,74.46%,Will County,49.90%,43.60%,2.24%,3.75%,69.61%,12.14%,5.39%,Central Standard Time,84,32,52,64,16,60%,56%,39,59,86,52%,65%,39%,44.27,14.26,7.45,34.71%,33.41%,34.33%,40.8,28,8.1,38.4,64,621,3.7,2.5,IL-27644,41.5219402,-87.8031358
Frankfort township (Will Cnty),Illinois,20417,1293,Chicago-Naperville-Elgin,9607711,$153714,59.19%,42,$402000,2221,$181,20,96.35%,$2175,34.52%,82,1095,4.42%,3.62%,66.71%,Will County,49.90%,43.60%,2.61%,10.92%,78.57%,5.54%,7.25%,Central Standard Time,84,32,52,64,16,60%,56%,39,59,86,52%,65%,39%,44.5,14.36,7.65,34.71%,33.41%,34.33%,35.6,25,8.1,38.4,66,684,3.7,15.79,IL-27624,41.4907505,-87.8289043
Franklin Park,Illinois,18233,3822,Chicago-Naperville-Elgin,9607711,$76009,18.66%,37,$324000,1322,$245,64,75.9%,$1103,54.62%,231,1031,13.64%,5.01%,70.08%,Cook County,73.90%,20.80%,3.14%,0.98%,37.6%,58.53%,31.62%,Central Standard Time,85,32,53,67,19,60%,56%,39,59,88,52%,65%,39%,42.04,13.19,6.75,36.08%,35.82%,37.22%,42.4,27,8.1,38.4,45,627,3.6,4.77,IL-27702,41.935993,-87.8791945
Franklin township,Illinois,2363,2847,Chicago-Naperville-Elgin,9607711,N/A,N/A,N/A,N/A,N/A,N/A,N/A,N/A,N/A,N/A,N/A,N/A,N/A,N/A,N/A,DeKalb County,46.90%,43.80%,N/A,N/A,N/A,N/A,N/A,Central Standard Time,85,30,55,64,15,60%,56%,39,59,88,52%,65%,39%,40.53,13.96,6.12,33.62%,33.08%,32.89%,35.8,22,8.1,38.4,81,756,3.5,0.83,IL-27650,42.1092621,-88.880818
Fremont,Illinois,32730,958,Chicago-Naperville-Elgin,9607711,N/A,N/A,N/A,N/A,N/A,N/A,N/A,N/A,N/A,N/A,N/A,N/A,N/A,N/A,N/A,Lake County,56.40%,36.20%,N/A,N/A,N/A,N/A,N/A,Central Standard Time,83,30,53,63,14,60%,56%,39,59,85,52%,65%,39%,41.73,13.51,6.73,36.0%,35.49%,35.67%,47.4,28,8.1,38.4,72,768,3.7,34.16,IL-27923,42.2844302,-88.0623585
Gages Lake,Illinois,10706,3593,Chicago-Naperville-Elgin,9607711,$105114,40.5%,40,$323000,1958,$165,36,80.72%,$1741,43.21%,N/A,N/A,5.17%,6.99%,73.2%,Lake County,56.40%,36.20%,5.76%,7.35%,70.21%,10.92%,11.51%,Central Standard Time,82,32,50,63,16,60%,56%,39,59,84,52%,65%,39%,42.74,13.52,7.13,36.63%,35.82%,34.33%,47.4,28,8.1,38.4,72,696,3.7,2.98,IL-28248,42.3519156,-87.9828938
Gardner,Illinois,1319,453,Chicago-Naperville-Elgin,9607711,$82125,17.35%,39,$228000,2327,$98,53,86.49%,$1024,46.5%,N/A,N/A,15.23%,12.8%,71.73%,Grundy County,34.70%,57.90%,0.45%,0.3%,82.56%,13.57%,1.36%,Central Standard Time,83,31,52,63,15,60%,56%,39,59,85,52%,65%,39%,41.87,13.9,6.71,28.68%,29.23%,26.0%,27.7,15,8.1,38.4,82,531,3.5,2.91,IL-28638,41.1931289,-88.3145532
Garfield,Illinois,1419,78,Chicago-Naperville-Elgin,9607711,N/A,N/A,N/A,N/A,N/A,N/A,N/A,N/A,N/A,N/A,N/A,N/A,N/A,N/A,N/A,Grundy County,34.70%,57.90%,N/A,N/A,N/A,N/A,N/A,Central Standard Time,83,31,52,63,15,60%,56%,39,59,85,52%,65%,39%,39.77,13.02,5.71,28.68%,29.23%,26.0%,27.7,15,8.1,38.4,82,573,3.5,18.19,IL-28677,41.1561348,-88.3289554
Geneva,Illinois,21299,2147,Chicago-Naperville-Elgin,9607711,$136621,63.76%,42,$422000,1981,$213,34,84.37%,$1805,38.79%,73,661,2.48%,1.66%,71.3%,Kane County,51.90%,41.40%,2.35%,1.68%,82.88%,8.74%,5.43%,Central Standard Time,84,31,53,64,16,60%,56%,39,59,86,52%,65%,39%,42.01,13.29,6.85,35.34%,34.07%,37.0%,46.2,27,8.1,38.4,67,660,3.5,9.92,IL-28872,41.8832465,-88.3243608
Geneva township,Illinois,21299,2147,Chicago-Naperville-Elgin,9607711,$136621,63.76%,42,$422000,1981,$213,34,84.37%,$1805,38.79%,73,661,2.48%,1.66%,71.3%,Kane County,51.90%,41.40%,2.35%,1.68%,82.88%,8.74%,5.43%,Central Standard Time,84,31,53,64,16,60%,56%,39,59,86,52%,65%,39%,42.01,13.29,6.85,35.34%,34.07%,37.0%,46.2,27,8.1,38.4,68,660,3.5,9.92,IL-28872,41.8832465,-88.3243608
Genoa,Illinois,5685,2195,Chicago-Naperville-Elgin,9607711,$79343,12.27%,34,$255000,1500,$170,45,67.85%,$1004,50.04%,153,940,19.07%,5.76%,77.88%,DeKalb County,46.90%,43.80%,2.64%,0.63%,68.04%,25.51%,7.35%,Central Standard Time,83,29,54,64,13,60%,56%,39,59,85,52%,65%,39%,40.53,13.96,6.12,33.62%,33.08%,32.89%,35.8,22,8.1,38.4,80,756,3.5,2.59,IL-28898,42.0926378,-88.6964203
Genoa township,Illinois,5685,2195,Chicago-Naperville-Elgin,9607711,$79343,12.27%,34,$255000,1500,$170,45,67.85%,$1004,50.04%,153,940,19.07%,5.76%,77.88%,DeKalb County,46.90%,43.80%,2.64%,0.63%,68.04%,25.51%,7.35%,Central Standard Time,83,29,54,64,13,60%,56%,39,59,85,52%,65%,39%,40.53,13.96,6.12,33.62%,33.08%,32.89%,35.8,22,8.1,38.4,80,756,3.5,2.59,IL-28898,42.0926378,-88.6964203
Gilberts,Illinois,8389,1528,Chicago-Naperville-Elgin,9607711,$119719,48.73%,40,$343000,2257,$152,16,94.46%,$1852,31.95%,12,423,5.65%,3.68%,79.27%,Kane County,51.90%,41.40%,7.09%,0.24%,67.34%,17.89%,13.32%,Central Standard Time,84,31,53,63,14,60%,56%,39,59,86,52%,65%,39%,41.99,14.09,6.4,37.1%,36.15%,37.11%,46.2,27,8.1,38.4,76,771,3.5,5.49,IL-29171,42.109738,-88.3715371
Glen Ellyn,Illinois,28270,4127,Chicago-Naperville-Elgin,9607711,$133346,68.31%,41,$490000,1892,$259,48,83.1%,$1326,38.16%,71,873,5.46%,5.81%,65.31%,DuPage County,53.10%,38.60%,10.52%,3.23%,75.26%,7.38%,12.14%,Central Standard Time,85,32,53,62,15,60%,56%,39,59,88,52%,65%,39%,42.44,12.99,7.13,33.78%,35.38%,32.22%,42.4,27,8.1,38.4,60,723,3.4,6.85,IL-29756,41.866689,-88.0629041
Glencoe,Illinois,8715,2343,Chicago-Naperville-Elgin,9607711,$250001,88.24%,45,$1163000,3401,$342,65,96.17%,$2097,28.26%,22,720,2.5%,3.54%,53.57%,Cook County,73.90%,20.80%,1.78%,1.9%,92.75%,2.19%,6.37%,Central Standard Time,84,33,51,64,17,60%,56%,39,59,86,52%,65%,39%,43.61,13.54,7.34,38.0%,36.7%,38.44%,42.4,27,8.1,38.4,71,576,3.6,3.72,IL-29652,42.1347324,-87.764105
Glendale Heights,Illinois,32864,6097,Chicago-Naperville-Elgin,9607711,$82232,30.07%,36,$220000,1215,$181,42,65.88%,$1562,51.85%,82,1101,9.55%,5.24%,71.06%,DuPage County,53.10%,38.60%,24.1%,11.92%,29.61%,31.43%,38.04%,Central Standard Time,85,32,53,62,15,60%,56%,39,59,88,52%,65%,39%,43.3,13.45,7.39,34.08%,33.85%,34.67%,42.4,27,8.1,38.4,60,693,3.4,5.39,IL-29730,41.9194763,-88.0785111
Glenview,Illinois,47682,3406,Chicago-Naperville-Elgin,9607711,$138758,68.08%,46,$558000,2090,$267,43,83.95%,$2027,37.74%,105,825,5.48%,3.39%,62.41%,Cook County,73.90%,20.80%,16.54%,1.25%,68.78%,8.85%,22.47%,Central Standard Time,84,33,51,64,17,60%,56%,39,59,86,52%,65%,39%,43.61,13.54,7.34,38.0%,36.7%,38.44%,42.4,27,8.1,38.4,56,576,3.6,14.0,IL-29938,42.0825039,-87.821469
Glenwood,Illinois,8620,2644,Chicago-Naperville-Elgin,9607711,$71376,36.91%,39,$166000,1307,$127,52,80.71%,$1639,65.86%,171,1117,13.96%,16.5%,63.94%,Cook County,73.90%,20.80%,0.49%,69.03%,20.8%,5.53%,3.19%,Central Standard Time,84,32,52,64,16,60%,56%,39,59,86,52%,65%,39%,44.6,14.72,7.31,34.71%,33.41%,34.33%,40.8,28,8.1,38.4,69,588,3.6,3.26,IL-30029,41.5410171,-87.6117619
Godley,Illinois,538,498,Chicago-Naperville-Elgin,9607711,$54583,10.9%,49,$165000,1250,$132,27,66.43%,$1393,51.72%,264,529,15.63%,9.62%,63.93%,Will County,49.90%,43.60%,1.3%,0.0%,93.49%,3.35%,1.3%,Central Standard Time,83,31,52,63,15,60%,56%,39,59,85,52%,65%,39%,41.87,13.9,6.71,35.48%,37.25%,34.44%,27.7,15,8.1,38.4,79,531,3.7,1.08,IL-30120,41.2384897,-88.2451586
Golf,Illinois,548,1218,Chicago-Naperville-Elgin,9607711,$238098,69.57%,50,N/A,N/A,N/A,55,97.54%,N/A,23.86%,0,403,4.01%,4.75%,67.82%,Cook County,73.90%,20.80%,7.12%,3.83%,79.2%,5.84%,16.42%,Central Standard Time,84,33,51,64,17,60%,56%,39,59,86,52%,65%,39%,39.79,13.38,6.38,38.0%,36.7%,38.44%,42.4,27,8.1,38.4,53,576,3.6,0.45,IL-30328,42.058549,-87.7849405
Goodfarm,Illinois,391,11,Chicago-Naperville-Elgin,9607711,N/A,N/A,N/A,N/A,N/A,N/A,N/A,N/A,N/A,N/A,N/A,N/A,N/A,N/A,N/A,Grundy County,34.70%,57.90%,N/A,N/A,N/A,N/A,N/A,Central Standard Time,83,31,52,63,15,60%,56%,39,59,85,52%,65%,39%,39.77,13.02,5.71,28.68%,29.23%,26.0%,27.7,15,8.1,38.4,81,573,3.5,35.55,IL-30432,41.1538042,-88.414703
Goose Lake,Illinois,1330,53,Chicago-Naperville-Elgin,9607711,N/A,N/A,N/A,N/A,N/A,N/A,N/A,N/A,N/A,N/A,N/A,N/A,N/A,N/A,N/A,Grundy County,34.70%,57.90%,N/A,N/A,N/A,N/A,N/A,Central Standard Time,85,32,53,66,16,60%,56%,39,59,88,52%,65%,39%,44.01,13.83,7.05,35.48%,37.25%,34.44%,27.7,15,8.1,38.4,79,480,3.5,25.09,IL-30549,41.3507828,-88.3140779
Grafton township,Illinois,54844,14783,Chicago-Naperville-Elgin,9607711,N/A,N/A,N/A,N/A,N/A,N/A,N/A,N/A,N/A,N/A,474,2215,N/A,N/A,N/A,McHenry County,42.20%,49.80%,N/A,N/A,N/A,N/A,N/A,Central Standard Time,84,32,52,63,15,60%,56%,39,59,86,52%,65%,39%,41.93,14.39,6.52,37.1%,36.15%,37.11%,47.4,28,8.1,38.4,73,861,3.4,3.71,IL-30666,42.1972274,-88.4133336
Grandwood Park,Illinois,5311,3663,Chicago-Naperville-Elgin,9607711,$124847,59.14%,42,$255000,1584,$161,29,92.51%,$1797,48.58%,N/A,N/A,2.13%,2.03%,68.4%,Lake County,56.40%,36.20%,13.39%,6.74%,63.96%,14.03%,14.33%,Central Standard Time,82,32,50,63,16,60%,56%,39,59,84,52%,65%,39%,42.74,13.52,7.13,36.63%,35.82%,34.33%,47.4,28,8.1,38.4,66,696,3.7,1.45,IL-30900,42.3927464,-87.9890284
Grant township (Lake Cnty),Illinois,26713,1521,Chicago-Naperville-Elgin,9607711,N/A,N/A,N/A,N/A,N/A,N/A,N/A,N/A,N/A,N/A,N/A,N/A,N/A,N/A,N/A,Lake County,56.40%,36.20%,N/A,N/A,N/A,N/A,N/A,Central Standard Time,84,31,53,62,13,60%,56%,39,59,86,52%,65%,39%,40.14,13.17,6.35,36.0%,35.49%,35.67%,47.4,28,8.1,38.4,74,720,3.7,17.56,IL-30952,42.3705723,-88.1606962
Grayslake,Illinois,20707,1900,Chicago-Naperville-Elgin,9607711,$113697,59.14%,36,$305000,1918,$159,26,77.13%,$1434,43.97%,62,852,5.58%,5.66%,74.82%,Lake County,56.40%,36.20%,3.92%,8.56%,70.1%,12.32%,9.99%,Central Standard Time,83,30,53,63,14,60%,56%,39,59,85,52%,65%,39%,42.74,13.52,7.13,36.63%,35.82%,34.33%,47.4,28,8.1,38.4,71,696,3.7,10.9,IL-31121,42.340427,-88.0338246
Green Garden,Illinois,4023,110,Chicago-Naperville-Elgin,9607711,N/A,N/A,N/A,N/A,N/A,N/A,N/A,N/A,N/A,N/A,N/A,N/A,N/A,N/A,N/A,Will County,49.90%,43.60%,N/A,N/A,N/A,N/A,N/A,Central Standard Time,84,32,52,64,16,60%,56%,39,59,86,52%,65%,39%,44.5,14.36,7.65,32.25%,31.98%,31.11%,35.6,25,8.1,38.4,74,684,3.7,36.57,IL-31394,41.4263,-87.8453173
Green Oaks,Illinois,4085,1024,Chicago-Naperville-Elgin,9607711,$133472,57.94%,49,$850000,3512,$242,30,86.67%,$1300,41.61%,N/A,N/A,7.61%,2.18%,51.65%,Lake County,56.40%,36.20%,10.23%,0.81%,78.68%,8.49%,11.06%,Central Standard Time,82,32,50,63,16,60%,56%,39,59,84,52%,65%,39%,41.83,13.48,6.91,36.63%,35.82%,34.33%,47.4,28,8.1,38.4,67,645,3.7,3.99,IL-31446,42.2954778,-87.9115487
Greenfield township,Illinois,1210,708,Chicago-Naperville-Elgin,9607711,N/A,N/A,N/A,N/A,N/A,N/A,N/A,N/A,N/A,N/A,611,611,N/A,N/A,N/A,Grundy County,34.70%,57.90%,N/A,N/A,N/A,N/A,N/A,Central Standard Time,83,31,52,63,15,60%,56%,39,59,85,52%,65%,39%,39.77,13.02,5.71,28.68%,29.23%,26.0%,27.7,15,8.1,38.4,82,573,3.5,1.71,IL-31381,41.1573947,-88.2712981
Greenwood,Illinois,559,213,Chicago-Naperville-Elgin,9607711,$138750,32.14%,42,N/A,N/A,N/A,60,62.78%,$1370,52.98%,N/A,N/A,10.02%,2.33%,65.65%,McHenry County,42.20%,49.80%,0.18%,0.0%,78.71%,17.35%,10.73%,Central Standard Time,84,31,53,62,13,63%,61%,37,58,88,53%,66%,44%,42.63,13.92,6.37,33.51%,34.4%,30.22%,47.4,28,8.1,34.2,81,876,3.4,2.63,IL-31667,42.3953804,-88.3835744
Greenwood township (McHenry Cnty),Illinois,559,213,Chicago-Naperville-Elgin,9607711,$138750,32.14%,42,N/A,N/A,N/A,60,62.78%,$1370,52.98%,N/A,N/A,10.02%,2.33%,65.65%,McHenry County,42.20%,49.80%,0.18%,0.0%,78.71%,17.35%,10.73%,Central Standard Time,84,31,53,62,13,63%,61%,37,58,88,53%,66%,44%,42.63,13.92,6.37,33.51%,34.4%,30.22%,47.4,28,8.1,34.2,78,876,3.4,2.63,IL-31667,42.3953804,-88.3835744
Gurnee,Illinois,30486,2258,Chicago-Naperville-Elgin,9607711,$121410,54.36%,40,$305000,1837,$166,28,77.63%,$1594,41.99%,131,3259,5.5%,3.81%,69.98%,Lake County,56.40%,36.20%,13.15%,7.47%,60.1%,16.51%,17.55%,Central Standard Time,82,32,50,63,16,60%,56%,39,59,84,52%,65%,39%,42.74,13.52,7.13,36.63%,35.82%,34.33%,47.4,28,8.1,38.4,62,696,3.7,13.5,IL-32018,42.3708419,-87.9391454
Hainesville,Illinois,3524,1905,Chicago-Naperville-Elgin,9607711,$126125,39.95%,40,$355000,2247,$158,24,91.52%,$1219,42.79%,111,1083,12.49%,3.05%,75.11%,Lake County,56.40%,36.20%,9.65%,3.83%,58.63%,24.26%,18.56%,Central Standard Time,83,30,53,63,14,60%,56%,39,59,85,52%,65%,39%,40.14,13.17,6.35,36.63%,35.82%,34.33%,47.4,28,8.1,38.4,70,720,3.7,1.85,IL-32200,42.3414779,-88.0686434
Hampshire,Illinois,8351,878,Chicago-Naperville-Elgin,9607711,$107774,27.26%,37,$408000,2345,$174,17,72.06%,$2356,53.96%,155,404,8.41%,1.84%,64.48%,Kane County,51.90%,41.40%,7.05%,0.12%,77.6%,11.09%,10.97%,Central Standard Time,84,31,53,63,14,60%,56%,39,59,86,52%,65%,39%,41.99,14.09,6.4,33.62%,33.08%,32.89%,42.4,16,8.1,38.4,73,771,3.5,9.51,IL-32525,42.0914638,-88.505165
Hampshire township,Illinois,8351,878,Chicago-Naperville-Elgin,9607711,$107774,27.26%,37,$408000,2345,$174,17,72.06%,$2356,53.96%,155,404,8.41%,1.84%,64.48%,Kane County,51.90%,41.40%,7.05%,0.12%,77.6%,11.09%,10.97%,Central Standard Time,84,31,53,63,14,60%,56%,39,59,86,52%,65%,39%,41.99,14.09,6.4,33.62%,33.08%,32.89%,42.4,16,8.1,38.4,73,771,3.5,9.51,IL-32525,42.0914638,-88.505165
Hanover Park,Illinois,36850,5740,Chicago-Naperville-Elgin,9607711,$92263,29.47%,35,$305000,1622,$188,44,70.88%,$1478,48.77%,79,671,13.73%,4.55%,68.67%,Cook County,73.90%,20.80%,19.57%,7.83%,31.05%,38.96%,35.08%,Central Standard Time,84,31,53,64,16,60%,56%,39,59,86,52%,65%,39%,42.64,12.83,6.89,34.08%,33.85%,34.67%,46.2,27,8.1,38.4,62,696,3.6,6.42,IL-32746,41.9818119,-88.1445975
Hanover township (Cook Cnty),Illinois,101074,90245,Chicago-Naperville-Elgin,9607711,N/A,N/A,N/A,N/A,N/A,N/A,N/A,N/A,N/A,N/A,N/A,N/A,N/A,N/A,N/A,Cook County,73.90%,20.80%,N/A,N/A,N/A,N/A,N/A,Central Standard Time,84,31,53,63,14,60%,56%,39,59,86,52%,65%,39%,42.52,13.53,6.94,37.1%,36.15%,37.11%,46.2,27,8.1,38.4,66,756,3.6,1.12,IL-32694,42.0272785,-88.2041682
Hartland,Illinois,114,356,Chicago-Naperville-Elgin,9607711,N/A,16.67%,90,N/A,N/A,N/A,N/A,100.0%,N/A,77.19%,N/A,N/A,0.0%,0.0%,0.0%,McHenry County,42.20%,49.80%,0.0%,0.0%,96.49%,3.51%,8.77%,Central Standard Time,84,29,55,62,12,63%,61%,37,58,88,53%,66%,44%,41.18,14.0,6.24,33.51%,34.4%,30.22%,35.8,22,8.1,34.2,81,849,3.4,0.32,IL-33292,42.3630765,-88.5085843
Harvard,Illinois,9875,1181,Chicago-Naperville-Elgin,9607711,$71418,19.24%,31,$165000,1260,$131,40,52.8%,$1184,55.96%,208,1396,11.53%,6.34%,72.77%,McHenry County,42.20%,49.80%,0.52%,0.51%,42.57%,53.94%,16.29%,Central Standard Time,84,29,55,62,12,63%,61%,37,58,88,53%,66%,44%,40.39,14.2,6.18,33.67%,35.05%,30.78%,35.8,22,8.1,34.2,77,831,3.4,8.36,IL-33331,42.4296365,-88.6211169
Harvey,Illinois,19831,3193,Chicago-Naperville-Elgin,9607711,$41091,10.05%,37,$125000,1078,$116,60,57.25%,$968,66.55%,N/A,N/A,25.22%,12.9%,58.15%,Cook County,73.90%,20.80%,2.29%,57.24%,3.18%,34.59%,18.54%,Central Standard Time,84,32,52,64,16,60%,56%,39,59,86,52%,65%,39%,44.6,14.72,7.31,34.71%,33.41%,34.33%,40.8,28,8.1,38.4,63,588,3.6,6.21,IL-33383,41.6075843,-87.6519907
Harwood Heights,Illinois,8851,10664,Chicago-Naperville-Elgin,9607711,$79651,31.63%,42,$360000,1667,$216,53,69.33%,$1166,43.83%,393,1251,6.68%,4.02%,65.26%,Cook County,73.90%,20.80%,9.43%,0.77%,66.84%,20.22%,42.62%,Central Standard Time,85,32,53,67,19,60%,56%,39,59,88,52%,65%,39%,44.73,14.26,7.36,36.08%,35.82%,37.22%,42.4,27,8.1,38.4,42,594,3.6,0.83,IL-33435,41.9663182,-87.8055909
Hawthorn Woods,Illinois,9145,1136,Chicago-Naperville-Elgin,9607711,$238114,76.29%,41,$604000,3639,$166,24,99.45%,N/A,25.06%,23,184,0.75%,4.33%,69.47%,Lake County,56.40%,36.20%,13.9%,0.74%,79.98%,2.29%,16.48%,Central Standard Time,83,30,53,63,14,60%,56%,39,59,85,52%,65%,39%,41.73,13.51,6.73,36.0%,35.49%,35.67%,47.4,28,8.1,38.4,73,768,3.7,8.05,IL-33630,42.2356711,-88.067383
Hebron,Illinois,1458,755,Chicago-Naperville-Elgin,9607711,$86964,15.06%,35,$322000,2025,$159,40,72.81%,$1115,56.9%,N/A,N/A,7.34%,2.22%,71.52%,McHenry County,42.20%,49.80%,0.0%,0.62%,70.23%,27.23%,4.25%,Central Standard Time,82,30,52,60,15,63%,61%,37,58,84,53%,66%,44%,38.39,13.48,5.49,34.36%,35.16%,33.22%,47.4,28,8.1,34.2,78,768,3.4,1.93,IL-33851,42.4652349,-88.4344128
Hebron township,Illinois,1458,755,Chicago-Naperville-Elgin,9607711,$86964,15.06%,35,$322000,2025,$159,40,72.81%,$1115,56.9%,N/A,N/A,7.34%,2.22%,71.52%,McHenry County,42.20%,49.80%,0.0%,0.62%,70.23%,27.23%,4.25%,Central Standard Time,82,30,52,60,15,63%,61%,37,58,84,53%,66%,44%,38.39,13.48,5.49,34.36%,35.16%,33.22%,47.4,28,8.1,34.2,78,768,3.4,1.93,IL-33851,42.4652349,-88.4344128
Hickory Hills,Illinois,14718,5182,Chicago-Naperville-Elgin,9607711,$85541,25.55%,38,$199000,1164,$171,50,75.21%,$1112,45.46%,152,1397,6.2%,4.74%,68.67%,Cook County,73.90%,20.80%,5.95%,3.51%,72.86%,14.6%,31.95%,Central Standard Time,90,34,56,64,15,60%,56%,39,59,97,52%,65%,39%,41.97,12.33,7.17,35.48%,37.8%,33.89%,40.8,28,8.1,38.4,56,564,3.6,2.84,IL-34514,41.7247783,-87.8280059
Highland Park,Illinois,30229,2470,Chicago-Naperville-Elgin,9607711,$161875,76.12%,46,$650000,2642,$246,58,85.05%,$1903,33.22%,97,695,3.26%,3.32%,65.02%,Lake County,56.40%,36.20%,3.16%,1.62%,79.74%,11.96%,11.31%,Central Standard Time,84,33,51,64,17,60%,56%,39,59,86,52%,65%,39%,42.37,13.61,6.91,38.0%,36.7%,38.44%,42.4,27,8.1,38.4,66,630,3.7,12.24,IL-34722,42.1823204,-87.8103522
Highland township,Illinois,330,49,Chicago-Naperville-Elgin,9607711,N/A,N/A,N/A,$200000,1786,$112,N/A,N/A,N/A,N/A,91,935,N/A,N/A,N/A,Grundy County,34.70%,57.90%,N/A,N/A,N/A,N/A,N/A,Central Standard Time,83,31,52,63,15,61%,58%,40,62,85,54%,65%,46%,39.77,13.02,5.71,28.68%,29.23%,26.0%,27.7,15,8.1,47.8,81,573,3.5,6.75,IL-34657,41.1519627,-88.5290126
Highwood,Illinois,5243,7282,Chicago-Naperville-Elgin,9607711,$101862,38.05%,36,$462000,1826,$253,62,38.25%,$1800,49.57%,N/A,N/A,15.79%,6.04%,73.38%,Lake County,56.40%,36.20%,1.51%,2.54%,53.06%,40.57%,23.29%,Central Standard Time,84,33,51,64,17,60%,56%,39,59,86,52%,65%,39%,42.37,13.61,6.91,38.0%,36.7%,38.44%,47.4,28,8.1,38.4,64,630,3.7,0.72,IL-34865,42.2060109,-87.8129394
Hillside,Illinois,8133,2566,Chicago-Naperville-Elgin,9607711,$70772,26.82%,43,$248000,1298,$191,60,69.57%,$1265,55.17%,365,2534,5.33%,3.18%,64.3%,Cook County,73.90%,20.80%,1.45%,45.41%,19.11%,33.32%,24.1%,Central Standard Time,85,32,53,67,19,60%,56%,39,59,88,52%,65%,39%,42.04,13.19,6.75,33.78%,35.38%,32.22%,42.4,27,8.1,38.4,54,627,3.6,3.17,IL-35086,41.8675255,-87.9018384
Hinckley,Illinois,2286,2689,Chicago-Naperville-Elgin,9607711,$81625,35.24%,35,$170000,1828,$93,48,73.61%,$1333,52.98%,0,196,15.35%,13.19%,69.3%,DeKalb County,46.90%,43.80%,1.05%,0.96%,83.42%,9.54%,1.88%,Central Standard Time,85,31,54,62,15,60%,56%,39,59,88,52%,65%,39%,35.9,11.48,5.03,35.32%,40.0%,27.22%,42.4,16,8.1,38.4,80,648,3.5,0.85,IL-35268,41.7714156,-88.6397208
Hinsdale,Illinois,17155,3713,Chicago-Naperville-Elgin,9607711,$250001,81.26%,42,$736000,2512,$293,41,88.08%,$1981,30.54%,28,996,1.83%,2.71%,61.53%,DuPage County,53.10%,38.60%,15.32%,1.62%,72.53%,5.71%,15.14%,Central Standard Time,90,34,56,64,15,60%,56%,39,59,97,52%,65%,39%,44.46,13.66,7.7,35.48%,37.8%,33.89%,40.8,28,8.1,38.4,58,603,3.4,4.62,IL-35307,41.8006339,-87.9273194
Hodgkins,Illinois,1766,652,Chicago-Naperville-Elgin,9607711,$63056,12.68%,38,N/A,N/A,N/A,26,85.45%,$1000,58.57%,371,13648,11.77%,2.1%,56.0%,Cook County,73.90%,20.80%,0.0%,3.91%,40.15%,52.49%,17.5%,Central Standard Time,90,34,56,64,15,60%,56%,39,59,97,52%,65%,39%,41.97,12.33,7.17,35.48%,37.8%,33.89%,40.8,28,8.1,38.4,61,564,3.6,2.71,IL-35385,41.7659719,-87.8612438
Hoffman Estates,Illinois,51186,2429,Chicago-Naperville-Elgin,9607711,$109683,46.87%,39,$140000,1972,$71,44,73.26%,$1764,41.56%,127,845,5.33%,3.61%,70.32%,Cook County,73.90%,20.80%,23.71%,5.57%,48.74%,19.05%,33.97%,Central Standard Time,82,29,53,63,14,60%,56%,39,59,84,52%,65%,39%,40.11,13.75,6.25,37.78%,38.57%,34.56%,42.4,27,8.1,38.4,65,726,3.6,21.07,IL-35411,42.0639699,-88.1468062
Holiday Hills,Illinois,662,712,Chicago-Naperville-Elgin,9607711,$78500,17.07%,46,$200000,1235,$162,49,73.97%,$2083,37.27%,N/A,N/A,9.86%,2.64%,56.74%,McHenry County,42.20%,49.80%,1.06%,0.0%,86.4%,7.25%,9.82%,Central Standard Time,84,31,53,62,13,60%,56%,39,59,86,52%,65%,39%,40.68,13.61,5.98,36.0%,35.49%,35.67%,47.4,28,8.1,38.4,77,672,3.4,0.93,IL-35515,42.2977726,-88.2292158
Homer Glen,Illinois,24516,1108,Chicago-Naperville-Elgin,9607711,$128546,38.48%,42,$473000,2750,$172,32,94.47%,$1737,36.13%,24,503,4.41%,5.01%,64.38%,Will County,49.90%,43.60%,1.48%,0.55%,86.92%,8.97%,13.66%,Central Standard Time,85,32,53,65,16,60%,56%,39,59,88,52%,65%,39%,45.64,14.7,7.37,36.08%,36.59%,35.67%,35.6,25,8.1,38.4,70,693,3.7,22.13,IL-35835,41.6043593,-87.9496933
Homer township,Illinois,39373,40177,Chicago-Naperville-Elgin,9607711,N/A,N/A,N/A,N/A,N/A,N/A,N/A,N/A,N/A,N/A,0,171,N/A,N/A,N/A,Will County,49.90%,43.60%,N/A,N/A,N/A,N/A,N/A,Central Standard Time,85,32,53,65,16,60%,56%,39,59,88,52%,65%,39%,45.64,14.7,7.37,36.08%,36.59%,35.67%,35.6,25,8.1,38.4,70,693,3.7,0.98,IL-35827,41.599102,-87.968473
Hometown,Illinois,4244,8842,Chicago-Naperville-Elgin,9607711,$59265,19.77%,41,$135000,993,$136,65,76.7%,$812,57.8%,N/A,N/A,8.18%,4.12%,63.74%,Cook County,73.90%,20.80%,1.04%,0.73%,62.54%,32.28%,10.2%,Central Standard Time,86,33,53,68,20,60%,56%,39,59,89,52%,65%,39%,44.11,13.81,7.37,36.44%,36.26%,37.89%,40.8,28,8.1,38.4,50,564,3.6,0.48,IL-35866,41.7312484,-87.7311338
Homewood,Illinois,19471,3730,Chicago-Naperville-Elgin,9607711,$96522,46.06%,40,$242000,1681,$144,58,78.85%,$1422,47.22%,185,4280,9.4%,7.06%,65.66%,Cook County,73.90%,20.80%,1.41%,44.74%,42.01%,7.97%,6.02%,Central Standard Time,84,32,52,64,16,60%,56%,39,59,86,52%,65%,39%,44.6,14.72,7.31,34.71%,33.41%,34.33%,40.8,28,8.1,38.4,65,588,3.6,5.22,IL-35879,41.559104,-87.6609609
Huntley,Illinois,27859,1950,Chicago-Naperville-Elgin,9607711,$86349,39.32%,50,$328000,1699,$193,16,87.74%,$1385,43.59%,14,456,7.76%,3.47%,52.82%,McHenry County,42.20%,49.80%,5.79%,5.0%,77.38%,9.59%,11.09%,Central Standard Time,84,32,52,63,15,60%,56%,39,59,86,52%,65%,39%,42.34,14.3,6.86,37.1%,36.15%,37.11%,46.2,27,8.1,38.4,73,762,3.4,14.29,IL-36750,42.1599045,-88.4329895
Indian Creek,Illinois,892,3304,Chicago-Naperville-Elgin,9607711,$152500,56.04%,46,$746000,3095,$241,18,72.47%,$3029,32.18%,N/A,N/A,2.58%,2.77%,68.43%,Lake County,56.40%,36.20%,39.01%,2.24%,45.96%,9.75%,38.9%,Central Standard Time,83,30,53,63,14,60%,56%,39,59,85,52%,65%,39%,41.98,13.97,6.52,36.0%,35.49%,35.67%,47.4,28,8.1,38.4,68,639,3.7,0.27,IL-37218,42.2272047,-87.9783592
Indian Head Park,Illinois,3992,4292,Chicago-Naperville-Elgin,9607711,$107019,53.99%,53,$280000,1400,$200,42,88.46%,$1731,37.24%,26,801,4.34%,6.78%,54.0%,Cook County,73.90%,20.80%,1.3%,1.75%,84.37%,13.03%,10.55%,Central Standard Time,90,34,56,64,15,60%,56%,39,59,97,52%,65%,39%,43.76,14.04,7.34,35.48%,37.8%,33.89%,40.8,28,8.1,38.4,60,663,3.6,0.93,IL-37257,41.7689795,-87.8976878
Ingalls Park,Illinois,2970,2676,Chicago-Naperville-Elgin,9607711,$55268,9.95%,35,$90000,882,$102,68,74.55%,$1321,70.06%,N/A,N/A,9.87%,4.8%,70.38%,Will County,49.90%,43.60%,0.27%,12.15%,53.67%,33.1%,11.21%,Central Standard Time,84,32,52,64,16,60%,56%,39,59,86,52%,65%,39%,44.0,14.24,7.05,36.08%,36.59%,35.67%,35.6,25,8.1,38.4,68,624,3.7,1.11,IL-37465,41.5204017,-88.0344589
Island Lake,Illinois,8023,2395,Chicago-Naperville-Elgin,9607711,$98125,27.6%,40,$215000,1215,$177,31,77.96%,$1855,45.76%,86,483,6.54%,6.67%,73.09%,McHenry County,42.20%,49.80%,2.72%,0.26%,74.04%,21.0%,13.67%,Central Standard Time,84,31,53,62,13,60%,56%,39,59,86,52%,65%,39%,40.68,13.61,5.98,36.0%,35.49%,35.67%,47.4,28,8.1,38.4,74,672,3.4,3.35,IL-37894,42.2782004,-88.1997958
Itasca,Illinois,9525,1897,Chicago-Naperville-Elgin,9607711,$111898,53.08%,42,$478000,2390,$200,42,76.06%,$1779,40.87%,79,1086,1.84%,2.66%,72.67%,DuPage County,53.10%,38.60%,14.85%,0.69%,65.3%,14.88%,23.78%,Central Standard Time,85,32,53,67,19,60%,56%,39,59,88,52%,65%,39%,42.64,12.83,6.89,34.08%,33.85%,34.67%,42.4,27,8.1,38.4,56,696,3.4,5.02,IL-37907,41.9771732,-88.0183011
Jackson township (Will Cnty),Illinois,4076,113,Chicago-Naperville-Elgin,9607711,N/A,N/A,N/A,N/A,N/A,N/A,N/A,N/A,N/A,N/A,N/A,N/A,N/A,N/A,N/A,Will County,49.90%,43.60%,N/A,N/A,N/A,N/A,N/A,Central Standard Time,84,32,52,64,16,60%,56%,39,59,86,52%,65%,39%,44.45,14.69,7.4,36.93%,37.14%,36.22%,35.6,25,8.1,38.4,77,639,3.7,36.07,IL-38076,41.4228642,-88.0785603
Johnsburg,Illinois,6374,890,Chicago-Naperville-Elgin,9607711,$106827,30.62%,41,$275000,1432,$192,34,90.75%,$1330,44.6%,N/A,N/A,11.92%,2.23%,66.17%,McHenry County,42.20%,49.80%,0.99%,1.19%,86.66%,7.2%,2.81%,Central Standard Time,84,31,53,62,13,60%,56%,39,59,86,52%,65%,39%,40.68,13.61,5.98,34.36%,35.16%,33.22%,47.4,28,8.1,38.4,77,672,3.4,7.16,IL-38479,42.3829369,-88.2473855
Joliet,Illinois,149785,2322,Chicago-Naperville-Elgin,9607711,$88026,25.03%,35,$259000,1650,$157,34,74.06%,$1237,52.29%,506,1457,11.03%,5.77%,68.86%,Will County,49.90%,43.60%,2.11%,16.98%,43.47%,34.7%,15.2%,Central Standard Time,84,32,52,64,16,60%,56%,39,59,86,52%,65%,39%,43.95,14.51,7.04,36.93%,37.14%,36.22%,35.6,25,8.1,38.4,66,501,3.7,64.52,IL-38570,41.5187711,-88.1497913
Joliet township,Illinois,149785,2322,Chicago-Naperville-Elgin,9607711,$88026,25.03%,35,$259000,1650,$157,34,74.06%,$1237,52.29%,506,1457,11.03%,5.77%,68.86%,Will County,49.90%,43.60%,2.11%,16.98%,43.47%,34.7%,15.2%,Central Standard Time,84,32,52,64,16,60%,56%,39,59,86,52%,65%,39%,43.95,14.51,7.04,36.93%,37.14%,36.22%,35.6,25,8.1,38.4,61,501,3.7,64.52,IL-38570,41.5187711,-88.1497913
Justice,Illinois,12372,4356,Chicago-Naperville-Elgin,9607711,$58514,19.1%,37,$320000,1600,$200,44,48.59%,$1198,50.35%,31,465,20.98%,6.32%,69.75%,Cook County,73.90%,20.80%,4.54%,22.44%,54.11%,16.36%,25.91%,Central Standard Time,86,33,53,68,20,60%,56%,39,59,89,52%,65%,39%,41.97,12.33,7.17,36.44%,36.26%,37.89%,40.8,28,8.1,38.4,58,564,3.6,2.84,IL-38830,41.7494753,-87.8345152
Kaneville,Illinois,615,2196,Chicago-Naperville-Elgin,9607711,$86477,31.22%,44,N/A,N/A,N/A,48,91.12%,$850,46.3%,N/A,N/A,2.44%,3.23%,65.83%,Kane County,51.90%,41.40%,2.76%,0.49%,88.78%,6.67%,1.46%,Central Standard Time,85,31,54,62,15,60%,56%,39,59,88,52%,65%,39%,41.42,12.97,6.69,31.92%,33.63%,31.78%,42.4,16,8.1,38.4,79,795,3.5,0.28,IL-38895,41.833246,-88.5216415
Kaneville township,Illinois,615,2196,Chicago-Naperville-Elgin,9607711,$86477,31.22%,44,N/A,N/A,N/A,48,91.12%,$850,46.3%,N/A,N/A,2.44%,3.23%,65.83%,Kane County,51.90%,41.40%,2.76%,0.49%,88.78%,6.67%,1.46%,Central Standard Time,85,31,54,62,15,60%,56%,39,59,88,52%,65%,39%,41.42,12.97,6.69,31.92%,33.63%,31.78%,42.4,16,8.1,38.4,79,795,3.5,0.28,IL-38895,41.833246,-88.5216415
Kendall,Illinois,8363,214,Chicago-Naperville-Elgin,9607711,N/A,N/A,N/A,N/A,N/A,N/A,N/A,N/A,N/A,N/A,N/A,N/A,N/A,N/A,N/A,Kendall County,46.00%,46.20%,N/A,N/A,N/A,N/A,N/A,Central Standard Time,85,31,54,62,15,60%,56%,39,59,88,52%,65%,39%,43.2,14.0,6.84,36.93%,37.14%,36.22%,27.7,15,8.1,38.4,76,666,3.4,39.08,IL-39454,41.5932114,-88.4282998
Kenilworth,Illinois,2543,4169,Chicago-Naperville-Elgin,9607711,$250001,91.9%,41,$1500000,3807,$394,82,95.5%,$3501,29.15%,0,1484,1.1%,3.44%,57.87%,Cook County,73.90%,20.80%,2.01%,0.0%,84.03%,4.76%,7.39%,Central Standard Time,84,33,51,64,17,60%,56%,39,59,86,52%,65%,39%,39.79,13.38,6.38,38.0%,36.7%,38.44%,42.4,27,8.1,38.4,67,576,3.6,0.61,IL-39519,42.0888177,-87.7144972
Kildeer,Illinois,4189,990,Chicago-Naperville-Elgin,9607711,$250001,78.9%,44,$870000,3625,$240,29,99.25%,N/A,23.83%,0,1041,1.0%,2.93%,67.53%,Lake County,56.40%,36.20%,22.51%,0.0%,70.66%,4.42%,22.11%,Central Standard Time,83,30,53,63,14,60%,56%,39,59,85,52%,65%,39%,41.98,13.97,6.52,37.15%,38.24%,33.33%,47.4,28,8.1,38.4,69,639,3.7,4.23,IL-39883,42.1830593,-88.0488161
Kingston,Illinois,1156,1180,Chicago-Naperville-Elgin,9607711,$81806,12.06%,39,$357000,2429,$147,42,83.06%,$844,47.11%,0,86,6.75%,14.95%,70.72%,DeKalb County,46.90%,43.80%,0.0%,0.69%,80.45%,15.05%,1.9%,Central Standard Time,83,29,54,64,13,60%,56%,39,59,85,52%,65%,39%,40.53,13.96,6.12,33.62%,33.08%,32.89%,35.8,22,8.1,38.4,81,756,3.5,0.98,IL-40065,42.1008243,-88.7619695
Kingston township,Illinois,1156,1180,Chicago-Naperville-Elgin,9607711,$81806,12.06%,39,$357000,2429,$147,42,83.06%,$844,47.11%,0,86,6.75%,14.95%,70.72%,DeKalb County,46.90%,43.80%,0.0%,0.69%,80.45%,15.05%,1.9%,Central Standard Time,83,29,54,64,13,60%,56%,39,59,85,52%,65%,39%,40.53,13.96,6.12,33.62%,33.08%,32.89%,35.8,22,8.1,38.4,81,756,3.5,0.98,IL-40065,42.1008243,-88.7619695
Kinsman,Illinois,66,943,Chicago-Naperville-Elgin,9607711,$55938,7.55%,39,$365000,1393,$262,82,84.38%,N/A,63.16%,N/A,N/A,7.58%,7.5%,70.18%,Grundy County,34.70%,57.90%,0.0%,0.0%,87.88%,12.12%,1.52%,Central Standard Time,83,31,52,63,15,61%,58%,40,62,85,54%,65%,46%,43.47,14.02,6.99,28.68%,29.23%,26.0%,27.7,15,8.1,47.8,81,468,3.5,0.07,IL-40143,41.190238,-88.5700239
Kirkland,Illinois,1497,1217,Chicago-Naperville-Elgin,9607711,$92500,23.31%,35,$133000,1231,$108,43,75.39%,$1050,49.54%,N/A,N/A,4.94%,4.94%,74.23%,DeKalb County,46.90%,43.80%,0.0%,0.33%,85.97%,10.09%,1.47%,Central Standard Time,83,29,54,64,13,60%,56%,39,59,85,52%,65%,39%,40.53,13.96,6.12,33.62%,33.08%,32.89%,35.8,22,8.1,38.4,81,756,3.5,1.23,IL-40156,42.0905265,-88.848994
Knollwood,Illinois,1907,3126,Chicago-Naperville-Elgin,9607711,$133452,45.57%,37,$377000,1193,$316,50,69.25%,$1733,40.77%,N/A,N/A,8.83%,0.0%,47.03%,Lake County,56.40%,36.20%,1.36%,6.08%,75.62%,15.89%,8.34%,Central Standard Time,82,32,50,63,16,60%,56%,39,59,84,52%,65%,39%,41.83,13.48,6.91,36.63%,35.82%,34.33%,47.4,28,8.1,38.4,66,645,3.7,0.61,IL-40364,42.284584,-87.8793176
La Grange,Illinois,15999,6324,Chicago-Naperville-Elgin,9607711,$154556,65.48%,41,$660000,2366,$279,69,87.51%,$1679,39.56%,64,1050,5.12%,2.01%,70.06%,Cook County,73.90%,20.80%,1.41%,4.32%,77.72%,11.81%,6.48%,Central Standard Time,85,33,52,68,20,60%,56%,39,59,88,52%,65%,39%,44.46,13.66,7.7,34.47%,36.37%,30.44%,40.8,28,8.1,38.4,55,603,3.6,2.53,IL-40767,41.8072139,-87.874148
La Grange Park,Illinois,13227,5931,Chicago-Naperville-Elgin,9607711,$119115,59.65%,42,$445000,1725,$258,64,77.98%,$1423,39.64%,45,610,4.02%,3.2%,65.29%,Cook County,73.90%,20.80%,2.41%,2.49%,77.2%,15.75%,7.02%,Central Standard Time,85,33,52,68,20,60%,56%,39,59,88,52%,65%,39%,44.46,13.66,7.7,34.47%,36.37%,30.44%,40.8,28,8.1,38.4,58,603,3.6,2.23,IL-40793,41.8307783,-87.8722729
Lake Barrington,Illinois,5400,941,Chicago-Naperville-Elgin,9607711,$132857,62.35%,53,$449000,2522,$178,35,93.42%,$3060,43.05%,N/A,N/A,6.22%,5.74%,54.43%,Lake County,56.40%,36.20%,5.76%,0.0%,87.76%,2.17%,13.22%,Central Standard Time,83,30,53,63,14,60%,56%,39,59,85,52%,65%,39%,42.11,13.68,6.75,36.0%,35.49%,35.67%,47.4,28,8.1,38.4,74,741,3.7,5.74,IL-40884,42.212189,-88.1683405
Lake Bluff,Illinois,5834,1430,Chicago-Naperville-Elgin,9607711,$205735,81.84%,45,$779000,2473,$315,43,92.64%,$1826,25.82%,17,963,2.17%,3.39%,63.41%,Lake County,56.40%,36.20%,6.72%,0.0%,82.02%,7.49%,13.34%,Central Standard Time,82,32,50,63,16,60%,56%,39,59,84,52%,65%,39%,42.14,13.04,6.89,36.63%,35.82%,34.33%,47.4,28,8.1,38.4,68,651,3.7,4.08,IL-40910,42.2825045,-87.8508605
Lake Catherine,Illinois,1091,1199,Chicago-Naperville-Elgin,9607711,$94821,25.88%,51,$224000,1851,$121,61,63.32%,$1250,62.97%,N/A,N/A,7.24%,10.08%,61.01%,Lake County,56.40%,36.20%,1.19%,0.0%,91.66%,1.19%,2.84%,Central Standard Time,83,29,54,61,14,63%,61%,37,58,86,53%,66%,44%,40.14,13.17,6.35,33.34%,33.96%,33.22%,47.4,28,8.1,34.2,74,720,3.7,0.91,IL-40988,42.486719,-88.127387
Lake Forest,Illinois,19190,1116,Chicago-Naperville-Elgin,9607711,$228120,80.83%,46,$902000,2977,$303,43,89.7%,$2120,41.46%,40,628,3.95%,2.11%,55.51%,Lake County,56.40%,36.20%,6.08%,0.89%,82.42%,4.72%,10.36%,Central Standard Time,84,33,51,64,17,60%,56%,39,59,86,52%,65%,39%,42.14,13.04,6.89,38.0%,36.7%,38.44%,47.4,28,8.1,38.4,71,651,3.7,17.2,IL-41105,42.2379966,-87.8594982
Lake in the Hills,Illinois,28853,2829,Chicago-Naperville-Elgin,9607711,$113491,36.69%,37,$270000,1598,$169,25,83.58%,$1634,42.62%,65,364,3.92%,6.25%,74.38%,McHenry County,42.20%,49.80%,6.77%,3.52%,67.08%,20.07%,13.6%,Central Standard Time,84,32,52,63,15,60%,56%,39,59,86,52%,65%,39%,42.34,14.3,6.86,37.1%,36.15%,37.11%,47.4,28,8.1,38.4,72,762,3.4,10.2,IL-41183,42.1915358,-88.3156415
Lake Villa,Illinois,8707,1335,Chicago-Naperville-Elgin,9607711,$111110,48.63%,40,$370000,2434,$152,26,77.88%,$1430,42.81%,57,475,3.32%,6.39%,66.83%,Lake County,56.40%,36.20%,7.75%,6.1%,68.32%,14.21%,12.61%,Central Standard Time,82,32,50,63,16,63%,61%,37,58,84,53%,66%,44%,40.14,13.17,6.35,36.63%,35.82%,34.33%,47.4,28,8.1,34.2,72,720,3.7,6.52,IL-41586,42.4184104,-88.0835469
Lake Villa township,Illinois,8707,1335,Chicago-Naperville-Elgin,9607711,$111110,48.63%,40,$370000,2434,$152,26,77.88%,$1430,42.81%,57,475,3.32%,6.39%,66.83%,Lake County,56.40%,36.20%,7.75%,6.1%,68.32%,14.21%,12.61%,Central Standard Time,82,32,50,63,16,63%,61%,37,58,84,53%,66%,44%,40.14,13.17,6.35,36.63%,35.82%,34.33%,47.4,28,8.1,34.2,71,720,3.7,6.52,IL-41586,42.4184104,-88.0835469
Lake Zurich,Illinois,19727,2871,Chicago-Naperville-Elgin,9607711,$139959,61.17%,41,$400000,2030,$197,36,85.78%,$1782,36.32%,39,1236,2.75%,3.32%,74.22%,Lake County,56.40%,36.20%,9.32%,0.52%,82.88%,3.83%,15.72%,Central Standard Time,83,30,53,63,14,60%,56%,39,59,85,52%,65%,39%,41.73,13.51,6.73,36.0%,35.49%,35.67%,47.4,28,8.1,38.4,66,768,3.7,6.87,IL-41742,42.195603,-88.0869608
Lakemoor,Illinois,5878,1117,Chicago-Naperville-Elgin,9607711,$96929,39.68%,39,$230000,1769,$130,23,72.08%,$1711,48.18%,16,565,6.07%,2.62%,71.34%,Lake County,56.40%,36.20%,7.91%,0.94%,76.68%,13.12%,9.61%,Central Standard Time,84,31,53,62,13,60%,56%,39,59,86,52%,65%,39%,40.68,13.61,5.98,36.0%,35.49%,35.67%,47.4,28,8.1,38.4,76,672,3.4,5.26,IL-41326,42.3395935,-88.2038058
Lakewood,Illinois,4699,1024,Chicago-Naperville-Elgin,9607711,$185774,60.58%,40,$558000,3466,$161,22,95.37%,N/A,38.48%,24,549,3.17%,1.24%,65.84%,McHenry County,42.20%,49.80%,3.89%,0.47%,83.4%,10.45%,12.13%,Central Standard Time,84,32,52,63,15,60%,56%,39,59,86,52%,65%,39%,41.93,14.39,6.52,33.51%,34.4%,30.22%,47.4,28,8.1,38.4,75,861,3.4,4.59,IL-41651,42.2279173,-88.3931528
Lakewood Shores,Illinois,433,1237,Chicago-Naperville-Elgin,9607711,$76500,8.48%,46,N/A,N/A,N/A,57,62.37%,$1339,38.4%,N/A,N/A,12.24%,2.55%,52.27%,Will County,49.90%,43.60%,3.93%,3.46%,89.38%,2.54%,3.93%,Central Standard Time,84,32,52,64,16,60%,56%,39,59,86,52%,65%,39%,41.87,13.9,6.71,35.48%,37.25%,34.44%,27.7,15,8.1,38.4,79,531,3.7,0.35,IL-41716,41.2799137,-88.1442808
Lansing,Illinois,28415,3809,Chicago-Naperville-Elgin,9607711,$71805,27.67%,40,$176000,1386,$127,54,69.7%,$1271,63.34%,377,5422,15.96%,9.77%,65.76%,Cook County,73.90%,20.80%,2.38%,51.84%,25.2%,17.41%,9.88%,Central Standard Time,84,32,52,64,16,60%,56%,39,59,86,52%,65%,39%,43.47,14.34,7.16,38.11%,38.02%,37.89%,40.8,28,8.1,38.4,52,567,3.6,7.46,IL-42028,41.5648097,-87.5461275
Lee,Illinois,332,1660,Chicago-Naperville-Elgin,9607711,$76250,13.74%,36,N/A,N/A,N/A,61,73.68%,$1102,51.15%,N/A,N/A,18.24%,2.19%,71.76%,Lee County,35.70%,55.60%,0.0%,4.52%,80.12%,9.94%,0.6%,Central Standard Time,82,29,53,61,14,60%,56%,39,59,84,52%,65%,39%,37.33,13.67,4.94,32.0%,33.19%,29.56%,29.1,18,8.1,38.4,83,741,3.7,0.2,IL-42587,41.7954198,-88.9416815
Lemont,Illinois,17643,2121,Chicago-Naperville-Elgin,9607711,$126100,45.6%,44,$423000,2084,$203,26,87.02%,$1211,39.75%,98,884,3.14%,4.35%,64.47%,Cook County,73.90%,20.80%,1.5%,1.33%,85.72%,9.58%,15.39%,Central Standard Time,90,34,56,64,15,60%,56%,39,59,97,52%,65%,39%,43.76,14.04,7.34,35.48%,37.8%,33.89%,35.6,25,8.1,38.4,69,663,3.6,8.32,IL-42795,41.6695005,-87.9837456
Lemont township,Illinois,17643,2121,Chicago-Naperville-Elgin,9607711,$126100,45.6%,44,$423000,2084,$203,26,87.02%,$1211,39.75%,98,884,3.14%,4.35%,64.47%,Cook County,73.90%,20.80%,1.5%,1.33%,85.72%,9.58%,15.39%,Central Standard Time,90,34,56,64,15,60%,56%,39,59,97,52%,65%,39%,43.76,14.04,7.34,35.48%,37.8%,33.89%,35.6,25,8.1,38.4,69,663,3.6,8.32,IL-42795,41.6695005,-87.9837456
Leyden,Illinois,92810,4659,Chicago-Naperville-Elgin,9607711,N/A,N/A,N/A,N/A,N/A,N/A,N/A,N/A,N/A,N/A,N/A,N/A,N/A,N/A,N/A,Cook County,73.90%,20.80%,N/A,N/A,N/A,N/A,N/A,Central Standard Time,85,32,53,67,19,60%,56%,39,59,88,52%,65%,39%,44.73,14.26,7.36,36.08%,35.82%,37.22%,42.4,27,8.1,38.4,46,594,3.6,19.92,IL-43120,41.938078,-87.8685066
Libertyville,Illinois,20493,2326,Chicago-Naperville-Elgin,9607711,$162270,71.5%,42,$540000,2400,$225,44,86.14%,$1537,37.02%,N/A,N/A,3.65%,2.9%,64.62%,Lake County,56.40%,36.20%,5.87%,1.36%,80.88%,8.08%,10.08%,Central Standard Time,83,30,53,63,14,60%,56%,39,59,85,52%,65%,39%,41.83,13.48,6.91,36.0%,35.49%,35.67%,47.4,28,8.1,38.4,67,645,3.7,8.81,IL-43250,42.2869304,-87.9669257
Libertyville township,Illinois,20493,2326,Chicago-Naperville-Elgin,9607711,$162270,71.5%,42,$540000,2400,$225,44,86.14%,$1537,37.02%,N/A,N/A,3.65%,2.9%,64.62%,Lake County,56.40%,36.20%,5.87%,1.36%,80.88%,8.08%,10.08%,Central Standard Time,83,30,53,63,14,60%,56%,39,59,85,52%,65%,39%,41.83,13.48,6.91,36.0%,35.49%,35.67%,47.4,28,8.1,38.4,67,645,3.7,8.81,IL-43250,42.2869304,-87.9669257
Lily Lake,Illinois,1432,526,Chicago-Naperville-Elgin,9607711,$145192,38.48%,44,$505000,2886,$175,29,94.9%,$1438,30.36%,N/A,N/A,0.56%,8.16%,70.59%,Kane County,51.90%,41.40%,0.0%,0.0%,92.53%,4.33%,2.86%,Central Standard Time,84,31,53,64,16,60%,56%,39,59,86,52%,65%,39%,41.18,12.97,6.45,31.92%,33.63%,31.78%,42.4,16,8.1,38.4,76,780,3.5,2.72,IL-43406,41.9516662,-88.4743119
Lincolnshire,Illinois,7937,1741,Chicago-Naperville-Elgin,9607711,$179735,76.69%,51,$750000,3049,$246,28,89.52%,$2655,37.34%,N/A,N/A,3.98%,1.5%,59.62%,Lake County,56.40%,36.20%,22.55%,0.88%,72.75%,1.57%,23.61%,Central Standard Time,84,32,52,66,19,60%,56%,39,59,86,52%,65%,39%,41.98,13.97,6.52,30.82%,33.63%,23.0%,47.4,28,8.1,38.4,63,639,3.7,4.56,IL-43666,42.1957307,-87.9181888
Lincolnwood,Illinois,13179,4899,Chicago-Naperville-Elgin,9607711,$107950,56.83%,44,$470000,1967,$239,61,80.66%,$3501,34.08%,113,1647,4.67%,6.04%,56.21%,Cook County,73.90%,20.80%,26.41%,2.94%,60.47%,7.53%,34.71%,Central Standard Time,84,33,51,64,17,60%,56%,39,59,86,52%,65%,39%,43.4,13.73,7.39,38.0%,36.7%,38.44%,42.4,27,8.1,38.4,46,552,3.6,2.69,IL-43744,42.0054296,-87.7329593
Lindenhurst,Illinois,14365,3171,Chicago-Naperville-Elgin,9607711,$127837,44.06%,37,$245000,1591,$154,34,87.97%,$1836,37.23%,34,293,3.51%,6.41%,75.78%,Lake County,56.40%,36.20%,7.64%,3.59%,72.82%,12.47%,11.28%,Central Standard Time,82,32,50,63,16,60%,56%,39,59,84,52%,65%,39%,40.14,13.17,6.35,36.63%,35.82%,34.33%,47.4,28,8.1,38.4,69,720,3.7,4.53,IL-43770,42.4175107,-88.0257796
Lisbon,Illinois,300,142,Chicago-Naperville-Elgin,9607711,$86250,30.06%,31,N/A,N/A,N/A,66,85.41%,$983,33.5%,N/A,N/A,1.0%,1.39%,73.1%,Kendall County,46.00%,46.20%,0.0%,0.0%,90.0%,3.33%,1.67%,Central Standard Time,85,32,53,66,16,60%,56%,39,59,88,52%,65%,39%,42.27,14.34,6.71,34.36%,34.62%,32.78%,27.7,15,8.1,38.4,78,480,3.4,2.12,IL-43900,41.4806286,-88.4559061
Lisbon township,Illinois,300,142,Chicago-Naperville-Elgin,9607711,$86250,30.06%,31,N/A,N/A,N/A,66,85.41%,$983,33.5%,N/A,N/A,1.0%,1.39%,73.1%,Kendall County,46.00%,46.20%,0.0%,0.0%,90.0%,3.33%,1.67%,Central Standard Time,85,32,53,66,16,60%,56%,39,59,88,52%,65%,39%,42.27,14.34,6.71,34.36%,34.62%,32.78%,27.7,15,8.1,38.4,78,480,3.4,2.12,IL-43900,41.4806286,-88.4559061
Lisle,Illinois,23413,3393,Chicago-Naperville-Elgin,9607711,$106173,62.38%,37,$360000,1748,$206,38,67.77%,$1540,47.01%,38,633,5.74%,4.05%,71.32%,DuPage County,53.10%,38.60%,16.29%,4.43%,68.44%,7.79%,15.8%,Central Standard Time,85,32,53,62,15,60%,56%,39,59,88,52%,65%,39%,44.18,14.31,7.28,33.78%,35.38%,32.22%,35.6,25,8.1,38.4,61,675,3.4,6.9,IL-43939,41.791823,-88.0888054
Lisle township,Illinois,23413,3393,Chicago-Naperville-Elgin,9607711,$106173,62.38%,37,$360000,1748,$206,38,67.77%,$1540,47.01%,38,633,5.74%,4.05%,71.32%,DuPage County,53.10%,38.60%,16.29%,4.43%,68.44%,7.79%,15.8%,Central Standard Time,85,32,53,62,15,60%,56%,39,59,88,52%,65%,39%,44.18,14.31,7.28,33.78%,35.38%,32.22%,35.6,25,8.1,38.4,63,675,3.4,6.9,IL-43939,41.791823,-88.0888054
Little Rock,Illinois,13650,387,Chicago-Naperville-Elgin,9607711,N/A,N/A,N/A,N/A,N/A,N/A,N/A,N/A,N/A,N/A,N/A,N/A,N/A,N/A,N/A,Kendall County,46.00%,46.20%,N/A,N/A,N/A,N/A,N/A,Central Standard Time,85,31,54,62,15,60%,56%,39,59,88,52%,65%,39%,45.47,14.78,6.72,35.32%,40.0%,27.22%,42.4,16,8.1,38.4,76,615,3.4,35.27,IL-44043,41.676808,-88.5463447
Lockport,Illinois,26228,2275,Chicago-Naperville-Elgin,9607711,$113252,44.42%,38,$285000,1686,$169,22,84.38%,$1503,46.8%,82,828,5.98%,4.9%,75.0%,Will County,49.90%,43.60%,0.84%,1.13%,84.78%,8.9%,6.78%,Central Standard Time,85,32,53,65,16,60%,56%,39,59,88,52%,65%,39%,44.0,14.24,7.05,36.08%,36.59%,35.67%,35.6,25,8.1,38.4,69,624,3.7,11.53,IL-44225,41.5906074,-88.029278
Lockport township,Illinois,26228,2275,Chicago-Naperville-Elgin,9607711,$113252,44.42%,38,$285000,1686,$169,22,84.38%,$1503,46.8%,82,828,5.98%,4.9%,75.0%,Will County,49.90%,43.60%,0.84%,1.13%,84.78%,8.9%,6.78%,Central Standard Time,85,32,53,65,16,60%,56%,39,59,88,52%,65%,39%,44.0,14.24,7.05,36.08%,36.59%,35.67%,35.6,25,8.1,38.4,69,624,3.7,11.53,IL-44225,41.5906074,-88.029278
Lombard,Illinois,43722,4278,Chicago-Naperville-Elgin,9607711,$97253,49.2%,39,$300000,1435,$209,49,73.03%,$1834,46.95%,96,2124,6.68%,4.67%,70.8%,DuPage County,53.10%,38.60%,11.45%,5.59%,66.05%,13.16%,16.24%,Central Standard Time,85,32,53,62,15,60%,56%,39,59,88,52%,65%,39%,41.2,12.96,6.56,33.78%,35.38%,32.22%,42.4,27,8.1,38.4,55,648,3.4,10.22,IL-44407,41.8741138,-88.0156927
Long Grove,Illinois,8266,667,Chicago-Naperville-Elgin,9607711,$235368,73.79%,49,$905000,3884,$233,31,97.47%,$3501,29.09%,N/A,N/A,1.2%,3.41%,62.49%,Lake County,56.40%,36.20%,11.48%,3.35%,72.95%,7.09%,18.76%,Central Standard Time,83,30,53,63,14,60%,56%,39,59,85,52%,65%,39%,41.98,13.97,6.52,36.0%,35.49%,35.67%,47.4,28,8.1,38.4,68,639,3.7,12.39,IL-44524,42.1966292,-88.0057516
Lynwood,Illinois,9047,1824,Chicago-Naperville-Elgin,9607711,$76619,39.56%,40,$355000,2351,$151,32,81.63%,$1151,56.93%,N/A,N/A,12.87%,6.28%,59.04%,Cook County,73.90%,20.80%,0.27%,65.61%,13.47%,8.67%,6.37%,Central Standard Time,84,32,52,64,16,60%,56%,39,59,86,52%,65%,39%,43.47,14.34,7.16,38.11%,38.02%,37.89%,40.8,28,8.1,38.4,24,567,3.6,4.96,IL-45421,41.5235133,-87.5510732
Lyons,Illinois,10391,4702,Chicago-Naperville-Elgin,9607711,$64209,16.75%,42,$210000,1382,$152,62,64.41%,$1154,51.62%,153,948,9.14%,4.3%,66.65%,Cook County,73.90%,20.80%,2.93%,3.06%,46.02%,48.38%,24.16%,Central Standard Time,85,33,52,68,20,60%,56%,39,59,88,52%,65%,39%,43.19,12.97,7.07,34.47%,36.37%,30.44%,40.8,28,8.1,38.4,56,564,3.6,2.21,IL-45434,41.8118572,-87.8190944
Lyons township,Illinois,10391,4702,Chicago-Naperville-Elgin,9607711,$64209,16.75%,42,$210000,1382,$152,62,64.41%,$1154,51.62%,153,948,9.14%,4.3%,66.65%,Cook County,73.90%,20.80%,2.93%,3.06%,46.02%,48.38%,24.16%,Central Standard Time,85,33,52,68,20,60%,56%,39,59,88,52%,65%,39%,43.19,12.97,7.07,34.47%,36.37%,30.44%,40.8,28,8.1,38.4,57,564,3.6,2.21,IL-45434,41.8118572,-87.8190944
Maine township (Cook Cnty),Illinois,136573,5267,Chicago-Naperville-Elgin,9607711,N/A,N/A,N/A,N/A,N/A,N/A,N/A,N/A,N/A,N/A,N/A,N/A,N/A,N/A,N/A,Cook County,73.90%,20.80%,N/A,N/A,N/A,N/A,N/A,Central Standard Time,85,32,53,67,19,60%,56%,39,59,88,52%,65%,39%,41.62,13.0,6.94,36.08%,35.82%,37.22%,42.4,27,8.1,38.4,36,603,3.6,25.93,IL-46162,42.0333669,-87.8642957
Maine township (Grundy Cnty),Illinois,295,16,Chicago-Naperville-Elgin,9607711,N/A,N/A,N/A,N/A,N/A,N/A,N/A,N/A,N/A,N/A,N/A,N/A,N/A,N/A,N/A,Grundy County,34.70%,57.90%,N/A,N/A,N/A,N/A,N/A,Central Standard Time,83,31,52,63,15,60%,56%,39,59,85,52%,65%,39%,41.87,13.9,6.71,35.48%,37.25%,34.44%,27.7,15,8.1,38.4,81,531,3.5,18.44,IL-46175,41.2431728,-88.3322149
Malta,Illinois,1507,2470,Chicago-Naperville-Elgin,9607711,$83611,23.7%,34,$247000,1594,$155,51,78.06%,$1036,49.74%,N/A,N/A,20.41%,4.07%,70.33%,DeKalb County,46.90%,43.80%,0.0%,2.79%,73.79%,19.04%,7.17%,Central Standard Time,83,29,54,64,13,60%,56%,39,59,85,52%,65%,39%,39.59,13.57,5.94,34.88%,35.82%,32.67%,29.1,18,8.1,38.4,83,798,3.5,0.61,IL-46279,41.9290691,-88.8671558
Malta township,Illinois,1507,2470,Chicago-Naperville-Elgin,9607711,$83611,23.7%,34,$247000,1594,$155,51,78.06%,$1036,49.74%,N/A,N/A,20.41%,4.07%,70.33%,DeKalb County,46.90%,43.80%,0.0%,2.79%,73.79%,19.04%,7.17%,Central Standard Time,83,29,54,64,13,60%,56%,39,59,85,52%,65%,39%,39.59,13.57,5.94,34.88%,35.82%,32.67%,29.1,18,8.1,38.4,83,798,3.5,0.61,IL-46279,41.9290691,-88.8671558
Manhattan,Illinois,10315,1544,Chicago-Naperville-Elgin,9607711,$128375,35.85%,32,$363000,2283,$159,16,88.83%,$1220,35.88%,12,517,3.34%,1.56%,78.19%,Will County,49.90%,43.60%,0.12%,3.2%,80.82%,9.02%,4.73%,Central Standard Time,84,32,52,64,16,60%,56%,39,59,86,52%,65%,39%,45.0,14.68,7.52,32.25%,31.98%,31.11%,35.6,25,8.1,38.4,78,615,3.7,6.68,IL-46357,41.4010545,-87.9630967
Manhattan township,Illinois,10315,1544,Chicago-Naperville-Elgin,9607711,$128375,35.85%,32,$363000,2283,$159,16,88.83%,$1220,35.88%,12,517,3.34%,1.56%,78.19%,Will County,49.90%,43.60%,0.12%,3.2%,80.82%,9.02%,4.73%,Central Standard Time,84,32,52,64,16,60%,56%,39,59,86,52%,65%,39%,45.0,14.68,7.52,32.25%,31.98%,31.11%,35.6,25,8.1,38.4,78,615,3.7,6.68,IL-46357,41.4010545,-87.9630967
Maple Park,Illinois,1939,902,Chicago-Naperville-Elgin,9607711,$106250,32.25%,33,$284000,1560,$182,22,84.74%,$1683,49.26%,0,820,6.5%,4.63%,71.88%,Kane County,51.90%,41.40%,0.41%,0.52%,83.45%,11.19%,3.35%,Central Standard Time,83,29,54,64,13,60%,56%,39,59,85,52%,65%,39%,36.84,12.62,5.88,32.52%,33.74%,33.11%,42.4,16,8.1,38.4,80,822,3.5,2.15,IL-46604,41.901094,-88.611858
Marengo,Illinois,7123,834,Chicago-Naperville-Elgin,9607711,$72586,16.53%,33,$256000,2327,$110,46,62.06%,$1077,56.63%,N/A,N/A,15.55%,8.78%,66.75%,McHenry County,42.20%,49.80%,0.0%,1.28%,84.54%,12.19%,5.7%,Central Standard Time,84,29,55,62,12,60%,56%,39,59,86,52%,65%,39%,40.53,13.96,6.12,33.62%,33.08%,32.89%,35.8,22,8.1,38.4,81,744,3.4,8.54,IL-46786,42.2094461,-88.6417312
Marengo township,Illinois,7123,834,Chicago-Naperville-Elgin,9607711,$72586,16.53%,33,$256000,2327,$110,46,62.06%,$1077,56.63%,N/A,N/A,15.55%,8.78%,66.75%,McHenry County,42.20%,49.80%,0.0%,1.28%,84.54%,12.19%,5.7%,Central Standard Time,84,29,55,62,12,60%,56%,39,59,86,52%,65%,39%,40.53,13.96,6.12,33.62%,33.08%,32.89%,35.8,22,8.1,38.4,81,744,3.4,8.54,IL-46786,42.2094461,-88.6417312
Markham,Illinois,11434,2113,Chicago-Naperville-Elgin,9607711,$52364,15.57%,34,$122000,1435,$85,57,63.79%,$1689,69.42%,N/A,N/A,18.88%,10.37%,61.46%,Cook County,73.90%,20.80%,0.3%,70.22%,10.94%,16.17%,7.68%,Central Standard Time,84,32,52,64,16,60%,56%,39,59,86,52%,65%,39%,44.6,14.72,7.31,34.71%,33.41%,34.33%,40.8,28,8.1,38.4,57,588,3.6,5.41,IL-47007,41.6000363,-87.6904564
Matteson,Illinois,18681,2011,Chicago-Naperville-Elgin,9607711,$98617,40.16%,44,$243000,1723,$141,24,78.66%,$1390,56.14%,1296,2797,9.42%,10.64%,64.74%,Cook County,73.90%,20.80%,1.31%,78.76%,14.43%,2.07%,3.8%,Central Standard Time,84,32,52,64,16,60%,56%,39,59,86,52%,65%,39%,45.17,14.1,7.99,34.71%,33.41%,34.33%,40.8,28,8.1,38.4,64,648,3.6,9.29,IL-47540,41.5094795,-87.746783
Mayfield,Illinois,805,23,Chicago-Naperville-Elgin,9607711,N/A,N/A,N/A,N/A,N/A,N/A,N/A,N/A,N/A,N/A,N/A,N/A,N/A,N/A,N/A,DeKalb County,46.90%,43.80%,N/A,N/A,N/A,N/A,N/A,Central Standard Time,83,29,54,64,13,60%,56%,39,59,85,52%,65%,39%,40.53,13.96,6.12,33.62%,33.08%,32.89%,35.8,22,8.1,38.4,79,756,3.5,35.0,IL-47696,42.0230386,-88.7723563
Maywood,Illinois,23173,8519,Chicago-Naperville-Elgin,9607711,$66498,16.71%,35,$223000,1593,$140,82,69.65%,$1203,59.49%,579,2019,15.25%,7.81%,56.81%,Cook County,73.90%,20.80%,0.64%,57.89%,5.66%,33.43%,13.77%,Central Standard Time,85,33,52,68,20,60%,56%,39,59,88,52%,65%,39%,43.18,13.44,7.24,34.47%,36.37%,30.44%,42.4,27,8.1,38.4,57,567,3.6,2.72,IL-47774,41.8797775,-87.8441836
Mazon,Illinois,1424,2373,Chicago-Naperville-Elgin,9607711,$76458,21.85%,33,$162000,1286,$126,45,74.88%,$940,40.47%,102,411,8.95%,1.87%,69.49%,Grundy County,34.70%,57.90%,0.0%,0.0%,92.42%,6.67%,3.72%,Central Standard Time,85,32,53,66,16,60%,56%,39,59,88,52%,65%,39%,41.12,13.99,6.3,34.36%,34.62%,32.78%,27.7,15,8.1,38.4,81,480,3.5,0.6,IL-47787,41.2417195,-88.4231111
Mazon township,Illinois,1424,2373,Chicago-Naperville-Elgin,9607711,$76458,21.85%,33,$162000,1286,$126,45,74.88%,$940,40.47%,102,411,8.95%,1.87%,69.49%,Grundy County,34.70%,57.90%,0.0%,0.0%,92.42%,6.67%,3.72%,Central Standard Time,85,32,53,66,16,60%,56%,39,59,88,52%,65%,39%,41.12,13.99,6.3,34.36%,34.62%,32.78%,27.7,15,8.1,38.4,81,480,3.5,0.6,IL-47787,41.2417195,-88.4231111
McCook,Illinois,299,115,Chicago-Naperville-Elgin,9607711,$74464,10.26%,31,N/A,N/A,N/A,59,58.99%,$1338,44.98%,909,5454,7.02%,1.65%,52.84%,Cook County,73.90%,20.80%,1.67%,2.68%,43.81%,50.17%,14.38%,Central Standard Time,85,33,52,68,20,60%,56%,39,59,88,52%,65%,39%,44.46,13.66,7.7,34.47%,36.37%,30.44%,40.8,28,8.1,38.4,61,603,3.6,2.61,IL-45564,41.7959083,-87.8411386
McCullom Lake,Illinois,1087,3106,Chicago-Naperville-Elgin,9607711,$71000,15.22%,37,$228000,2151,$106,60,58.93%,$1190,48.45%,N/A,N/A,15.64%,8.35%,74.45%,McHenry County,42.20%,49.80%,0.0%,0.0%,76.08%,21.25%,8.83%,Central Standard Time,84,31,53,62,13,60%,56%,39,59,86,52%,65%,39%,40.68,13.61,5.98,34.36%,35.16%,33.22%,47.4,28,8.1,38.4,76,672,3.4,0.35,IL-45616,42.3679657,-88.2965402
McHenry,Illinois,27774,1915,Chicago-Naperville-Elgin,9607711,$86865,25.48%,44,$245000,1503,$163,32,74.84%,$1508,48.09%,148,847,4.03%,3.49%,69.82%,McHenry County,42.20%,49.80%,1.79%,0.75%,77.66%,17.06%,7.74%,Central Standard Time,84,31,53,62,13,60%,56%,39,59,86,52%,65%,39%,40.68,13.61,5.98,33.51%,34.4%,30.22%,47.4,28,8.1,38.4,76,672,3.4,14.5,IL-45694,42.3387529,-88.2931706
McHenry township,Illinois,27774,1915,Chicago-Naperville-Elgin,9607711,$86865,25.48%,44,$245000,1503,$163,32,74.84%,$1508,48.09%,148,847,4.03%,3.49%,69.82%,McHenry County,42.20%,49.80%,1.79%,0.75%,77.66%,17.06%,7.74%,Central Standard Time,84,31,53,62,13,60%,56%,39,59,86,52%,65%,39%,40.68,13.61,5.98,33.51%,34.4%,30.22%,47.4,28,8.1,38.4,76,672,3.4,14.5,IL-45694,42.3387529,-88.2931706
Melrose Park,Illinois,24513,5635,Chicago-Naperville-Elgin,9607711,$64740,14.69%,35,$290000,1568,$185,63,53.08%,$1194,57.76%,297,1274,10.43%,5.45%,66.2%,Cook County,73.90%,20.80%,0.71%,3.82%,16.8%,77.79%,34.09%,Central Standard Time,85,32,53,67,19,60%,56%,39,59,88,52%,65%,39%,42.04,13.19,6.75,36.08%,35.82%,37.22%,42.4,27,8.1,38.4,57,627,3.6,4.35,IL-48242,41.9029941,-87.8636471
Merrionette Park,Illinois,2144,5642,Chicago-Naperville-Elgin,9607711,$53623,21.85%,39,$216000,1131,$191,59,80.64%,$1197,67.13%,N/A,N/A,7.93%,8.46%,74.56%,Cook County,73.90%,20.80%,1.12%,6.34%,63.9%,27.19%,5.32%,Central Standard Time,86,33,53,68,20,60%,56%,39,59,89,52%,65%,39%,44.11,13.81,7.37,36.44%,36.26%,37.89%,40.8,28,8.1,38.4,53,564,3.6,0.38,IL-48554,41.6811167,-87.7012117
