City,State,Population,People per sq mi,Metro Name,Metro population,Median household income,% with at least Bachelor's degree,Median age,Median home price,Median home sqft,Median home cost per sqft,Median home age,Homeownership Rate,Avg Apartment Monthly Rent,Single Population,Num Violent Crimes Per 100k residents,Num Property Crimes Per 100k residents,Poverty Rate,Unemployment rate,Labor Force Participation rate,County,% Democrat,% Republican,% Asian,% Black,% Non-Hispanic White,% Hispanic,Foreign Born %,Timezone,Hottest month's avg high (F),Coldest month's avg high (F),Hottest high minus coldest high,Annual rainfall (in),Annual days of precipitation,Annual snowfall (in),Average yearly windspeed (mph),Air quality Index,Elevation (ft),UV Index,Land Area (sq mi),Fips Code,Latitude,Longitude,Annual Sunshine - Percentage of Possible,Summer Sunshine - Percentage of Possible,Winter Sunshine - Percentage of Possible,Annual Relative Humidity (afternoon),Summer Relative Humidity (afternoon),Number of days with thunder per year
Addison,Illinois,36714,3735,Chicago-Naperville-Elgin,9406638,$68534,24.6%,38,$323000,1765,$183,48,66.17%,$1089,48.26%,199,1153,13.53%,4.12%,68.66%,DuPage County,53.10%,38.60%,10.15%,4.64%,43.88%,40.99%,33.51%,Central Standard Time,84,31,53,38,122,33,8.1,52,623,3.4,9.83,IL-00243,41.9313394,-88.0085115,52%,65%,39%,60%,56%,38.4
Addison township,Illinois,36714,3735,Chicago-Naperville-Elgin,9406638,$68534,24.6%,38,$323000,1765,$183,48,66.17%,$1089,48.26%,199,1153,13.53%,4.12%,68.66%,DuPage County,53.10%,38.60%,10.15%,4.64%,43.88%,40.99%,33.51%,Central Standard Time,84,31,53,38,122,33,8.1,50,623,3.4,9.83,IL-00243,41.9313394,-88.0085115,52%,65%,39%,60%,56%,38.4
Afton,Illinois,966,28,Chicago-Naperville-Elgin,9406638,$68198,N/A,N/A,N/A,N/A,N/A,42,71.50%,N/A,31.10%,N/A,N/A,N/A,4.50%,N/A,DeKalb County,46.90%,43.80%,0.0%,0.0%,86.1%,13.9%,N/A,Central Standard Time,83,28,55,37,115,29,8.1,77,623,3.5,34.5,IL-00386,41.8490928,-88.7714976,52%,65%,39%,60%,56%,38.4
Alden,Illinois,167,1285,Chicago-Naperville-Elgin,9406638,$71397,0.0%,13,N/A,N/A,N/A,42,7.19%,N/A,0.0%,N/A,N/A,92.81%,0.0%,47.06%,McHenry County,42.20%,49.80%,0.0%,0.0%,7.19%,92.81%,33.53%,Central Standard Time,84,29,55,36,115,32,8.1,81,623,3.4,0.13,IL-00594,42.4586075,-88.5185166,53%,66%,44%,63%,61%,34.2
Algonquin,Illinois,30848,2508,Chicago-Naperville-Elgin,9406638,$109819,43.97%,43,$323000,2006,$161,26,87.68%,$1659,40.09%,74,976,4.2%,5.89%,74.79%,McHenry County,42.20%,49.80%,7.03%,2.28%,78.32%,9.5%,12.32%,Central Standard Time,84,30,54,38,121,33,8.1,72,623,3.4,12.3,IL-00685,42.1628707,-88.315887,52%,65%,39%,60%,56%,38.4
Algonquin township,Illinois,30848,2508,Chicago-Naperville-Elgin,9406638,$109819,43.97%,43,$323000,2006,$161,26,87.68%,$1659,40.09%,74,976,4.2%,5.89%,74.79%,McHenry County,42.20%,49.80%,7.03%,2.28%,78.32%,9.5%,12.32%,Central Standard Time,82,29,53,37,117,35,8.1,72,623,3.4,12.3,IL-00685,42.1628707,-88.315887,52%,65%,39%,60%,56%,38.4
Alsip,Illinois,18843,2886,Chicago-Naperville-Elgin,9406638,$58768,21.47%,39,$245000,1701,$144,47,66.53%,$977,54.24%,N/A,N/A,7.67%,6.02%,65.78%,Cook County,73.90%,20.80%,2.03%,23.11%,50.41%,22.63%,9.09%,Central Standard Time,84,33,51,39,124,32,8.1,48,623,3.6,6.53,IL-01010,41.6700752,-87.7367927,52%,65%,39%,60%,56%,38.4
Antioch,Illinois,14231,1733,Chicago-Naperville-Elgin,9406638,$103659,38.23%,40,$298000,2241,$133,24,81.65%,$997,41.68%,119,969,7.1%,6.07%,73.22%,Lake County,56.40%,36.20%,4.42%,1.46%,81.46%,7.34%,6.65%,Central Standard Time,82,29,53,36,116,41,8.1,73,623,3.7,8.21,IL-01595,42.4741547,-88.0720427,53%,66%,44%,63%,61%,34.2
Antioch township,Illinois,14231,1733,Chicago-Naperville-Elgin,9406638,$103659,38.23%,40,$298000,2241,$133,24,81.65%,$997,41.68%,119,969,7.1%,6.07%,73.22%,Lake County,56.40%,36.20%,4.42%,1.46%,81.46%,7.34%,6.65%,Central Standard Time,82,29,53,36,116,41,8.1,74,623,3.7,8.21,IL-01595,42.4741547,-88.0720427,53%,66%,44%,63%,61%,34.2
Arlington Heights,Illinois,75071,4520,Chicago-Naperville-Elgin,9406638,$100221,58.08%,43,$335000,1626,$206,48,77.37%,$1441,39.87%,43,797,4.23%,3.66%,66.73%,Cook County,73.90%,20.80%,10.32%,2.4%,77.12%,8.19%,19.74%,Central Standard Time,84,31,53,36,125,36,8.1,56,623,3.6,16.61,IL-02154,42.0955692,-87.9825553,52%,65%,39%,60%,56%,38.4
Aurora,Illinois,199326,4427,Chicago-Naperville-Elgin,9406638,$74659,33.06%,34,$275000,1618,$170,37,66.03%,$1274,48.99%,258,1008,10.61%,6.02%,72.18%,Kane County,51.90%,41.40%,9.27%,10.49%,34.88%,42.71%,25.59%,Central Standard Time,84,30,54,38,120,28,8.1,64,623,3.5,45.02,IL-03012,41.76373,-88.2901415,52%,65%,39%,60%,56%,38.4
Aurora township,Illinois,199326,4427,Chicago-Naperville-Elgin,9406638,$74659,33.06%,34,$275000,1618,$170,37,66.03%,$1274,48.99%,258,1008,10.61%,6.02%,72.18%,Kane County,51.90%,41.40%,9.27%,10.49%,34.88%,42.71%,25.59%,Central Standard Time,84,30,54,38,120,28,8.1,62,623,3.5,45.02,IL-03012,41.76373,-88.2901415,52%,65%,39%,60%,56%,38.4
Aux Sable,Illinois,13180,453,Chicago-Naperville-Elgin,9406638,$79821,30.22%,N/A,N/A,N/A,N/A,14,84.20%,N/A,36.10%,N/A,N/A,N/A,4.80%,N/A,Grundy County,34.70%,57.90%,0.9%,1.8%,78.7%,15.8%,N/A,Central Standard Time,84,31,53,37,119,24,8.1,74,623,3.5,29.09,IL-03090,41.423581,-88.30995,52%,65%,39%,60%,56%,38.4
Avon township,Illinois,64782,147232,Chicago-Naperville-Elgin,9406638,$63376,N/A,N/A,N/A,N/A,N/A,28,69.70%,N/A,46.10%,N/A,N/A,N/A,3.80%,N/A,Lake County,56.40%,36.20%,4.6%,3.8%,54.0%,35.3%,N/A,Central Standard Time,82,29,53,37,121,43,8.1,72,623,3.7,0.44,IL-03220,42.3570385,-88.0623574,52%,65%,39%,60%,56%,38.4
Bannockburn,Illinois,1194,588,Chicago-Naperville-Elgin,9406638,$115833,83.16%,25,N/A,N/A,N/A,51,77.72%,$1030,65.44%,0,1993,1.01%,4.94%,55.01%,Lake County,56.40%,36.20%,11.06%,11.47%,68.43%,7.54%,22.03%,Central Standard Time,83,32,51,36,125,36,8.1,62,623,3.7,2.03,IL-03610,42.1932603,-87.8694596,52%,65%,39%,60%,56%,38.4
Barrington,Illinois,10442,2265,Chicago-Naperville-Elgin,9406638,$112794,69.9%,41,$398000,2128,$187,50,77.04%,$1408,34.52%,19,847,3.65%,3.42%,62.22%,Cook County,73.90%,20.80%,8.76%,1.59%,82.13%,5.21%,12.62%,Central Standard Time,83,30,53,38,124,38,8.1,69,623,3.6,4.61,IL-03844,42.1515239,-88.1282037,52%,65%,39%,60%,56%,38.4
Barrington Hills,Illinois,4156,154,Chicago-Naperville-Elgin,9406638,$157414,74.53%,50,$690000,4035,$171,46,91.28%,$2732,32.13%,0,428,8.25%,2.36%,57.4%,Cook County,73.90%,20.80%,10.47%,0.26%,86.55%,2.24%,23.8%,Central Standard Time,83,30,53,38,124,37,8.1,73,623,3.6,27.0,IL-03883,42.1398599,-88.2033814,52%,65%,39%,60%,56%,38.4
Barrington township,Illinois,10442,2265,Chicago-Naperville-Elgin,9406638,$112794,69.9%,41,$398000,2128,$187,50,77.04%,$1408,34.52%,19,847,3.65%,3.42%,62.22%,Cook County,73.90%,20.80%,8.76%,1.59%,82.13%,5.21%,12.62%,Central Standard Time,84,30,54,38,124,37,8.1,70,623,3.6,4.61,IL-03844,42.1515239,-88.1282037,52%,65%,39%,60%,56%,38.4
Bartlett,Illinois,40894,2600,Chicago-Naperville-Elgin,9406638,$109980,45.62%,41,$337000,1948,$173,28,87.36%,$1702,35.96%,56,459,4.19%,2.97%,68.3%,DuPage County,53.10%,38.60%,16.77%,2.42%,65.23%,13.9%,20.04%,Central Standard Time,85,31,54,38,121,33,8.1,69,623,3.4,15.73,IL-04013,41.9565914,-88.21499,52%,65%,39%,60%,56%,38.4
Batavia,Illinois,26479,2493,Chicago-Naperville-Elgin,9406638,$97995,53.78%,39,$359000,2063,$174,37,82.74%,$1168,36.09%,125,1279,5.89%,3.4%,70.88%,Kane County,51.90%,41.40%,2.04%,3.07%,83.92%,7.7%,5.35%,Central Standard Time,84,30,54,37,115,28,8.1,67,623,3.5,10.62,IL-04078,41.8478394,-88.3109762,52%,65%,39%,60%,56%,38.4
Batavia township,Illinois,26479,2493,Chicago-Naperville-Elgin,9406638,$97995,53.78%,39,$359000,2063,$174,37,82.74%,$1168,36.09%,125,1279,5.89%,3.4%,70.88%,Kane County,51.90%,41.40%,2.04%,3.07%,83.92%,7.7%,5.35%,Central Standard Time,84,30,54,37,116,28,8.1,67,623,3.5,10.62,IL-04078,41.8478394,-88.3109762,52%,65%,39%,60%,56%,38.4
Beach Park,Illinois,13433,1897,Chicago-Naperville-Elgin,9406638,$71250,17.28%,35,$246000,1482,$166,33,83.74%,$1179,34.84%,N/A,N/A,9.52%,7.17%,66.53%,Lake County,56.40%,36.20%,4.16%,8.9%,43.99%,39.25%,17.0%,Central Standard Time,81,30,51,36,116,41,8.1,74,623,3.7,7.08,IL-04303,42.4194789,-87.8380193,52%,65%,39%,60%,56%,38.4
Bedford Park,Illinois,669,113,Chicago-Naperville-Elgin,9406638,$99375,35.0%,37,N/A,N/A,N/A,68,80.87%,$1341,48.88%,1495,64451,3.74%,3.24%,65.57%,Cook County,73.90%,20.80%,0.0%,5.38%,48.28%,44.1%,14.2%,Central Standard Time,84,33,51,39,124,32,8.1,61,623,3.6,5.93,IL-04572,41.7669429,-87.791537,52%,65%,39%,60%,56%,38.4
Beecher,Illinois,4443,1627,Chicago-Naperville-Elgin,9406638,$86576,20.78%,42,$229000,1590,$144,35,83.77%,$920,46.08%,178,536,3.12%,2.13%,60.41%,Will County,49.90%,43.60%,0.0%,1.1%,89.98%,8.98%,0.45%,Central Standard Time,84,31,53,41,118,28,8.1,78,623,3.7,2.73,IL-04585,41.3500466,-87.6172919,52%,65%,39%,60%,56%,38.4
Bellwood,Illinois,18799,7833,Chicago-Naperville-Elgin,9406638,$63006,16.28%,36,$260000,1566,$166,65,78.84%,$1043,62.31%,675,2301,11.12%,8.29%,65.75%,Cook County,73.90%,20.80%,0.78%,72.68%,4.23%,20.33%,9.24%,Central Standard Time,84,31,53,38,121,34,8.1,56,623,3.6,2.4,IL-04975,41.8829011,-87.8761705,52%,65%,39%,60%,56%,38.4
Bensenville,Illinois,18273,3304,Chicago-Naperville-Elgin,9406638,$64401,23.84%,36,$279000,1613,$173,50,57.49%,$1134,50.74%,93,1070,10.21%,3.41%,71.45%,DuPage County,53.10%,38.60%,3.69%,3.9%,43.41%,47.98%,29.43%,Central Standard Time,84,31,53,38,122,34,8.1,41,623,3.4,5.53,IL-05248,41.9580468,-87.9442133,52%,65%,39%,60%,56%,38.4
Benton township (Lake Cnty),Illinois,19090,3484,Chicago-Naperville-Elgin,9406638,$74621,N/A,N/A,N/A,N/A,N/A,38,70.00%,N/A,40.80%,N/A,N/A,N/A,3.80%,N/A,Lake County,56.40%,36.20%,1.6%,7.5%,66.7%,21.7%,N/A,Central Standard Time,81,30,51,36,116,41,8.1,77,623,3.7,5.48,IL-05326,42.42832,-87.8637835,52%,65%,39%,60%,56%,38.4
Berkeley,Illinois,5079,3628,Chicago-Naperville-Elgin,9406638,$71025,18.44%,42,$220000,1358,$162,64,92.13%,$1017,47.35%,118,1265,3.13%,5.66%,63.04%,Cook County,73.90%,20.80%,2.74%,26.11%,28.37%,40.48%,15.34%,Central Standard Time,84,31,53,38,120,34,8.1,49,623,3.6,1.4,IL-05404,41.8891167,-87.9114709,52%,65%,39%,60%,56%,38.4
Berwyn,Illinois,54850,14064,Chicago-Naperville-Elgin,9406638,$61915,22.16%,36,$290000,1747,$166,78,65.64%,$995,54.05%,208,1087,12.53%,4.91%,67.25%,Cook County,73.90%,20.80%,3.2%,7.77%,26.19%,62.45%,27.15%,Central Standard Time,84,33,51,39,124,34,8.1,59,623,3.6,3.9,IL-05573,41.8433349,-87.7909259,52%,65%,39%,60%,56%,38.4
Berwyn township,Illinois,54850,14064,Chicago-Naperville-Elgin,9406638,$61915,22.16%,36,$290000,1747,$166,78,65.64%,$995,54.05%,208,1087,12.53%,4.91%,67.25%,Cook County,73.90%,20.80%,3.2%,7.77%,26.19%,62.45%,27.15%,Central Standard Time,84,33,51,39,124,34,8.1,59,623,3.6,3.9,IL-05573,41.8433349,-87.7909259,52%,65%,39%,60%,56%,38.4
Big Grove,Illinois,2048,57,Chicago-Naperville-Elgin,9406638,$67500,22.39%,N/A,N/A,N/A,N/A,51,79.30%,N/A,40.80%,N/A,N/A,N/A,3.80%,N/A,Kendall County,46.00%,46.20%,0.0%,0.5%,94.5%,4.7%,N/A,Central Standard Time,84,31,53,38,119,27,8.1,78,623,3.4,35.93,IL-05872,41.5011997,-88.5401356,52%,65%,39%,60%,56%,38.4
Big Rock,Illinois,1271,294,Chicago-Naperville-Elgin,9406638,$106375,27.2%,41,$299000,1473,$203,48,89.69%,$1104,31.18%,N/A,N/A,0.63%,4.89%,65.86%,Kane County,51.90%,41.40%,0.0%,0.0%,93.15%,3.3%,1.42%,Central Standard Time,84,30,54,38,117,29,8.1,79,623,3.5,4.32,IL-05976,41.7668028,-88.5264414,52%,65%,39%,60%,56%,38.4
Big Rock township,Illinois,1271,294,Chicago-Naperville-Elgin,9406638,$106375,27.2%,41,$299000,1473,$203,48,89.69%,$1104,31.18%,N/A,N/A,0.63%,4.89%,65.86%,Kane County,51.90%,41.40%,0.0%,0.0%,93.15%,3.3%,1.42%,Central Standard Time,84,30,54,38,117,29,8.1,79,623,3.5,4.32,IL-05976,41.7668028,-88.5264414,52%,65%,39%,60%,56%,38.4
Blackberry,Illinois,15502,444,Chicago-Naperville-Elgin,9406638,$115358,61.92%,N/A,N/A,N/A,N/A,16,89.70%,N/A,31.40%,N/A,N/A,N/A,4.20%,N/A,Kane County,51.90%,41.40%,2.4%,2.7%,86.2%,6.9%,N/A,Central Standard Time,84,30,54,38,120,30,8.1,76,623,3.5,34.91,IL-06262,41.852874,-88.4322549,52%,65%,39%,60%,56%,38.4
Bloom,Illinois,91247,1964,Chicago-Naperville-Elgin,9406638,$48238,23.43%,N/A,N/A,N/A,N/A,52,60.20%,N/A,58.70%,N/A,N/A,N/A,4.20%,N/A,Cook County,73.90%,20.80%,0.6%,48.7%,28.7%,19.5%,N/A,Central Standard Time,84,31,53,39,113,29,8.1,63,623,3.6,46.46,IL-06561,41.5137291,-87.6000248,52%,65%,39%,60%,56%,38.4
Bloomingdale,Illinois,21905,3236,Chicago-Naperville-Elgin,9406638,$87397,40.53%,41,$339000,1883,$180,38,74.51%,$1358,43.75%,86,1975,6.88%,3.61%,69.05%,DuPage County,53.10%,38.60%,12.89%,5.61%,68.0%,12.19%,17.12%,Central Standard Time,85,31,54,38,122,33,8.1,62,623,3.4,6.77,IL-06587,41.9496536,-88.0894771,52%,65%,39%,60%,56%,38.4
Bloomingdale township,Illinois,21905,3236,Chicago-Naperville-Elgin,9406638,$87397,40.53%,41,$339000,1883,$180,38,74.51%,$1358,43.75%,86,1975,6.88%,3.61%,69.05%,DuPage County,53.10%,38.60%,12.89%,5.61%,68.0%,12.19%,17.12%,Central Standard Time,85,31,54,38,122,33,8.1,61,623,3.4,6.77,IL-06587,41.9496536,-88.0894771,52%,65%,39%,60%,56%,38.4
Blue Island,Illinois,23160,5690,Chicago-Naperville-Elgin,9406638,$51859,16.83%,36,$185000,1623,$114,66,57.23%,$897,62.36%,551,1428,18.34%,13.12%,65.77%,Cook County,73.90%,20.80%,0.42%,31.42%,20.75%,46.96%,20.92%,Central Standard Time,84,32,52,38,124,32,8.1,56,623,3.6,4.07,IL-06704,41.6577828,-87.6811463,52%,65%,39%,60%,56%,38.4
Bolingbrook,Illinois,74319,2991,Chicago-Naperville-Elgin,9406638,$92184,38.52%,37,$275000,1608,$171,34,82.04%,$1385,45.67%,163,862,7.78%,4.98%,72.11%,Will County,49.90%,43.60%,12.09%,18.16%,39.94%,26.31%,21.71%,Central Standard Time,84,31,53,39,122,30,8.1,64,623,3.7,24.85,IL-07133,41.6901131,-88.1020488,52%,65%,39%,60%,56%,38.4
Braceville,Illinois,886,285,Chicago-Naperville-Elgin,9406638,$76667,13.76%,35,$186000,1646,$113,49,65.46%,$1383,36.63%,N/A,N/A,9.82%,4.43%,70.98%,Grundy County,34.70%,57.90%,0.56%,0.0%,72.12%,24.83%,0.56%,Central Standard Time,84,31,53,37,110,22,8.1,82,623,3.5,3.11,IL-07640,41.2235199,-88.235666,52%,65%,39%,60%,56%,38.4
Braceville township,Illinois,886,285,Chicago-Naperville-Elgin,9406638,$76667,13.76%,35,$186000,1646,$113,49,65.46%,$1383,36.63%,N/A,N/A,9.82%,4.43%,70.98%,Grundy County,34.70%,57.90%,0.56%,0.0%,72.12%,24.83%,0.56%,Central Standard Time,85,31,54,37,110,22,8.1,80,623,3.5,3.11,IL-07640,41.2235199,-88.235666,52%,65%,39%,60%,56%,38.4
Braidwood,Illinois,6338,1196,Chicago-Naperville-Elgin,9406638,$67057,16.42%,42,$200000,1575,$127,26,82.73%,$1059,44.06%,161,548,10.0%,5.11%,63.92%,Will County,49.90%,43.60%,0.06%,0.08%,92.38%,5.49%,1.15%,Central Standard Time,85,31,54,37,112,22,8.1,74,623,3.7,5.3,IL-07770,41.2695432,-88.2234951,52%,65%,39%,60%,56%,38.4
Bremen,Illinois,110567,2930,Chicago-Naperville-Elgin,9406638,$55462,23.85%,N/A,N/A,N/A,N/A,47,66.10%,N/A,55.70%,N/A,N/A,N/A,4.20%,N/A,Cook County,73.90%,20.80%,1.6%,32.5%,49.8%,14.9%,N/A,Central Standard Time,84,32,52,39,123,31,8.1,51,623,3.6,37.74,IL-07939,41.6022079,-87.7347431,52%,65%,39%,60%,56%,38.4
Bridgeview,Illinois,15576,3771,Chicago-Naperville-Elgin,9406638,$55102,19.63%,38,$298000,1840,$162,48,72.73%,$946,53.41%,260,1950,14.49%,5.94%,58.96%,Cook County,73.90%,20.80%,5.16%,3.9%,65.45%,23.81%,25.98%,Central Standard Time,84,33,51,39,124,32,8.1,54,623,3.6,4.13,IL-08225,41.7402851,-87.8066456,52%,65%,39%,60%,56%,38.4
Bristol,Illinois,28192,996,Chicago-Naperville-Elgin,9406638,$84983,36.56%,N/A,N/A,N/A,N/A,14,79.00%,$1318,46.00%,N/A,N/A,N/A,3.80%,N/A,Kendall County,46.00%,46.20%,1.6%,7.4%,73.5%,16.5%,N/A,Central Standard Time,84,30,54,38,122,29,8.1,74,623,3.4,28.31,IL-08368,41.6865039,-88.4354343,52%,65%,39%,60%,56%,38.4
Broadview,Illinois,7677,4313,Chicago-Naperville-Elgin,9406638,$54537,17.34%,44,$240000,1311,$183,64,79.64%,$928,61.77%,260,4475,7.65%,12.42%,66.66%,Cook County,73.90%,20.80%,2.84%,73.3%,12.11%,9.91%,7.14%,Central Standard Time,84,32,52,39,124,34,8.1,59,623,3.6,1.78,IL-08446,41.8583676,-87.8561917,52%,65%,39%,60%,56%,38.4
Brookfield,Illinois,18520,6052,Chicago-Naperville-Elgin,9406638,$84891,43.44%,40,$314000,1635,$192,69,82.51%,$1058,44.76%,N/A,N/A,7.18%,2.17%,69.69%,Cook County,73.90%,20.80%,1.57%,5.15%,68.78%,22.05%,10.12%,Central Standard Time,84,32,52,39,121,32,8.1,61,623,3.6,3.06,IL-08576,41.8245298,-87.8470016,52%,65%,39%,60%,56%,38.4
Buffalo Grove,Illinois,40804,4268,Chicago-Naperville-Elgin,9406638,$117921,66.32%,42,$380000,1881,$202,38,81.13%,$1700,36.06%,26,706,4.94%,3.09%,71.26%,Lake County,56.40%,36.20%,21.74%,3.29%,65.64%,6.54%,34.89%,Central Standard Time,83,32,51,36,125,36,8.1,60,623,3.7,9.56,IL-09447,42.167538,-87.9616033,52%,65%,39%,60%,56%,38.4
Bull Valley,Illinois,1401,153,Chicago-Naperville-Elgin,9406638,$95556,56.49%,57,$520000,2364,$220,40,94.93%,$1098,32.36%,N/A,N/A,4.74%,3.4%,53.69%,McHenry County,42.20%,49.80%,12.06%,0.0%,76.66%,9.35%,13.99%,Central Standard Time,82,29,53,37,112,34,8.1,79,623,3.4,9.13,IL-09531,42.3226202,-88.3634474,52%,65%,39%,60%,56%,38.4
Burbank,Illinois,28447,6822,Chicago-Naperville-Elgin,9406638,$70052,16.17%,38,$265000,1448,$183,56,79.81%,$1120,48.85%,189,856,10.7%,6.69%,64.4%,Cook County,73.90%,20.80%,2.25%,3.26%,51.57%,41.38%,27.51%,Central Standard Time,84,33,51,39,124,32,8.1,57,623,3.6,4.17,IL-09642,41.7444198,-87.7685043,52%,65%,39%,60%,56%,38.4
Burlington,Illinois,514,75,Chicago-Naperville-Elgin,9406638,$80833,28.66%,39,$335000,1603,$209,56,67.12%,$1094,44.78%,N/A,N/A,7.37%,1.61%,59.62%,Kane County,51.90%,41.40%,0.0%,0.0%,94.16%,4.86%,3.5%,Central Standard Time,83,29,54,38,116,33,8.1,82,623,3.5,6.86,IL-09759,42.0515169,-88.5505445,52%,65%,39%,60%,56%,38.4
Burlington township,Illinois,514,75,Chicago-Naperville-Elgin,9406638,$80833,28.66%,39,$335000,1603,$209,56,67.12%,$1094,44.78%,N/A,N/A,7.37%,1.61%,59.62%,Kane County,51.90%,41.40%,0.0%,0.0%,94.16%,4.86%,3.5%,Central Standard Time,83,29,54,38,115,32,8.1,82,623,3.5,6.86,IL-09759,42.0515169,-88.5505445,52%,65%,39%,60%,56%,38.4
Burnham,Illinois,4121,2216,Chicago-Naperville-Elgin,9406638,$46382,13.44%,38,$110000,775,$142,53,63.43%,$1006,70.62%,N/A,N/A,15.37%,9.65%,63.97%,Cook County,73.90%,20.80%,0.32%,64.21%,13.61%,22.08%,6.55%,Central Standard Time,84,33,51,38,124,32,8.1,70,623,3.6,1.86,IL-09798,41.6375377,-87.544703,52%,65%,39%,60%,56%,38.4
Burr Ridge,Illinois,10761,1507,Chicago-Naperville-Elgin,9406638,$151900,70.11%,55,$460000,2460,$187,33,94.2%,$1869,29.86%,64,1477,3.26%,2.98%,57.69%,DuPage County,53.10%,38.60%,14.73%,0.81%,75.5%,5.55%,22.7%,Central Standard Time,84,31,53,39,121,31,8.1,62,623,3.4,7.14,IL-09980,41.7484974,-87.9199317,52%,65%,39%,60%,56%,38.4
Burton township (McHenry Cnty),Illinois,4924,14921,Chicago-Naperville-Elgin,9406638,$100541,N/A,N/A,N/A,N/A,N/A,24,95.60%,N/A,35.00%,N/A,N/A,N/A,3.50%,N/A,McHenry County,42.20%,49.80%,0.6%,0.0%,91.9%,6.6%,N/A,Central Standard Time,82,29,53,36,118,40,8.1,77,623,3.4,0.33,IL-10032,42.4552021,-88.218374,53%,66%,44%,63%,61%,34.2
Calumet,Illinois,36229,5046,Chicago-Naperville-Elgin,9406638,$50640,18.62%,37,$150000,1485,$101,52,57.75%,$959,66.03%,514,2878,18.39%,13.64%,65.05%,Cook County,73.90%,20.80%,0.09%,76.67%,8.18%,14.62%,8.56%,Central Standard Time,84,32,52,38,124,32,8.1,63,623,3.6,7.18,IL-10487,41.6095242,-87.5384287,52%,65%,39%,60%,56%,38.4
Calumet City,Illinois,36229,5046,Chicago-Naperville-Elgin,9406638,$50640,18.62%,37,$150000,1485,$101,52,57.75%,$959,66.03%,514,2878,18.39%,13.64%,65.05%,Cook County,73.90%,20.80%,0.09%,76.67%,8.18%,14.62%,8.56%,Central Standard Time,84,32,52,38,124,32,8.1,67,623,3.6,7.18,IL-10487,41.6095242,-87.5384287,52%,65%,39%,60%,56%,38.4
Calumet Park,Illinois,8383,7485,Chicago-Naperville-Elgin,9406638,$50049,18.76%,41,$182000,1348,$135,62,60.55%,$922,67.32%,N/A,N/A,19.41%,10.46%,60.64%,Cook County,73.90%,20.80%,0.0%,90.29%,1.86%,5.93%,5.31%,Central Standard Time,84,32,52,38,124,32,8.1,64,623,3.6,1.12,IL-10513,41.6649425,-87.6577095,52%,65%,39%,60%,56%,38.4
Campton,Illinois,17524,510,Chicago-Naperville-Elgin,9406638,$109329,56.14%,N/A,N/A,N/A,N/A,26,93.80%,$1566,35.20%,N/A,N/A,N/A,4.20%,N/A,Kane County,51.90%,41.40%,0.9%,0.8%,93.0%,4.3%,N/A,Central Standard Time,85,31,54,38,120,30,8.1,76,623,3.5,34.36,IL-10903,41.9403958,-88.432666,52%,65%,39%,60%,56%,38.4
Campton Hills,Illinois,10962,649,Chicago-Naperville-Elgin,9406638,$173503,55.86%,43,$533000,3011,$177,32,95.05%,$2592,30.91%,8,62,2.86%,6.24%,70.29%,Kane County,51.90%,41.40%,2.34%,1.08%,90.93%,1.98%,3.53%,Central Standard Time,85,31,54,38,120,30,8.1,76,623,3.5,16.89,IL-10906,41.9498075,-88.4165971,52%,65%,39%,60%,56%,38.4
Carbon Hill,Illinois,386,2144,Chicago-Naperville-Elgin,9406638,$66250,10.17%,31,$140000,1707,$82,49,65.28%,$1054,36.8%,N/A,N/A,7.07%,4.68%,65.27%,Grundy County,34.70%,57.90%,0.0%,0.0%,90.93%,8.81%,0.26%,Central Standard Time,85,31,54,37,110,22,8.1,79,623,3.5,0.18,IL-11176,41.296977,-88.2998925,52%,65%,39%,60%,56%,38.4
Carol Stream,Illinois,39447,4325,Chicago-Naperville-Elgin,9406638,$89820,41.06%,40,$308000,1656,$186,36,71.01%,$1291,45.13%,73,1040,8.05%,5.62%,70.58%,DuPage County,53.10%,38.60%,20.6%,7.23%,54.59%,15.21%,26.81%,Central Standard Time,85,31,54,38,119,31,8.1,64,623,3.4,9.12,IL-11332,41.9181638,-88.1307503,52%,65%,39%,60%,56%,38.4
Carpentersville,Illinois,37618,4774,Chicago-Naperville-Elgin,9406638,$73105,20.41%,32,$247000,1534,$161,41,70.95%,$1270,49.12%,55,1006,12.01%,6.26%,73.87%,Kane County,51.90%,41.40%,8.56%,7.66%,31.51%,50.98%,29.68%,Central Standard Time,84,30,54,38,120,33,8.1,71,623,3.5,7.88,IL-11358,42.1226534,-88.2897555,52%,65%,39%,60%,56%,38.4
Cary,Illinois,17926,2877,Chicago-Naperville-Elgin,9406638,$105344,47.48%,39,$318000,2065,$154,34,88.54%,$1286,43.29%,45,778,3.37%,4.34%,78.52%,McHenry County,42.20%,49.80%,1.11%,0.23%,85.81%,9.25%,6.77%,Central Standard Time,82,28,54,37,120,38,8.1,73,623,3.4,6.23,IL-11592,42.212836,-88.2494103,52%,65%,39%,60%,56%,38.4
Channahon,Illinois,13281,850,Chicago-Naperville-Elgin,9406638,$99429,30.57%,38,$371000,2541,$146,24,86.95%,$1518,33.34%,53,600,4.3%,5.92%,69.14%,Will County,49.90%,43.60%,0.34%,2.55%,83.04%,14.24%,2.15%,Central Standard Time,84,31,53,37,119,24,8.1,73,623,3.7,15.62,IL-12476,41.421102,-88.2599202,52%,65%,39%,60%,56%,38.4
Channahon township,Illinois,13281,850,Chicago-Naperville-Elgin,9406638,$99429,30.57%,38,$371000,2541,$146,24,86.95%,$1518,33.34%,53,600,4.3%,5.92%,69.14%,Will County,49.90%,43.60%,0.34%,2.55%,83.04%,14.24%,2.15%,Central Standard Time,85,31,54,37,119,24,8.1,74,623,3.7,15.62,IL-12476,41.421102,-88.2599202,52%,65%,39%,60%,56%,38.4
Channel Lake,Illinois,1784,991,Chicago-Naperville-Elgin,9406638,$51875,20.11%,38,$245000,1084,$226,61,81.67%,$1308,59.31%,N/A,N/A,21.08%,5.47%,61.41%,Lake County,56.40%,36.20%,0.56%,0.0%,88.28%,5.44%,2.91%,Central Standard Time,82,29,53,36,116,41,8.1,76,623,3.7,1.8,IL-12489,42.4825828,-88.1487668,53%,66%,44%,63%,61%,34.2
Chemung CDP,Illinois,738,2636,Chicago-Naperville-Elgin,9406638,$38750,0.0%,42,$143000,1430,$100,50,59.76%,N/A,46.88%,N/A,N/A,46.34%,0.0%,47.75%,McHenry County,42.20%,49.80%,0.0%,0.0%,36.04%,63.96%,28.32%,Central Standard Time,84,29,55,36,115,32,8.1,81,623,3.4,0.28,IL-12879,42.4162008,-88.6641601,52%,64%,45%,60%,57%,40.5
Chemung township,Illinois,738,2636,Chicago-Naperville-Elgin,9406638,$38750,0.0%,42,$143000,1430,$100,50,59.76%,N/A,46.88%,N/A,N/A,46.34%,0.0%,47.75%,McHenry County,42.20%,49.80%,0.0%,0.0%,36.04%,63.96%,28.32%,Central Standard Time,84,29,55,36,115,32,8.1,77,623,3.4,0.28,IL-12879,42.4162008,-88.6641601,52%,64%,45%,60%,57%,40.5
Chicago,Illinois,2699347,11853,Chicago-Naperville-Elgin,9406638,$62097,41.08%,35,$328000,1426,$230,69,50.21%,$1154,62.02%,943,2982,17.33%,8.1%,67.24%,Cook County,73.90%,20.80%,6.84%,29.22%,33.34%,28.63%,20.25%,Central Standard Time,84,32,52,38,125,35,8.1,48,623,3.6,227.73,IL-14000,41.837107,-87.6851202,52%,65%,39%,60%,56%,38.4
Chicago Heights,Illinois,29598,2879,Chicago-Naperville-Elgin,9406638,$49880,17.13%,35,$147000,1185,$124,63,61.41%,$918,63.41%,773,1954,24.35%,13.13%,61.37%,Cook County,73.90%,20.80%,0.17%,39.6%,21.16%,37.56%,14.78%,Central Standard Time,84,31,53,39,110,28,8.1,69,623,3.6,10.28,IL-14026,41.5100147,-87.6344967,52%,65%,39%,60%,56%,38.4
Chicago Ridge,Illinois,14028,6180,Chicago-Naperville-Elgin,9406638,$51555,22.13%,36,$195000,1283,$152,50,56.79%,$973,47.91%,121,2468,21.0%,7.02%,60.81%,Cook County,73.90%,20.80%,2.8%,7.63%,68.81%,14.47%,24.47%,Central Standard Time,84,33,51,39,124,33,8.1,51,623,3.6,2.27,IL-14065,41.7034149,-87.7794686,52%,65%,39%,60%,56%,38.4
Cicero town,Illinois,81471,13879,Chicago-Naperville-Elgin,9406638,$53726,9.84%,32,$282000,2000,$141,78,57.55%,$951,56.42%,317,1942,13.81%,4.7%,64.55%,Cook County,73.90%,20.80%,0.63%,3.79%,6.94%,88.85%,38.75%,Central Standard Time,84,33,51,39,124,34,8.1,56,623,3.6,5.87,IL-14351,41.844539,-87.7592897,52%,65%,39%,60%,56%,38.4
Clarendon Hills,Illinois,8834,4881,Chicago-Naperville-Elgin,9406638,$103486,79.75%,41,$410000,1633,$251,49,90.89%,$970,37.86%,56,498,8.61%,1.14%,68.88%,DuPage County,53.10%,38.60%,11.66%,0.36%,79.01%,6.02%,14.64%,Central Standard Time,84,31,53,39,120,31,8.1,59,623,3.4,1.81,IL-14572,41.7980534,-87.95685,52%,65%,39%,60%,56%,38.4
Clinton township,Illinois,1801,504,Chicago-Naperville-Elgin,9406638,$66300,N/A,N/A,N/A,N/A,N/A,53,76.00%,N/A,45.80%,174,2809,N/A,4.50%,N/A,DeKalb County,46.90%,43.80%,0.0%,0.2%,91.3%,5.4%,N/A,Central Standard Time,82,28,54,37,111,31,8.1,82,623,3.5,3.57,IL-14988,41.7617033,-88.7718014,52%,65%,39%,60%,56%,38.4
Coal City,Illinois,4941,879,Chicago-Naperville-Elgin,9406638,$75108,22.34%,38,$183000,1336,$137,40,77.88%,$970,49.66%,74,543,6.07%,6.19%,67.52%,Grundy County,34.70%,57.90%,0.55%,1.4%,91.86%,3.74%,1.92%,Central Standard Time,85,31,54,37,110,22,8.1,79,623,3.5,5.62,IL-15170,41.2772021,-88.280234,52%,65%,39%,60%,56%,38.4
Coral,Illinois,3490,87250,Chicago-Naperville-Elgin,9406638,$89293,33.34%,N/A,N/A,N/A,N/A,34,0.0%,N/A,0.0%,N/A,N/A,0.0%,0.0%,0.0%,McHenry County,42.20%,49.80%,0.0%,0.0%,0.0%,0.0%,0.0%,Central Standard Time,83,29,54,37,111,33,8.1,79,623,3.4,0.04,IL-16301,42.2179945,-88.5662034,52%,65%,39%,60%,56%,38.4
Cortland town,Illinois,4261,1167,Chicago-Naperville-Elgin,9406638,$74821,35.26%,30,$243000,1491,$163,20,75.26%,$1300,53.02%,45,984,4.53%,5.11%,81.28%,DeKalb County,46.90%,43.80%,0.94%,11.43%,71.72%,13.49%,6.59%,Central Standard Time,83,28,55,37,116,31,8.1,77,623,3.5,3.65,IL-16470,41.919331,-88.6532732,52%,65%,39%,60%,56%,38.4
Cortland township,Illinois,4261,1167,Chicago-Naperville-Elgin,9406638,$74821,35.26%,30,$243000,1491,$163,20,75.26%,$1300,53.02%,45,984,4.53%,5.11%,81.28%,DeKalb County,46.90%,43.80%,0.94%,11.43%,71.72%,13.49%,6.59%,Central Standard Time,83,28,55,37,116,31,8.1,74,623,3.5,3.65,IL-16470,41.919331,-88.6532732,52%,65%,39%,60%,56%,38.4
Country Club Hills,Illinois,16564,3333,Chicago-Naperville-Elgin,9406638,$70306,33.34%,41,$185000,1445,$128,42,80.41%,$1306,64.32%,266,3353,12.34%,13.93%,62.12%,Cook County,73.90%,20.80%,2.16%,88.43%,4.08%,4.44%,5.83%,Central Standard Time,84,32,52,39,117,28,8.1,44,623,3.6,4.97,IL-16691,41.563661,-87.7250311,52%,65%,39%,60%,56%,38.4
Countryside,Illinois,5929,2059,Chicago-Naperville-Elgin,9406638,$67201,32.79%,45,N/A,N/A,N/A,47,77.28%,$1053,55.73%,151,3038,6.79%,8.3%,69.96%,Cook County,73.90%,20.80%,1.94%,0.67%,69.27%,25.38%,21.42%,Central Standard Time,84,31,53,39,121,32,8.1,60,623,3.6,2.88,IL-16873,41.7742058,-87.8752224,52%,65%,39%,60%,56%,38.4
Crest Hill,Illinois,20388,2253,Chicago-Naperville-Elgin,9406638,$58462,19.29%,38,$231000,1417,$163,27,70.26%,$1170,62.72%,267,1071,11.98%,7.28%,52.62%,Will County,49.90%,43.60%,2.97%,24.67%,51.41%,19.24%,9.53%,Central Standard Time,84,31,53,39,125,28,8.1,68,623,3.7,9.05,IL-17458,41.5723694,-88.1123439,52%,65%,39%,60%,56%,38.4
Crestwood,Illinois,10762,3529,Chicago-Naperville-Elgin,9406638,$60541,25.12%,49,$175000,1167,$150,44,74.66%,$981,59.82%,N/A,N/A,11.01%,4.6%,56.53%,Cook County,73.90%,20.80%,4.12%,7.45%,77.62%,10.25%,9.41%,Central Standard Time,84,32,52,38,123,32,8.1,53,623,3.6,3.05,IL-17497,41.6453872,-87.7397,52%,65%,39%,60%,56%,38.4
Crete,Illinois,8058,856,Chicago-Naperville-Elgin,9406638,$75403,34.93%,49,$291000,2238,$130,44,90.76%,$1091,50.68%,234,1803,5.34%,7.29%,58.36%,Will County,49.90%,43.60%,0.43%,31.26%,57.43%,7.84%,3.8%,Central Standard Time,84,31,53,39,110,28,8.1,74,623,3.7,9.41,IL-17523,41.4400583,-87.6234673,52%,65%,39%,60%,56%,38.4
Crete township,Illinois,8058,856,Chicago-Naperville-Elgin,9406638,$75403,34.93%,49,$291000,2238,$130,44,90.76%,$1091,50.68%,234,1803,5.34%,7.29%,58.36%,Will County,49.90%,43.60%,0.43%,31.26%,57.43%,7.84%,3.8%,Central Standard Time,84,31,53,39,110,28,8.1,73,623,3.7,9.41,IL-17523,41.4400583,-87.6234673,52%,65%,39%,60%,56%,38.4
Crystal Lake,Illinois,39685,2098,Chicago-Naperville-Elgin,9406638,$91456,40.22%,40,$292000,1921,$152,33,79.93%,$1224,41.81%,112,1229,6.62%,4.68%,69.72%,McHenry County,42.20%,49.80%,3.46%,0.96%,81.01%,12.16%,9.36%,Central Standard Time,82,28,54,37,114,35,8.1,72,623,3.4,18.92,IL-17887,42.233276,-88.3350897,52%,65%,39%,60%,56%,38.4
Crystal Lawns,Illinois,1943,2944,Chicago-Naperville-Elgin,9406638,$90550,16.8%,39,$240000,1805,$133,54,93.88%,$1331,45.17%,N/A,N/A,7.46%,6.06%,72.14%,Will County,49.90%,43.60%,1.08%,9.21%,66.7%,26.04%,8.9%,Central Standard Time,84,31,53,39,125,28,8.1,64,623,3.7,0.66,IL-17939,41.5685313,-88.1639134,52%,65%,39%,60%,56%,38.4
Cuba township,Illinois,16730,30981,Chicago-Naperville-Elgin,9406638,$102619,N/A,N/A,N/A,N/A,N/A,39,82.00%,N/A,35.80%,N/A,N/A,N/A,3.80%,N/A,Lake County,56.40%,36.20%,4.0%,0.8%,88.6%,4.3%,N/A,Central Standard Time,83,30,53,38,124,37,8.1,73,623,3.7,0.54,IL-18004,42.1978512,-88.1600891,52%,65%,39%,60%,56%,38.4
Custer,Illinois,1265,49,Chicago-Naperville-Elgin,9406638,$61513,N/A,N/A,N/A,N/A,N/A,34,84.30%,N/A,30.60%,N/A,N/A,N/A,4.20%,N/A,Will County,49.90%,43.60%,0.9%,0.6%,93.9%,2.5%,N/A,Central Standard Time,84,31,53,37,123,24,8.1,81,623,3.7,25.82,IL-18199,41.2341811,-88.1325632,52%,65%,39%,60%,56%,38.4
Darien,Illinois,21843,3540,Chicago-Naperville-Elgin,9406638,$100771,53.89%,45,$348000,1723,$202,41,82.99%,$1472,43.64%,50,998,5.02%,4.9%,66.66%,DuPage County,53.10%,38.60%,13.14%,3.92%,73.36%,7.19%,19.32%,Central Standard Time,84,31,53,39,120,30,8.1,63,623,3.4,6.17,IL-18628,41.7447642,-87.982206,52%,65%,39%,60%,56%,38.4
Deer Park,Illinois,4005,1097,Chicago-Naperville-Elgin,9406638,$161422,65.03%,44,$484000,2782,$174,35,91.61%,$2337,31.8%,N/A,N/A,1.3%,1.8%,61.27%,Lake County,56.40%,36.20%,10.94%,0.3%,86.77%,1.07%,14.01%,Central Standard Time,83,30,53,38,124,38,8.1,69,623,3.7,3.65,IL-19083,42.1654541,-88.0863874,52%,65%,39%,60%,56%,38.4
Deerfield,Illinois,19030,3441,Chicago-Naperville-Elgin,9406638,$162064,82.29%,44,$570000,2426,$235,51,85.01%,$1889,32.1%,37,695,2.7%,3.09%,68.6%,Lake County,56.40%,36.20%,5.65%,0.41%,87.03%,5.24%,9.76%,Central Standard Time,83,32,51,36,125,36,8.1,61,623,3.7,5.53,IL-18992,42.165392,-87.8515615,52%,65%,39%,60%,56%,38.4
DeKalb,Illinois,42961,2660,Chicago-Naperville-Elgin,9406638,$44223,38.03%,25,$188000,1333,$141,42,44.32%,$889,68.88%,577,3026,26.44%,9.16%,67.72%,DeKalb County,46.90%,43.80%,3.7%,13.64%,63.0%,15.35%,9.18%,Central Standard Time,83,28,55,37,116,29,8.1,71,623,3.5,16.15,IL-19161,41.9313634,-88.7481869,52%,65%,39%,60%,56%,38.4
DeKalb township,Illinois,42961,2660,Chicago-Naperville-Elgin,9406638,$44223,38.03%,25,$188000,1333,$141,42,44.32%,$889,68.88%,577,3026,26.44%,9.16%,67.72%,DeKalb County,46.90%,43.80%,3.7%,13.64%,63.0%,15.35%,9.18%,Central Standard Time,83,28,55,37,116,29,8.1,71,623,3.5,16.15,IL-19161,41.9313634,-88.7481869,52%,65%,39%,60%,56%,38.4
Des Plaines,Illinois,58316,4095,Chicago-Naperville-Elgin,9406638,$73639,38.27%,43,$312000,1552,$201,54,79.77%,$1167,46.72%,94,1101,7.94%,4.22%,66.45%,Cook County,73.90%,20.80%,13.04%,2.95%,63.55%,17.99%,30.54%,Central Standard Time,84,31,53,36,125,36,8.1,33,623,3.6,14.24,IL-19642,42.034481,-87.9008515,52%,65%,39%,60%,56%,38.4
Diamond,Illinois,2786,1466,Chicago-Naperville-Elgin,9406638,$51019,16.58%,37,$216000,1532,$141,26,76.45%,$1085,47.62%,0,0,10.99%,1.56%,66.64%,Grundy County,34.70%,57.90%,0.22%,0.0%,95.05%,3.73%,0.5%,Central Standard Time,85,31,54,37,110,22,8.1,79,623,3.5,1.9,IL-19837,41.2852242,-88.2507004,52%,65%,39%,60%,56%,38.4
Dixmoor,Illinois,3570,2856,Chicago-Naperville-Elgin,9406638,$44757,9.67%,30,$132000,2237,$59,54,48.82%,$1009,60.63%,N/A,N/A,26.86%,9.87%,63.99%,Cook County,73.90%,20.80%,0.0%,45.1%,7.0%,48.57%,9.36%,Central Standard Time,84,32,52,38,124,32,8.1,60,623,3.6,1.25,IL-20149,41.6329507,-87.6672326,52%,65%,39%,60%,56%,38.4
Dolton,Illinois,22487,4921,Chicago-Naperville-Elgin,9406638,$50237,18.17%,37,$153000,1719,$89,56,62.71%,$1320,69.39%,N/A,N/A,22.07%,15.63%,59.93%,Cook County,73.90%,20.80%,0.23%,92.12%,4.31%,1.06%,2.09%,Central Standard Time,84,32,52,38,124,32,8.1,65,623,3.6,4.57,IL-20292,41.6283609,-87.5978714,52%,65%,39%,60%,56%,38.4
Dorr,Illinois,21150,588,Chicago-Naperville-Elgin,9406638,$60915,30.85%,N/A,N/A,N/A,N/A,39,57.80%,N/A,49.80%,N/A,N/A,N/A,3.50%,N/A,McHenry County,42.20%,49.80%,1.4%,2.2%,74.7%,20.1%,N/A,Central Standard Time,82,29,53,37,112,32,8.1,72,623,3.4,35.97,IL-20396,42.2841035,-88.41361,52%,65%,39%,60%,56%,38.4
Downers Grove,Illinois,49263,3365,Chicago-Naperville-Elgin,9406638,$97197,58.65%,43,$400000,2020,$198,47,80.08%,$1364,44.13%,93,1480,4.97%,4.1%,66.06%,DuPage County,53.10%,38.60%,5.27%,3.39%,84.32%,5.04%,10.33%,Central Standard Time,84,31,53,39,120,30,8.1,60,623,3.4,14.64,IL-20591,41.7948752,-88.0171449,52%,65%,39%,60%,56%,38.4
Downers Grove township,Illinois,49263,3365,Chicago-Naperville-Elgin,9406638,$97197,58.65%,43,$400000,2020,$198,47,80.08%,$1364,44.13%,93,1480,4.97%,4.1%,66.06%,DuPage County,53.10%,38.60%,5.27%,3.39%,84.32%,5.04%,10.33%,Central Standard Time,84,31,53,39,120,31,8.1,61,623,3.4,14.64,IL-20591,41.7948752,-88.0171449,52%,65%,39%,60%,56%,38.4
Du Page,Illinois,88695,2446,Chicago-Naperville-Elgin,9406638,$76240,36.69%,N/A,N/A,N/A,N/A,35,77.40%,N/A,43.70%,N/A,N/A,N/A,4.20%,N/A,Will County,49.90%,43.60%,10.3%,15.2%,45.8%,25.2%,N/A,Central Standard Time,84,31,53,39,123,30,8.1,64,623,3.7,36.26,IL-21241,41.6837677,-88.0878166,52%,65%,39%,60%,56%,38.4
Dundee,Illinois,65622,1873,Chicago-Naperville-Elgin,9406638,$71466,30.53%,N/A,N/A,N/A,N/A,32,71.90%,$1656,43.40%,N/A,N/A,N/A,4.20%,N/A,Kane County,51.90%,41.40%,7.6%,5.1%,51.5%,34.8%,N/A,Central Standard Time,84,30,54,38,120,33,8.1,72,623,3.5,35.04,IL-21046,42.1103598,-88.296497,52%,65%,39%,60%,56%,38.4
Dunham,Illinois,2791,78,Chicago-Naperville-Elgin,9406638,$57961,10.18%,N/A,N/A,N/A,N/A,30,59.10%,N/A,35.10%,N/A,N/A,N/A,3.50%,N/A,McHenry County,42.20%,49.80%,0.0%,0.0%,56.8%,42.7%,N/A,Central Standard Time,84,29,55,36,114,32,8.1,81,623,3.4,35.78,IL-21111,42.3713369,-88.6473164,53%,66%,44%,63%,61%,34.2
Dwight,Illinois,3817,1157,Chicago-Naperville-Elgin,9406638,$56543,16.85%,41,$205000,1952,$105,58,75.73%,$750,52.25%,100,1009,15.41%,4.74%,58.34%,Livingston County,26.20%,66.50%,0.0%,0.55%,88.97%,7.13%,0.68%,Central Standard Time,84,31,53,37,103,24,8.1,64,623,3.6,3.3,IL-21358,41.0983967,-88.4248584,52%,65%,39%,60%,56%,38.4
East Dundee,Illinois,3211,1131,Chicago-Naperville-Elgin,9406638,$73199,31.98%,52,$275000,1884,$146,37,79.91%,$1156,49.98%,61,1174,10.43%,4.37%,66.7%,Kane County,51.90%,41.40%,2.93%,5.39%,72.44%,18.22%,15.32%,Central Standard Time,84,30,54,38,120,33,8.1,72,623,3.5,2.84,IL-21696,42.0972413,-88.254473,52%,65%,39%,60%,56%,38.4
East Hazel Crest,Illinois,1509,1935,Chicago-Naperville-Elgin,9406638,$50583,24.86%,46,$125000,1389,$90,53,57.19%,$1191,62.4%,132,3516,9.01%,12.34%,60.57%,Cook County,73.90%,20.80%,0.27%,63.55%,20.87%,14.12%,6.16%,Central Standard Time,84,32,52,39,123,31,8.1,60,623,3.6,0.78,IL-21904,41.5757983,-87.6502726,52%,65%,39%,60%,56%,38.4
Ela,Illinois,43646,1269,Chicago-Naperville-Elgin,9406638,$124363,62.03%,N/A,N/A,N/A,N/A,32,85.60%,$1362,34.40%,N/A,N/A,N/A,3.80%,N/A,Lake County,56.40%,36.20%,9.3%,1.0%,81.1%,7.0%,N/A,Central Standard Time,83,30,53,38,124,38,8.1,69,623,3.7,34.39,IL-22853,42.1973162,-88.0625531,52%,65%,39%,60%,56%,38.4
Elburn,Illinois,5559,1540,Chicago-Naperville-Elgin,9406638,$95717,47.26%,36,$370000,1937,$191,22,87.98%,$1422,51.91%,16,335,4.64%,2.1%,73.54%,Kane County,51.90%,41.40%,0.74%,1.82%,84.55%,10.16%,1.17%,Central Standard Time,84,30,54,38,120,30,8.1,76,623,3.5,3.61,IL-22931,41.8851848,-88.4605142,52%,65%,39%,60%,56%,38.4
Elgin,Illinois,112062,2947,Chicago-Naperville-Elgin,9406638,$72999,25.08%,35,$275000,1719,$160,43,69.79%,$1087,47.87%,198,1274,10.49%,6.37%,68.6%,Kane County,51.90%,41.40%,4.79%,5.4%,40.04%,47.11%,26.0%,Central Standard Time,85,31,54,38,121,33,8.1,67,623,3.5,38.03,IL-23074,42.0383424,-88.3240001,52%,65%,39%,60%,56%,38.4
Elgin township,Illinois,112062,2947,Chicago-Naperville-Elgin,9406638,$72999,25.08%,35,$275000,1719,$160,43,69.79%,$1087,47.87%,198,1274,10.49%,6.37%,68.6%,Kane County,51.90%,41.40%,4.79%,5.4%,40.04%,47.11%,26.0%,Central Standard Time,84,30,54,38,120,33,8.1,68,623,3.5,38.03,IL-23074,42.0383424,-88.3240001,52%,65%,39%,60%,56%,38.4
Elk Grove Village,Illinois,32450,2788,Chicago-Naperville-Elgin,9406638,$85240,37.37%,44,$305000,1540,$198,46,76.24%,$1307,41.67%,92,1396,3.96%,4.19%,66.98%,Cook County,73.90%,20.80%,10.9%,2.45%,73.41%,11.71%,22.54%,Central Standard Time,84,31,53,36,127,36,8.1,57,623,3.6,11.64,IL-23256,42.0064053,-87.9921516,52%,65%,39%,60%,56%,38.4
Elmhurst,Illinois,46571,4557,Chicago-Naperville-Elgin,9406638,$123869,61.35%,41,$658000,2325,$283,58,85.93%,$1490,40.64%,74,1020,3.41%,4.66%,67.74%,DuPage County,53.10%,38.60%,6.16%,1.54%,81.7%,7.67%,9.62%,Central Standard Time,84,31,53,38,121,31,8.1,44,623,3.4,10.22,IL-23620,41.8973381,-87.9432107,52%,65%,39%,60%,56%,38.4
Elmwood Park,Illinois,24274,12709,Chicago-Naperville-Elgin,9406638,$63312,26.79%,40,$301000,1584,$190,65,63.82%,$1191,49.38%,268,1108,6.58%,4.45%,67.86%,Cook County,73.90%,20.80%,4.46%,2.2%,57.86%,34.16%,26.43%,Central Standard Time,84,32,52,38,125,37,8.1,55,623,3.6,1.91,IL-23724,41.9224591,-87.816321,52%,65%,39%,60%,56%,38.4
Elwood,Illinois,2524,185,Chicago-Naperville-Elgin,9406638,$81250,14.1%,41,$263000,1801,$146,28,89.5%,$875,46.62%,132,1063,8.95%,4.54%,70.04%,Will County,49.90%,43.60%,0.55%,0.75%,87.92%,10.46%,1.07%,Central Standard Time,84,31,53,37,122,27,8.1,77,623,3.7,13.64,IL-23945,41.3996234,-88.126199,52%,65%,39%,60%,56%,38.4
Erienna,Illinois,2502,120,Chicago-Naperville-Elgin,9406638,$97500,N/A,N/A,N/A,N/A,N/A,21,89.90%,N/A,39.70%,N/A,N/A,N/A,4.80%,N/A,Grundy County,34.70%,57.90%,1.1%,0.6%,97.2%,0.9%,N/A,Central Standard Time,85,31,54,38,118,22,8.1,67,623,3.5,20.85,IL-24400,41.3488117,-88.5294708,52%,65%,39%,60%,56%,38.4
Evanston,Illinois,73979,9509,Chicago-Naperville-Elgin,9406638,$82335,67.1%,36,$399000,1571,$254,71,60.81%,$1433,56.46%,155,2615,11.73%,5.01%,62.38%,Cook County,73.90%,20.80%,9.24%,16.5%,58.29%,11.83%,18.03%,Central Standard Time,83,32,51,36,125,36,8.1,60,623,3.6,7.78,IL-24582,42.0463447,-87.6939447,52%,65%,39%,60%,56%,38.4
Evergreen Park,Illinois,19290,6104,Chicago-Naperville-Elgin,9406638,$79396,35.95%,41,$245000,1433,$171,65,81.42%,$1160,48.47%,321,4371,5.77%,3.18%,66.28%,Cook County,73.90%,20.80%,1.12%,27.77%,53.9%,15.59%,8.93%,Central Standard Time,84,33,51,39,124,32,8.1,55,623,3.6,3.16,IL-24634,41.7212753,-87.7013341,52%,65%,39%,60%,56%,38.4
Felix,Illinois,4353,400,Chicago-Naperville-Elgin,9406638,$60238,16.52%,N/A,N/A,N/A,N/A,39,65.10%,N/A,43.90%,N/A,N/A,N/A,4.80%,N/A,Grundy County,34.70%,57.90%,1.1%,1.7%,90.4%,4.4%,N/A,Central Standard Time,85,31,54,37,111,22,8.1,79,623,3.5,10.88,IL-25778,41.309538,-88.2859262,52%,65%,39%,60%,56%,38.4
Florence township (Will Cnty),Illinois,1013,3618,Chicago-Naperville-Elgin,9406638,$74306,N/A,N/A,N/A,N/A,N/A,22,82.30%,N/A,49.20%,N/A,N/A,N/A,4.20%,N/A,Will County,49.90%,43.60%,0.0%,0.0%,86.1%,13.9%,N/A,Central Standard Time,84,31,53,37,123,24,8.1,80,623,3.7,0.28,IL-26519,41.3356648,-88.0750307,52%,65%,39%,60%,56%,38.4
Flossmoor,Illinois,9318,2546,Chicago-Naperville-Elgin,9406638,$107271,64.78%,45,$279000,2364,$118,53,84.83%,$2187,38.98%,N/A,N/A,9.96%,14.2%,63.88%,Cook County,73.90%,20.80%,1.73%,64.58%,30.61%,2.18%,6.28%,Central Standard Time,84,32,52,39,117,28,8.1,68,623,3.6,3.66,IL-26571,41.5391189,-87.6856864,52%,65%,39%,60%,56%,38.4
Ford Heights,Illinois,2705,1387,Chicago-Naperville-Elgin,9406638,$37083,6.22%,39,N/A,N/A,N/A,55,44.44%,$849,80.61%,N/A,N/A,37.78%,22.58%,51.07%,Cook County,73.90%,20.80%,0.0%,91.13%,1.33%,2.26%,0.0%,Central Standard Time,84,31,53,39,110,28,8.1,71,623,3.6,1.95,IL-26710,41.5108978,-87.5814315,52%,65%,39%,60%,56%,38.4
Forest Lake,Illinois,1292,3691,Chicago-Naperville-Elgin,9406638,$87232,35.55%,50,$262000,1379,$190,27,92.96%,$1362,34.69%,N/A,N/A,3.02%,6.24%,88.22%,Lake County,56.40%,36.20%,2.32%,5.42%,74.07%,23.61%,19.2%,Central Standard Time,83,30,53,38,124,38,8.1,72,623,3.7,0.35,IL-26896,42.2102586,-88.0531661,52%,65%,39%,60%,56%,38.4
Forest Park,Illinois,13808,5753,Chicago-Naperville-Elgin,9406638,$70670,51.68%,40,$213000,873,$244,64,55.49%,$1130,63.79%,N/A,N/A,9.11%,4.87%,72.72%,Cook County,73.90%,20.80%,5.66%,27.59%,52.14%,10.67%,9.07%,Central Standard Time,84,32,52,39,124,34,8.1,56,623,3.6,2.4,IL-26935,41.8683705,-87.8156628,52%,65%,39%,60%,56%,38.4
Forest View,Illinois,1312,1121,Chicago-Naperville-Elgin,9406638,$97321,19.09%,37,$240000,1101,$218,64,93.75%,$1636,36.75%,N/A,N/A,1.75%,3.08%,68.25%,Cook County,73.90%,20.80%,0.61%,0.0%,43.6%,55.03%,8.61%,Central Standard Time,84,33,51,39,124,34,8.1,43,623,3.6,1.17,IL-26987,41.8072535,-87.7795692,52%,65%,39%,60%,56%,38.4
Fox Lake,Illinois,10739,1372,Chicago-Naperville-Elgin,9406638,$62615,23.91%,46,$200000,1333,$150,44,72.48%,$1079,53.81%,N/A,N/A,9.85%,4.27%,65.27%,Lake County,56.40%,36.20%,1.26%,0.78%,86.93%,7.42%,5.72%,Central Standard Time,82,29,53,36,118,40,8.1,73,623,3.7,7.83,IL-27442,42.3993894,-88.182939,52%,65%,39%,60%,56%,38.4
Fox Lake Hills,Illinois,2125,1673,Chicago-Naperville-Elgin,9406638,$82548,24.14%,46,$296000,1617,$183,46,90.4%,$1425,29.04%,N/A,N/A,9.98%,3.43%,63.78%,Lake County,56.40%,36.20%,0.47%,1.41%,87.67%,9.79%,10.21%,Central Standard Time,82,30,52,36,116,43,8.1,74,623,3.7,1.27,IL-27455,42.412718,-88.127023,53%,66%,44%,63%,61%,34.2
Fox River Grove,Illinois,4639,2713,Chicago-Naperville-Elgin,9406638,$116442,46.8%,39,$272000,1689,$161,36,85.19%,$1551,36.62%,N/A,N/A,1.47%,5.65%,78.76%,McHenry County,42.20%,49.80%,3.56%,0.0%,81.22%,14.66%,11.21%,Central Standard Time,82,29,53,37,116,33,8.1,74,623,3.4,1.71,IL-27533,42.1954999,-88.2148004,52%,65%,39%,60%,56%,38.4
Fox township (Kendall Cnty),Illinois,1534,42,Chicago-Naperville-Elgin,9406638,$84306,N/A,N/A,N/A,N/A,N/A,24,73.20%,N/A,39.20%,N/A,N/A,N/A,3.80%,N/A,Kendall County,46.00%,46.20%,0.8%,0.3%,92.2%,6.5%,N/A,Central Standard Time,84,30,54,38,119,28,8.1,76,623,3.4,36.52,IL-27416,41.5891265,-88.5422636,52%,65%,39%,60%,56%,38.4
Frankfort,Illinois,19166,1214,Chicago-Naperville-Elgin,9406638,$140731,56.77%,42,$437000,2428,$180,23,96.35%,$1462,31.73%,N/A,N/A,2.57%,3.56%,68.59%,Will County,49.90%,43.60%,3.05%,7.18%,81.98%,5.74%,6.15%,Central Standard Time,84,31,53,41,116,28,8.1,68,623,3.7,15.79,IL-27624,41.4907505,-87.8289043,52%,65%,39%,60%,56%,38.4
Frankfort Square,Illinois,8831,3532,Chicago-Naperville-Elgin,9406638,$113170,34.92%,41,$350000,1724,$203,37,91.24%,$1319,36.59%,N/A,N/A,2.33%,7.46%,81.41%,Will County,49.90%,43.60%,0.85%,4.67%,82.14%,5.11%,3.32%,Central Standard Time,84,31,53,41,116,28,8.1,64,623,3.7,2.5,IL-27644,41.5219402,-87.8031358,52%,65%,39%,60%,56%,38.4
Frankfort township (Will Cnty),Illinois,19166,1214,Chicago-Naperville-Elgin,9406638,$140731,56.77%,42,$437000,2428,$180,23,96.35%,$1462,31.73%,N/A,N/A,2.57%,3.56%,68.59%,Will County,49.90%,43.60%,3.05%,7.18%,81.98%,5.74%,6.15%,Central Standard Time,84,31,53,40,120,29,8.1,66,623,3.7,15.79,IL-27624,41.4907505,-87.8289043,52%,65%,39%,60%,56%,38.4
Franklin Park,Illinois,17779,3727,Chicago-Naperville-Elgin,9406638,$67755,17.91%,37,$267000,1171,$228,64,75.9%,$942,52.66%,N/A,N/A,12.53%,6.1%,70.55%,Cook County,73.90%,20.80%,4.6%,0.47%,44.13%,50.93%,32.03%,Central Standard Time,84,32,52,38,125,37,8.1,45,623,3.6,4.77,IL-27702,41.935993,-87.8791945,52%,65%,39%,60%,56%,38.4
Franklin township,Illinois,2363,2847,Chicago-Naperville-Elgin,9406638,$58346,N/A,N/A,N/A,N/A,N/A,56,72.50%,N/A,49.00%,N/A,N/A,N/A,4.50%,N/A,DeKalb County,46.90%,43.80%,0.2%,0.0%,91.8%,5.6%,N/A,Central Standard Time,84,28,56,37,120,35,8.1,81,623,3.5,0.83,IL-27650,42.1092621,-88.880818,52%,65%,39%,60%,56%,38.4
Fremont,Illinois,32730,958,Chicago-Naperville-Elgin,9406638,$85375,47.74%,N/A,N/A,N/A,N/A,22,87.30%,N/A,36.50%,N/A,N/A,N/A,3.80%,N/A,Lake County,56.40%,36.20%,9.1%,2.5%,66.8%,19.6%,N/A,Central Standard Time,82,29,53,36,120,41,8.1,72,623,3.7,34.16,IL-27923,42.2844302,-88.0623585,52%,65%,39%,60%,56%,38.4
Gages Lake,Illinois,9939,3335,Chicago-Naperville-Elgin,9406638,$93837,41.13%,40,$230000,1337,$172,37,80.72%,$1476,46.91%,N/A,N/A,6.02%,8.92%,72.96%,Lake County,56.40%,36.20%,5.09%,6.87%,73.32%,9.64%,12.12%,Central Standard Time,82,30,52,36,119,43,8.1,72,623,3.7,2.98,IL-28248,42.3519156,-87.9828938,52%,65%,39%,60%,56%,38.4
Gardner,Illinois,1429,491,Chicago-Naperville-Elgin,9406638,$67441,15.03%,43,$203000,1269,$160,55,86.49%,$815,39.81%,N/A,N/A,6.16%,19.78%,70.08%,Grundy County,34.70%,57.90%,3.01%,0.0%,86.0%,10.85%,3.43%,Central Standard Time,84,31,53,37,109,22,8.1,82,623,3.5,2.91,IL-28638,41.1931289,-88.3145532,52%,65%,39%,60%,56%,38.4
Garfield,Illinois,1419,78,Chicago-Naperville-Elgin,9406638,$69183,12.10%,N/A,N/A,N/A,N/A,58,66.70%,N/A,42.60%,N/A,N/A,N/A,4.80%,N/A,Grundy County,34.70%,57.90%,2.0%,0.8%,93.7%,3.2%,N/A,Central Standard Time,84,31,53,37,109,22,8.1,82,623,3.5,18.19,IL-28677,41.1561348,-88.3289554,52%,65%,39%,60%,56%,38.4
Geneva,Illinois,21843,2202,Chicago-Naperville-Elgin,9406638,$116083,60.78%,40,$385000,1915,$201,33,84.37%,$1590,42.78%,N/A,N/A,3.69%,2.88%,67.6%,Kane County,51.90%,41.40%,2.62%,1.27%,87.18%,6.95%,5.49%,Central Standard Time,84,30,54,38,120,30,8.1,67,623,3.5,9.92,IL-28872,41.8832465,-88.3243608,52%,65%,39%,60%,56%,38.4
Geneva township,Illinois,21843,2202,Chicago-Naperville-Elgin,9406638,$116083,60.78%,40,$385000,1915,$201,33,84.37%,$1590,42.78%,N/A,N/A,3.69%,2.88%,67.6%,Kane County,51.90%,41.40%,2.62%,1.27%,87.18%,6.95%,5.49%,Central Standard Time,84,30,54,38,119,30,8.1,68,623,3.5,9.92,IL-28872,41.8832465,-88.3243608,52%,65%,39%,60%,56%,38.4
Genoa,Illinois,5092,1966,Chicago-Naperville-Elgin,9406638,$72795,15.71%,40,$214000,1408,$152,49,67.85%,$931,47.16%,N/A,N/A,8.8%,4.11%,68.95%,DeKalb County,46.90%,43.80%,0.29%,1.2%,84.41%,11.1%,5.77%,Central Standard Time,83,28,55,37,116,33,8.1,80,623,3.5,2.59,IL-28898,42.0926378,-88.6964203,52%,65%,39%,60%,56%,38.4
Genoa township,Illinois,5092,1966,Chicago-Naperville-Elgin,9406638,$72795,15.71%,40,$214000,1408,$152,49,67.85%,$931,47.16%,N/A,N/A,8.8%,4.11%,68.95%,DeKalb County,46.90%,43.80%,0.29%,1.2%,84.41%,11.1%,5.77%,Central Standard Time,83,28,55,37,116,33,8.1,80,623,3.5,2.59,IL-28898,42.0926378,-88.6964203,52%,65%,39%,60%,56%,38.4
Gilberts,Illinois,7941,1446,Chicago-Naperville-Elgin,9406638,$96420,39.32%,37,$270000,1849,$146,17,94.46%,$2151,32.26%,N/A,N/A,1.93%,2.16%,73.36%,Kane County,51.90%,41.40%,8.22%,0.18%,63.93%,22.83%,17.39%,Central Standard Time,84,30,54,38,120,33,8.1,76,623,3.5,5.49,IL-29171,42.109738,-88.3715371,52%,65%,39%,60%,56%,38.4
Glen Ellyn,Illinois,27741,4050,Chicago-Naperville-Elgin,9406638,$118208,68.9%,41,$420000,1527,$275,50,83.1%,$1109,37.75%,N/A,N/A,4.58%,4.24%,64.89%,DuPage County,53.10%,38.60%,7.69%,2.59%,81.85%,4.85%,10.93%,Central Standard Time,84,31,53,39,122,33,8.1,60,623,3.4,6.85,IL-29756,41.866689,-88.0629041,52%,65%,39%,60%,56%,38.4
Glencoe,Illinois,8836,2375,Chicago-Naperville-Elgin,9406638,$195600,84.05%,47,$1670000,4063,$411,65,96.17%,N/A,31.62%,N/A,N/A,1.57%,3.19%,51.6%,Cook County,73.90%,20.80%,4.23%,2.61%,91.48%,1.1%,9.4%,Central Standard Time,83,32,51,36,125,36,8.1,71,623,3.6,3.72,IL-29652,42.1347324,-87.764105,52%,65%,39%,60%,56%,38.4
Glendale Heights,Illinois,33863,6283,Chicago-Naperville-Elgin,9406638,$70034,28.3%,34,$240000,1290,$186,43,65.88%,$1316,48.51%,N/A,N/A,9.86%,5.17%,73.24%,DuPage County,53.10%,38.60%,22.73%,12.3%,30.75%,30.54%,35.72%,Central Standard Time,85,31,54,38,122,33,8.1,60,623,3.4,5.39,IL-29730,41.9194763,-88.0785111,52%,65%,39%,60%,56%,38.4
Glenview,Illinois,47218,3373,Chicago-Naperville-Elgin,9406638,$118019,66.59%,46,$578000,2181,$265,45,83.95%,$1810,38.19%,N/A,N/A,4.81%,3.12%,60.75%,Cook County,73.90%,20.80%,13.98%,1.3%,75.05%,6.88%,20.95%,Central Standard Time,83,32,51,36,125,36,8.1,56,623,3.6,14.0,IL-29938,42.0825039,-87.821469,52%,65%,39%,60%,56%,38.4
Glenwood,Illinois,8846,2713,Chicago-Naperville-Elgin,9406638,$64857,31.99%,38,$146000,1058,$138,51,80.71%,$1611,63.88%,N/A,N/A,11.35%,16.08%,63.45%,Cook County,73.90%,20.80%,0.29%,72.96%,17.19%,5.47%,3.0%,Central Standard Time,84,32,52,39,117,31,8.1,69,623,3.6,3.26,IL-30029,41.5410171,-87.6117619,52%,65%,39%,60%,56%,38.4
Godley,Illinois,691,640,Chicago-Naperville-Elgin,9406638,$42031,9.86%,43,N/A,N/A,N/A,27,66.43%,$879,60.88%,N/A,N/A,18.18%,9.57%,56.84%,Will County,49.90%,43.60%,0.0%,0.0%,96.67%,1.45%,0.43%,Central Standard Time,84,31,53,37,110,22,8.1,79,623,3.7,1.08,IL-30120,41.2384897,-88.2451586,52%,65%,39%,60%,56%,38.4
Golf,Illinois,521,1158,Chicago-Naperville-Elgin,9406638,$201875,73.5%,47,$455000,2528,$180,58,97.54%,N/A,28.4%,N/A,N/A,3.45%,4.7%,58.35%,Cook County,73.90%,20.80%,10.17%,3.45%,80.42%,5.76%,20.73%,Central Standard Time,83,32,51,36,125,36,8.1,53,623,3.6,0.45,IL-30328,42.058549,-87.7849405,52%,65%,39%,60%,56%,38.4
Goodfarm,Illinois,391,11,Chicago-Naperville-Elgin,9406638,$51250,21.84%,N/A,N/A,N/A,N/A,30,73.00%,N/A,37.80%,N/A,N/A,N/A,4.80%,N/A,Grundy County,34.70%,57.90%,9.2%,0.0%,58.8%,32.0%,N/A,Central Standard Time,84,31,53,37,106,23,8.1,81,623,3.5,35.55,IL-30432,41.1538042,-88.414703,52%,65%,39%,60%,56%,38.4
Goose Lake,Illinois,1330,53,Chicago-Naperville-Elgin,9406638,$72730,N/A,N/A,N/A,N/A,N/A,38,77.40%,N/A,32.70%,N/A,N/A,N/A,4.80%,N/A,Grundy County,34.70%,57.90%,2.3%,0.0%,95.7%,2.0%,N/A,Central Standard Time,85,31,54,37,117,23,8.1,79,623,3.5,25.09,IL-30549,41.3507828,-88.3140779,52%,65%,39%,60%,56%,38.4
Grafton township,Illinois,54844,14783,Chicago-Naperville-Elgin,9406638,$96622,N/A,N/A,$218000,1546,$141,17,85.10%,N/A,35.60%,N/A,N/A,N/A,3.50%,N/A,McHenry County,42.20%,49.80%,5.4%,2.0%,80.8%,10.5%,N/A,Central Standard Time,83,29,54,37,113,33,8.1,73,623,3.4,3.71,IL-30666,42.1972274,-88.4133336,52%,65%,39%,60%,56%,38.4
Grandwood Park,Illinois,5114,3527,Chicago-Naperville-Elgin,9406638,$127155,58.02%,42,$390000,2438,$160,29,92.51%,$1454,40.04%,N/A,N/A,1.9%,1.49%,74.72%,Lake County,56.40%,36.20%,13.45%,5.61%,69.16%,9.89%,14.31%,Central Standard Time,82,30,52,36,116,43,8.1,66,623,3.7,1.45,IL-30900,42.3927464,-87.9890284,52%,65%,39%,60%,56%,38.4
Grant township (Lake Cnty),Illinois,26713,1521,Chicago-Naperville-Elgin,9406638,$66508,N/A,N/A,N/A,N/A,N/A,31,67.90%,N/A,48.30%,N/A,N/A,N/A,3.80%,N/A,Lake County,56.40%,36.20%,2.7%,2.6%,78.7%,13.8%,N/A,Central Standard Time,82,29,53,36,118,41,8.1,74,623,3.7,17.56,IL-30952,42.3705723,-88.1606962,52%,65%,39%,60%,56%,38.4
Grayslake,Illinois,20482,1879,Chicago-Naperville-Elgin,9406638,$99583,55.53%,38,$258000,1602,$161,27,77.13%,$1153,42.63%,N/A,N/A,7.74%,7.75%,73.2%,Lake County,56.40%,36.20%,4.73%,5.81%,73.38%,11.77%,11.67%,Central Standard Time,82,30,52,36,120,43,8.1,71,623,3.7,10.9,IL-31121,42.340427,-88.0338246,52%,65%,39%,60%,56%,38.4
Green Garden,Illinois,4023,110,Chicago-Naperville-Elgin,9406638,$107725,N/A,N/A,N/A,N/A,N/A,18,90.10%,N/A,35.70%,N/A,N/A,N/A,4.20%,N/A,Will County,49.90%,43.60%,0.7%,1.0%,90.2%,8.1%,N/A,Central Standard Time,84,31,53,41,116,28,8.1,74,623,3.7,36.57,IL-31394,41.4263,-87.8453173,52%,65%,39%,60%,56%,38.4
Green Oaks,Illinois,3882,973,Chicago-Naperville-Elgin,9406638,$119625,56.86%,50,$400000,1770,$226,33,86.67%,$742,41.1%,N/A,N/A,6.29%,4.86%,55.15%,Lake County,56.40%,36.20%,8.06%,3.01%,77.05%,9.71%,11.75%,Central Standard Time,81,30,51,36,119,38,8.1,67,623,3.7,3.99,IL-31446,42.2954778,-87.9115487,52%,65%,39%,60%,56%,38.4
Greenfield township,Illinois,1210,708,Chicago-Naperville-Elgin,9406638,$61406,N/A,N/A,N/A,N/A,N/A,63,72.80%,N/A,34.10%,N/A,N/A,N/A,4.80%,N/A,Grundy County,34.70%,57.90%,0.0%,0.0%,92.7%,6.9%,N/A,Central Standard Time,84,31,53,37,109,22,8.1,82,623,3.5,1.71,IL-31381,41.1573947,-88.2712981,52%,65%,39%,60%,56%,38.4
Greenwood,Illinois,352,134,Chicago-Naperville-Elgin,9406638,$99167,22.81%,44,N/A,N/A,N/A,55,62.78%,$1264,60.67%,N/A,N/A,14.77%,0.97%,71.53%,McHenry County,42.20%,49.80%,0.28%,0.0%,89.77%,9.94%,2.56%,Central Standard Time,83,29,54,37,112,33,8.1,81,623,3.4,2.63,IL-31667,42.3953804,-88.3835744,53%,66%,44%,63%,61%,34.2
Greenwood township (McHenry Cnty),Illinois,352,134,Chicago-Naperville-Elgin,9406638,$99167,22.81%,44,N/A,N/A,N/A,55,62.78%,$1264,60.67%,N/A,N/A,14.77%,0.97%,71.53%,McHenry County,42.20%,49.80%,0.28%,0.0%,89.77%,9.94%,2.56%,Central Standard Time,83,29,54,36,112,33,8.1,78,623,3.4,2.63,IL-31667,42.3953804,-88.3835744,53%,66%,44%,63%,61%,34.2
Gurnee,Illinois,30519,2261,Chicago-Naperville-Elgin,9406638,$100892,55.44%,39,$305000,2007,$152,29,77.63%,$1252,44.08%,N/A,N/A,4.78%,5.37%,72.42%,Lake County,56.40%,36.20%,12.84%,7.75%,62.78%,13.94%,15.44%,Central Standard Time,81,30,51,36,116,43,8.1,62,623,3.7,13.5,IL-32018,42.3708419,-87.9391454,52%,65%,39%,60%,56%,38.4
Hainesville,Illinois,3595,1943,Chicago-Naperville-Elgin,9406638,$92396,43.04%,40,$319000,2085,$153,22,91.52%,$1349,44.5%,N/A,N/A,1.49%,4.09%,80.99%,Lake County,56.40%,36.20%,4.7%,1.95%,74.63%,17.97%,15.08%,Central Standard Time,82,29,53,36,121,43,8.1,70,623,3.7,1.85,IL-32200,42.3414779,-88.0686434,52%,65%,39%,60%,56%,38.4
Hampshire,Illinois,5909,621,Chicago-Naperville-Elgin,9406638,$99635,32.77%,39,$320000,2000,$160,21,72.06%,$1527,48.17%,N/A,N/A,7.24%,2.47%,68.41%,Kane County,51.90%,41.40%,2.69%,0.0%,90.93%,6.38%,2.18%,Central Standard Time,83,29,54,38,114,32,8.1,73,623,3.5,9.51,IL-32525,42.0914638,-88.505165,52%,65%,39%,60%,56%,38.4
Hampshire township,Illinois,5909,621,Chicago-Naperville-Elgin,9406638,$99635,32.77%,39,$320000,2000,$160,21,72.06%,$1527,48.17%,N/A,N/A,7.24%,2.47%,68.41%,Kane County,51.90%,41.40%,2.69%,0.0%,90.93%,6.38%,2.18%,Central Standard Time,83,29,54,38,114,32,8.1,73,623,3.5,9.51,IL-32525,42.0914638,-88.505165,52%,65%,39%,60%,56%,38.4
Hanover Park,Illinois,37811,5890,Chicago-Naperville-Elgin,9406638,$77367,27.35%,34,$233000,1253,$186,44,70.88%,$1320,46.68%,N/A,N/A,12.79%,5.63%,69.95%,Cook County,73.90%,20.80%,16.95%,7.97%,34.11%,38.32%,31.96%,Central Standard Time,85,31,54,38,121,33,8.1,62,623,3.6,6.42,IL-32746,41.9818119,-88.1445975,52%,65%,39%,60%,56%,38.4
Hanover township (Cook Cnty),Illinois,101074,90245,Chicago-Naperville-Elgin,9406638,$73970,N/A,N/A,N/A,N/A,N/A,32,74.10%,N/A,44.00%,N/A,N/A,N/A,4.20%,N/A,Cook County,73.90%,20.80%,13.9%,3.6%,43.7%,36.6%,N/A,Central Standard Time,85,31,54,38,121,33,8.1,66,623,3.6,1.12,IL-32694,42.0272785,-88.2041682,52%,65%,39%,60%,56%,38.4
Hartland,Illinois,156,488,Chicago-Naperville-Elgin,9406638,$65217,21.15%,90,$116000,1398,$83,37,100.0%,N/A,72.44%,N/A,N/A,0.0%,0.0%,0.0%,McHenry County,42.20%,49.80%,0.0%,0.0%,96.79%,3.21%,5.13%,Central Standard Time,83,29,54,37,113,32,8.1,81,623,3.4,0.32,IL-33292,42.3630765,-88.5085843,53%,66%,44%,63%,61%,34.2
Harvard,Illinois,9203,1101,Chicago-Naperville-Elgin,9406638,$51931,10.57%,28,$210000,1438,$146,37,52.8%,$993,52.83%,N/A,N/A,16.02%,10.4%,71.82%,McHenry County,42.20%,49.80%,0.23%,0.12%,46.78%,52.18%,19.67%,Central Standard Time,84,29,55,36,115,32,8.1,77,623,3.4,8.36,IL-33331,42.4296365,-88.6211169,53%,66%,44%,63%,61%,34.2
Harvey,Illinois,24295,3912,Chicago-Naperville-Elgin,9406638,$32635,11.2%,35,$75000,1136,$66,62,57.25%,$940,66.94%,N/A,N/A,31.08%,14.61%,60.02%,Cook County,73.90%,20.80%,2.01%,65.33%,3.83%,27.05%,14.85%,Central Standard Time,84,32,52,39,124,31,8.1,63,623,3.6,6.21,IL-33383,41.6075843,-87.6519907,52%,65%,39%,60%,56%,38.4
Harwood Heights,Illinois,8393,10112,Chicago-Naperville-Elgin,9406638,$67745,29.98%,40,$325000,1377,$236,55,69.33%,$1014,41.46%,N/A,N/A,10.33%,4.54%,69.13%,Cook County,73.90%,20.80%,10.78%,0.91%,72.61%,15.85%,46.43%,Central Standard Time,84,31,53,36,125,36,8.1,42,623,3.6,0.83,IL-33435,41.9663182,-87.8055909,52%,65%,39%,60%,56%,38.4
Hawthorn Woods,Illinois,8313,1033,Chicago-Naperville-Elgin,9406638,$206875,75.31%,43,$575000,3026,$190,24,99.45%,$1362,30.16%,N/A,N/A,1.5%,3.05%,70.74%,Lake County,56.40%,36.20%,14.48%,1.92%,78.65%,3.75%,22.33%,Central Standard Time,83,30,53,38,124,38,8.1,73,623,3.7,8.05,IL-33630,42.2356711,-88.067383,52%,65%,39%,60%,56%,38.4
Hebron,Illinois,1730,896,Chicago-Naperville-Elgin,9406638,$73523,16.78%,33,$210000,1280,$164,45,72.81%,$981,50.86%,N/A,N/A,8.79%,4.3%,71.26%,McHenry County,42.20%,49.80%,0.0%,1.1%,70.52%,27.63%,4.16%,Central Standard Time,84,29,55,36,120,36,8.1,78,623,3.4,1.93,IL-33851,42.4652349,-88.4344128,53%,66%,44%,63%,61%,34.2
Hebron township,Illinois,1730,896,Chicago-Naperville-Elgin,9406638,$73523,16.78%,33,$210000,1280,$164,45,72.81%,$981,50.86%,N/A,N/A,8.79%,4.3%,71.26%,McHenry County,42.20%,49.80%,0.0%,1.1%,70.52%,27.63%,4.16%,Central Standard Time,84,29,55,36,119,36,8.1,78,623,3.4,1.93,IL-33851,42.4652349,-88.4344128,53%,66%,44%,63%,61%,34.2
Hickory Hills,Illinois,14253,5019,Chicago-Naperville-Elgin,9406638,$66272,22.84%,37,$267000,1526,$175,50,75.21%,$997,43.7%,N/A,N/A,9.26%,4.16%,67.23%,Cook County,73.90%,20.80%,0.98%,3.87%,78.54%,15.58%,30.74%,Central Standard Time,84,32,52,39,124,32,8.1,56,623,3.6,2.84,IL-34514,41.7247783,-87.8280059,52%,65%,39%,60%,56%,38.4
Highland Park,Illinois,29596,2418,Chicago-Naperville-Elgin,9406638,$147067,75.62%,47,$572000,2487,$230,57,85.05%,$1666,31.29%,N/A,N/A,4.6%,4.14%,65.07%,Lake County,56.40%,36.20%,2.86%,0.76%,84.75%,8.94%,11.05%,Central Standard Time,83,32,51,36,125,36,8.1,66,623,3.7,12.24,IL-34722,42.1823204,-87.8103522,52%,65%,39%,60%,56%,38.4
Highland township,Illinois,330,49,Chicago-Naperville-Elgin,9406638,$55000,N/A,N/A,$188000,1757,$107,78,66.00%,N/A,37.50%,N/A,N/A,N/A,4.80%,N/A,Grundy County,34.70%,57.90%,0.0%,0.0%,98.5%,1.5%,N/A,Central Standard Time,84,31,53,38,105,24,8.1,81,623,3.5,6.75,IL-34657,41.1519627,-88.5290126,54%,65%,46%,61%,58%,47.8
Highwood,Illinois,5293,7351,Chicago-Naperville-Elgin,9406638,$74875,39.01%,35,$516000,2820,$183,68,38.25%,$1419,48.2%,N/A,N/A,16.2%,3.74%,73.59%,Lake County,56.40%,36.20%,0.93%,5.54%,50.27%,44.1%,29.25%,Central Standard Time,83,32,51,36,121,36,8.1,64,623,3.7,0.72,IL-34865,42.2060109,-87.8129394,52%,65%,39%,60%,56%,38.4
Hillside,Illinois,7937,2504,Chicago-Naperville-Elgin,9406638,$56019,22.73%,40,$150000,862,$174,61,69.57%,$1265,58.48%,N/A,N/A,5.53%,5.0%,60.76%,Cook County,73.90%,20.80%,0.94%,44.36%,19.54%,35.14%,16.68%,Central Standard Time,84,31,53,38,120,34,8.1,54,623,3.6,3.17,IL-35086,41.8675255,-87.9018384,52%,65%,39%,60%,56%,38.4
Hinckley,Illinois,2190,2576,Chicago-Naperville-Elgin,9406638,$70278,33.03%,37,$350000,2303,$152,49,73.61%,$1108,52.19%,N/A,N/A,8.86%,13.99%,74.07%,DeKalb County,46.90%,43.80%,1.55%,0.0%,89.5%,5.89%,2.74%,Central Standard Time,83,28,55,37,114,30,8.1,80,623,3.5,0.85,IL-35268,41.7714156,-88.6397208,52%,65%,39%,60%,56%,38.4
Hinsdale,Illinois,17366,3759,Chicago-Naperville-Elgin,9406638,$206701,81.36%,42,$845000,2894,$292,46,88.08%,$1816,31.4%,N/A,N/A,1.86%,2.87%,63.41%,DuPage County,53.10%,38.60%,13.41%,1.42%,77.81%,4.19%,15.01%,Central Standard Time,84,31,53,39,120,31,8.1,58,623,3.4,4.62,IL-35307,41.8006339,-87.9273194,52%,65%,39%,60%,56%,38.4
Hodgkins,Illinois,1753,647,Chicago-Naperville-Elgin,9406638,$54792,10.18%,38,N/A,N/A,N/A,25,85.45%,$941,60.7%,N/A,N/A,14.6%,7.26%,58.85%,Cook County,73.90%,20.80%,0.91%,3.76%,52.77%,42.56%,11.92%,Central Standard Time,84,31,53,39,121,32,8.1,61,623,3.6,2.71,IL-35385,41.7659719,-87.8612438,52%,65%,39%,60%,56%,38.4
Hoffman Estates,Illinois,50464,2395,Chicago-Naperville-Elgin,9406638,$92423,48.29%,38,$36000,1000,$36,44,73.26%,$1417,40.73%,N/A,N/A,4.28%,3.53%,69.27%,Cook County,73.90%,20.80%,26.61%,4.22%,48.33%,18.41%,31.64%,Central Standard Time,84,30,54,38,121,33,8.1,65,623,3.6,21.07,IL-35411,42.0639699,-88.1468062,52%,65%,39%,60%,56%,38.4
Holiday Hills,Illinois,653,702,Chicago-Naperville-Elgin,9406638,$74375,17.14%,49,N/A,N/A,N/A,49,73.97%,$1639,48.98%,N/A,N/A,8.47%,5.54%,61.6%,McHenry County,42.20%,49.80%,0.0%,0.0%,87.9%,9.04%,10.72%,Central Standard Time,82,29,53,36,118,40,8.1,77,623,3.4,0.93,IL-35515,42.2977726,-88.2292158,52%,65%,39%,60%,56%,38.4
Homer Glen,Illinois,24521,1108,Chicago-Naperville-Elgin,9406638,$108783,38.42%,44,$429000,2698,$159,32,94.47%,$1190,36.22%,N/A,N/A,3.35%,5.09%,67.02%,Will County,49.90%,43.60%,1.65%,0.57%,88.11%,7.93%,12.23%,Central Standard Time,84,31,53,40,125,30,8.1,70,623,3.7,22.13,IL-35835,41.6043593,-87.9496933,52%,65%,39%,60%,56%,38.4
Homer township,Illinois,39373,40177,Chicago-Naperville-Elgin,9406638,$90336,N/A,N/A,$182000,1556,$117,24,89.50%,N/A,39.00%,N/A,N/A,N/A,4.20%,N/A,Will County,49.90%,43.60%,1.7%,1.1%,89.3%,7.2%,N/A,Central Standard Time,84,31,53,39,125,30,8.1,70,623,3.7,0.98,IL-35827,41.599102,-87.968473,52%,65%,39%,60%,56%,38.4
Hometown,Illinois,4216,8783,Chicago-Naperville-Elgin,9406638,$51487,17.35%,38,$135000,776,$174,62,76.7%,$451,55.62%,N/A,N/A,6.0%,4.59%,65.61%,Cook County,73.90%,20.80%,0.78%,0.88%,65.99%,30.65%,11.69%,Central Standard Time,84,33,51,39,124,32,8.1,50,623,3.6,0.48,IL-35866,41.7312484,-87.7311338,52%,65%,39%,60%,56%,38.4
Homewood,Illinois,18656,3574,Chicago-Naperville-Elgin,9406638,$77013,42.14%,39,$230000,1513,$152,60,78.85%,$1162,47.29%,N/A,N/A,7.86%,3.86%,62.61%,Cook County,73.90%,20.80%,2.56%,45.65%,43.35%,5.46%,6.41%,Central Standard Time,84,32,52,39,123,31,8.1,65,623,3.6,5.22,IL-35879,41.559104,-87.6609609,52%,65%,39%,60%,56%,38.4
Huntley,Illinois,27413,1918,Chicago-Naperville-Elgin,9406638,$77420,36.81%,49,$346000,1739,$199,16,87.74%,$1278,39.93%,N/A,N/A,6.0%,2.86%,53.42%,McHenry County,42.20%,49.80%,4.95%,4.34%,79.22%,10.47%,8.84%,Central Standard Time,83,29,54,37,110,32,8.1,73,623,3.4,14.29,IL-36750,42.1599045,-88.4329895,52%,65%,39%,60%,56%,38.4
Indian Creek,Illinois,760,2815,Chicago-Naperville-Elgin,9406638,$124375,51.74%,46,N/A,N/A,N/A,20,72.47%,$2719,31.2%,N/A,N/A,9.87%,5.05%,68.76%,Lake County,56.40%,36.20%,33.29%,7.24%,51.58%,7.5%,34.74%,Central Standard Time,82,30,52,35,120,39,8.1,68,623,3.7,0.27,IL-37218,42.2272047,-87.9783592,52%,65%,39%,60%,56%,38.4
Indian Head Park,Illinois,3744,4026,Chicago-Naperville-Elgin,9406638,$88496,46.45%,55,$150000,932,$161,42,88.46%,$997,39.53%,N/A,N/A,2.96%,7.26%,51.93%,Cook County,73.90%,20.80%,2.24%,0.99%,82.08%,14.5%,10.74%,Central Standard Time,84,31,53,39,121,32,8.1,60,623,3.6,0.93,IL-37257,41.7689795,-87.8976878,52%,65%,39%,60%,56%,38.4
Ingalls Park,Illinois,3022,2723,Chicago-Naperville-Elgin,9406638,$53750,11.19%,38,$151000,926,$163,70,74.55%,$1038,57.68%,N/A,N/A,10.09%,12.34%,66.97%,Will County,49.90%,43.60%,0.83%,9.53%,51.75%,30.11%,10.79%,Central Standard Time,84,31,53,39,124,28,8.1,68,623,3.7,1.11,IL-37465,41.5204017,-88.0344589,52%,65%,39%,60%,56%,38.4
Island Lake,Illinois,8112,2421,Chicago-Naperville-Elgin,9406638,$83970,28.01%,41,$283000,1791,$158,30,77.96%,$1576,45.9%,N/A,N/A,8.49%,4.01%,70.03%,McHenry County,42.20%,49.80%,2.87%,0.2%,79.3%,16.52%,11.76%,Central Standard Time,82,29,53,36,118,40,8.1,74,623,3.4,3.35,IL-37894,42.2782004,-88.1997958,52%,65%,39%,60%,56%,38.4
Itasca,Illinois,9496,1892,Chicago-Naperville-Elgin,9406638,$99706,44.58%,48,$380000,1784,$213,44,76.06%,$1336,38.33%,N/A,N/A,4.07%,2.65%,74.83%,DuPage County,53.10%,38.60%,10.5%,1.93%,78.0%,8.44%,20.12%,Central Standard Time,84,31,53,38,122,33,8.1,56,623,3.4,5.02,IL-37907,41.9771732,-88.0183011,52%,65%,39%,60%,56%,38.4
Jackson township (Will Cnty),Illinois,4076,113,Chicago-Naperville-Elgin,9406638,$71950,N/A,N/A,N/A,N/A,N/A,33,89.40%,N/A,43.70%,N/A,N/A,N/A,4.20%,N/A,Will County,49.90%,43.60%,0.1%,5.3%,83.4%,9.0%,N/A,Central Standard Time,84,31,53,37,122,27,8.1,77,623,3.7,36.07,IL-38076,41.4228642,-88.0785603,52%,65%,39%,60%,56%,38.4
Johnsburg,Illinois,6354,887,Chicago-Naperville-Elgin,9406638,$116556,36.15%,41,$340000,1789,$190,27,90.75%,$1386,44.09%,N/A,N/A,8.62%,4.22%,70.12%,McHenry County,42.20%,49.80%,2.14%,0.6%,90.75%,2.83%,3.4%,Central Standard Time,82,29,53,36,118,40,8.1,77,623,3.4,7.16,IL-38479,42.3829369,-88.2473855,52%,65%,39%,60%,56%,38.4
Joliet,Illinois,147323,2283,Chicago-Naperville-Elgin,9406638,$72871,23.23%,34,$250000,1656,$151,40,74.06%,$1077,51.3%,N/A,N/A,10.48%,5.91%,70.37%,Will County,49.90%,43.60%,2.11%,16.72%,47.47%,31.58%,13.83%,Central Standard Time,84,31,53,39,125,28,8.1,66,623,3.7,64.52,IL-38570,41.5187711,-88.1497913,52%,65%,39%,60%,56%,38.4
Joliet township,Illinois,147323,2283,Chicago-Naperville-Elgin,9406638,$72871,23.23%,34,$250000,1656,$151,40,74.06%,$1077,51.3%,N/A,N/A,10.48%,5.91%,70.37%,Will County,49.90%,43.60%,2.11%,16.72%,47.47%,31.58%,13.83%,Central Standard Time,84,31,53,39,124,28,8.1,61,623,3.7,64.52,IL-38570,41.5187711,-88.1497913,52%,65%,39%,60%,56%,38.4
Justice,Illinois,12677,4464,Chicago-Naperville-Elgin,9406638,$57523,18.8%,32,$242000,1198,$202,44,48.59%,$1077,54.43%,N/A,N/A,18.77%,4.84%,70.75%,Cook County,73.90%,20.80%,5.48%,21.7%,55.81%,15.04%,26.7%,Central Standard Time,84,33,51,39,124,32,8.1,58,623,3.6,2.84,IL-38830,41.7494753,-87.8345152,52%,65%,39%,60%,56%,38.4
Kaneville,Illinois,518,1850,Chicago-Naperville-Elgin,9406638,$64688,26.63%,53,N/A,N/A,N/A,49,91.12%,$1146,48.39%,N/A,N/A,2.9%,4.06%,59.17%,Kane County,51.90%,41.40%,1.35%,1.16%,93.82%,2.7%,1.93%,Central Standard Time,84,30,54,38,120,30,8.1,79,623,3.5,0.28,IL-38895,41.833246,-88.5216415,52%,65%,39%,60%,56%,38.4
Kaneville township,Illinois,518,1850,Chicago-Naperville-Elgin,9406638,$64688,26.63%,53,N/A,N/A,N/A,49,91.12%,$1146,48.39%,N/A,N/A,2.9%,4.06%,59.17%,Kane County,51.90%,41.40%,1.35%,1.16%,93.82%,2.7%,1.93%,Central Standard Time,84,29,55,38,118,30,8.1,79,623,3.5,0.28,IL-38895,41.833246,-88.5216415,52%,65%,39%,60%,56%,38.4
Kendall,Illinois,8363,214,Chicago-Naperville-Elgin,9406638,$84597,37.66%,N/A,N/A,N/A,N/A,19,81.40%,N/A,31.30%,N/A,N/A,N/A,3.80%,N/A,Kendall County,46.00%,46.20%,3.2%,1.4%,82.3%,11.5%,N/A,Central Standard Time,84,30,54,38,123,30,8.1,76,623,3.4,39.08,IL-39454,41.5932114,-88.4282998,52%,65%,39%,60%,56%,38.4
Kenilworth,Illinois,2356,3862,Chicago-Naperville-Elgin,9406638,$241591,91.87%,44,$2148000,5579,$385,78,95.5%,$2846,28.94%,N/A,N/A,3.44%,4.81%,52.81%,Cook County,73.90%,20.80%,2.8%,0.0%,85.87%,5.77%,8.11%,Central Standard Time,83,32,51,36,125,36,8.1,67,623,3.6,0.61,IL-39519,42.0888177,-87.7144972,52%,65%,39%,60%,56%,38.4
Kildeer,Illinois,4007,947,Chicago-Naperville-Elgin,9406638,$212500,77.96%,43,$626000,3277,$191,33,99.25%,$1362,26.21%,N/A,N/A,2.55%,2.68%,71.36%,Lake County,56.40%,36.20%,17.52%,0.0%,76.24%,3.24%,21.06%,Central Standard Time,83,30,53,38,124,38,8.1,69,623,3.7,4.23,IL-39883,42.1830593,-88.0488161,52%,65%,39%,60%,56%,38.4
Kingston,Illinois,1183,1207,Chicago-Naperville-Elgin,9406638,$84375,13.37%,37,$387000,2449,$158,42,83.06%,$771,46.94%,N/A,N/A,5.84%,8.5%,77.75%,DeKalb County,46.90%,43.80%,0.0%,2.28%,81.91%,10.23%,2.28%,Central Standard Time,84,29,55,38,120,33,8.1,81,623,3.5,0.98,IL-40065,42.1008243,-88.7619695,52%,65%,39%,60%,56%,38.4
Kingston township,Illinois,1183,1207,Chicago-Naperville-Elgin,9406638,$84375,13.37%,37,$387000,2449,$158,42,83.06%,$771,46.94%,N/A,N/A,5.84%,8.5%,77.75%,DeKalb County,46.90%,43.80%,0.0%,2.28%,81.91%,10.23%,2.28%,Central Standard Time,84,29,55,37,119,33,8.1,81,623,3.5,0.98,IL-40065,42.1008243,-88.7619695,52%,65%,39%,60%,56%,38.4
Kinsman,Illinois,96,1371,Chicago-Naperville-Elgin,9406638,$81875,10.17%,30,N/A,N/A,N/A,78,84.38%,N/A,37.8%,N/A,N/A,2.08%,13.56%,71.95%,Grundy County,34.70%,57.90%,0.0%,0.0%,91.67%,8.33%,3.13%,Central Standard Time,84,31,53,38,104,24,8.1,81,623,3.5,0.07,IL-40143,41.190238,-88.5700239,54%,65%,46%,61%,58%,47.8
Kirkland,Illinois,1524,1239,Chicago-Naperville-Elgin,9406638,$63708,18.09%,35,N/A,N/A,N/A,44,75.39%,$945,52.44%,N/A,N/A,12.78%,10.35%,65.21%,DeKalb County,46.90%,43.80%,0.0%,0.0%,91.73%,5.91%,0.39%,Central Standard Time,84,28,56,37,120,35,8.1,81,623,3.5,1.23,IL-40156,42.0905265,-88.848994,52%,65%,39%,60%,56%,38.4
Knollwood,Illinois,1684,2761,Chicago-Naperville-Elgin,9406638,$126250,48.99%,38,N/A,N/A,N/A,49,69.25%,$1741,42.18%,N/A,N/A,2.99%,5.62%,53.02%,Lake County,56.40%,36.20%,0.48%,0.48%,76.31%,21.62%,5.52%,Central Standard Time,81,31,50,36,120,38,8.1,66,623,3.7,0.61,IL-40364,42.284584,-87.8793176,52%,65%,39%,60%,56%,38.4
La Grange,Illinois,15555,6148,Chicago-Naperville-Elgin,9406638,$122629,62.96%,42,$515000,1907,$270,68,87.51%,$1290,40.97%,N/A,N/A,3.61%,2.92%,63.04%,Cook County,73.90%,20.80%,0.61%,5.04%,84.05%,7.41%,4.9%,Central Standard Time,84,31,53,39,121,32,8.1,55,623,3.6,2.53,IL-40767,41.8072139,-87.874148,52%,65%,39%,60%,56%,38.4
La Grange Park,Illinois,13129,5887,Chicago-Naperville-Elgin,9406638,$107945,61.57%,40,$495000,2054,$241,64,77.98%,$1225,38.57%,N/A,N/A,5.06%,3.43%,64.62%,Cook County,73.90%,20.80%,2.54%,4.71%,80.49%,11.35%,7.74%,Central Standard Time,84,31,53,39,121,32,8.1,58,623,3.6,2.23,IL-40793,41.8307783,-87.8722729,52%,65%,39%,60%,56%,38.4
Lake Barrington,Illinois,5094,887,Chicago-Naperville-Elgin,9406638,$105651,64.02%,56,$370000,2056,$180,37,93.42%,$1565,43.02%,N/A,N/A,5.34%,5.33%,53.28%,Lake County,56.40%,36.20%,3.18%,0.27%,91.34%,3.51%,9.21%,Central Standard Time,83,30,53,38,124,38,8.1,74,623,3.7,5.74,IL-40884,42.212189,-88.1683405,52%,65%,39%,60%,56%,38.4
Lake Bluff,Illinois,5540,1358,Chicago-Naperville-Elgin,9406638,$174444,80.99%,45,$355000,1550,$229,49,92.64%,$2136,27.99%,N/A,N/A,3.21%,2.51%,58.9%,Lake County,56.40%,36.20%,6.68%,0.0%,85.81%,6.35%,9.12%,Central Standard Time,81,31,50,36,120,38,8.1,68,623,3.7,4.08,IL-40910,42.2825045,-87.8508605,52%,65%,39%,60%,56%,38.4
Lake Catherine,Illinois,1289,1416,Chicago-Naperville-Elgin,9406638,$78889,23.84%,48,$605000,1640,$369,63,63.32%,$1295,52.87%,N/A,N/A,2.17%,7.62%,59.26%,Lake County,56.40%,36.20%,0.0%,0.85%,89.68%,4.27%,1.86%,Central Standard Time,82,29,53,36,116,41,8.1,74,623,3.7,0.91,IL-40988,42.486719,-88.127387,53%,66%,44%,63%,61%,34.2
Lake Forest,Illinois,19497,1134,Chicago-Naperville-Elgin,9406638,$189118,81.24%,47,$974000,3466,$281,44,89.7%,$1627,40.71%,N/A,N/A,2.91%,3.28%,53.94%,Lake County,56.40%,36.20%,8.64%,1.28%,82.59%,3.55%,12.36%,Central Standard Time,82,31,51,35,121,38,8.1,71,623,3.7,17.2,IL-41105,42.2379966,-87.8594982,52%,65%,39%,60%,56%,38.4
Lake in the Hills,Illinois,28617,2806,Chicago-Naperville-Elgin,9406638,$96470,38.76%,35,$300000,1911,$157,25,83.58%,$1487,42.4%,N/A,N/A,5.2%,3.97%,77.25%,McHenry County,42.20%,49.80%,5.92%,2.81%,73.76%,15.16%,11.15%,Central Standard Time,82,29,53,38,114,33,8.1,72,623,3.4,10.2,IL-41183,42.1915358,-88.3156415,52%,65%,39%,60%,56%,38.4
Lake Villa,Illinois,8601,1319,Chicago-Naperville-Elgin,9406638,$105639,46.97%,38,$280000,1905,$147,25,77.88%,$1167,44.27%,N/A,N/A,3.33%,7.28%,71.24%,Lake County,56.40%,36.20%,6.52%,4.46%,74.7%,12.38%,12.35%,Central Standard Time,82,30,52,36,116,43,8.1,72,623,3.7,6.52,IL-41586,42.4184104,-88.0835469,53%,66%,44%,63%,61%,34.2
Lake Villa township,Illinois,8601,1319,Chicago-Naperville-Elgin,9406638,$105639,46.97%,38,$280000,1905,$147,25,77.88%,$1167,44.27%,N/A,N/A,3.33%,7.28%,71.24%,Lake County,56.40%,36.20%,6.52%,4.46%,74.7%,12.38%,12.35%,Central Standard Time,82,30,52,36,117,43,8.1,71,623,3.7,6.52,IL-41586,42.4184104,-88.0835469,53%,66%,44%,63%,61%,34.2
Lake Zurich,Illinois,19912,2898,Chicago-Naperville-Elgin,9406638,$113467,53.45%,39,$300000,1500,$200,36,85.78%,$1618,37.38%,N/A,N/A,3.86%,3.69%,74.12%,Lake County,56.40%,36.20%,7.88%,1.41%,83.25%,6.62%,17.78%,Central Standard Time,83,30,53,38,124,38,8.1,66,623,3.7,6.87,IL-41742,42.195603,-88.0869608,52%,65%,39%,60%,56%,38.4
Lakemoor,Illinois,5820,1106,Chicago-Naperville-Elgin,9406638,$80966,40.02%,35,$225000,1800,$125,23,72.08%,$1385,46.85%,N/A,N/A,5.27%,2.61%,72.31%,Lake County,56.40%,36.20%,6.94%,0.26%,86.94%,5.58%,5.7%,Central Standard Time,82,29,53,36,118,40,8.1,76,623,3.4,5.26,IL-41326,42.3395935,-88.2038058,52%,65%,39%,60%,56%,38.4
Lakewood,Illinois,4013,874,Chicago-Naperville-Elgin,9406638,$149583,59.25%,40,$600000,3093,$194,24,95.37%,$1249,36.27%,N/A,N/A,1.42%,0.53%,70.53%,McHenry County,42.20%,49.80%,2.87%,1.07%,91.18%,1.59%,7.2%,Central Standard Time,82,28,54,37,114,35,8.1,75,623,3.4,4.59,IL-41651,42.2279173,-88.3931528,52%,65%,39%,60%,56%,38.4
Lakewood Shores,Illinois,566,1617,Chicago-Naperville-Elgin,9406638,$66417,8.16%,34,N/A,N/A,N/A,60,62.37%,$1339,48.62%,N/A,N/A,22.61%,1.92%,60.61%,Will County,49.90%,43.60%,0.0%,0.0%,100.0%,0.0%,0.0%,Central Standard Time,84,31,53,37,123,24,8.1,79,623,3.7,0.35,IL-41716,41.2799137,-88.1442808,52%,65%,39%,60%,56%,38.4
Lansing,Illinois,27614,3702,Chicago-Naperville-Elgin,9406638,$57659,26.22%,40,$193000,1419,$136,53,69.7%,$1036,63.34%,N/A,N/A,16.74%,12.34%,63.41%,Cook County,73.90%,20.80%,2.85%,43.28%,32.67%,17.2%,10.18%,Central Standard Time,84,32,52,39,117,31,8.1,52,623,3.6,7.46,IL-42028,41.5648097,-87.5461275,52%,65%,39%,60%,56%,38.4
Lee,Illinois,380,1900,Chicago-Naperville-Elgin,9406638,$82500,10.32%,37,$140000,1346,$104,57,73.68%,$725,59.73%,N/A,N/A,8.73%,6.05%,72.88%,Lee County,35.70%,55.60%,0.0%,0.53%,84.21%,5.26%,0.0%,Central Standard Time,82,28,54,37,111,31,8.1,83,623,3.7,0.2,IL-42587,41.7954198,-88.9416815,52%,65%,39%,60%,56%,38.4
Lemont,Illinois,17131,2059,Chicago-Naperville-Elgin,9406638,$114509,41.61%,44,$423000,2147,$197,28,87.02%,$1223,37.58%,N/A,N/A,5.07%,3.74%,64.92%,Cook County,73.90%,20.80%,2.04%,0.58%,88.24%,8.12%,15.33%,Central Standard Time,84,31,53,39,121,30,8.1,69,623,3.6,8.32,IL-42795,41.6695005,-87.9837456,52%,65%,39%,60%,56%,38.4
Lemont township,Illinois,17131,2059,Chicago-Naperville-Elgin,9406638,$114509,41.61%,44,$423000,2147,$197,28,87.02%,$1223,37.58%,N/A,N/A,5.07%,3.74%,64.92%,Cook County,73.90%,20.80%,2.04%,0.58%,88.24%,8.12%,15.33%,Central Standard Time,84,31,53,39,121,30,8.1,69,623,3.6,8.32,IL-42795,41.6695005,-87.9837456,52%,65%,39%,60%,56%,38.4
Leyden,Illinois,92810,4659,Chicago-Naperville-Elgin,9406638,$52644,21.06%,N/A,N/A,N/A,N/A,59,61.80%,N/A,49.70%,N/A,N/A,N/A,4.20%,N/A,Cook County,73.90%,20.80%,2.9%,1.7%,55.8%,38.3%,N/A,Central Standard Time,84,31,53,38,125,36,8.1,46,623,3.6,19.92,IL-43120,41.938078,-87.8685066,52%,65%,39%,60%,56%,38.4
Libertyville,Illinois,20300,2304,Chicago-Naperville-Elgin,9406638,$150580,72.12%,43,$515000,2384,$216,45,86.14%,$1363,37.03%,N/A,N/A,3.03%,2.62%,65.56%,Lake County,56.40%,36.20%,7.1%,1.27%,83.74%,5.7%,10.73%,Central Standard Time,81,30,51,36,119,38,8.1,67,623,3.7,8.81,IL-43250,42.2869304,-87.9669257,52%,65%,39%,60%,56%,38.4
Libertyville township,Illinois,20300,2304,Chicago-Naperville-Elgin,9406638,$150580,72.12%,43,$515000,2384,$216,45,86.14%,$1363,37.03%,N/A,N/A,3.03%,2.62%,65.56%,Lake County,56.40%,36.20%,7.1%,1.27%,83.74%,5.7%,10.73%,Central Standard Time,82,30,52,36,120,39,8.1,67,623,3.7,8.81,IL-43250,42.2869304,-87.9669257,52%,65%,39%,60%,56%,38.4
Lily Lake,Illinois,1333,490,Chicago-Naperville-Elgin,9406638,$119792,40.12%,40,$765000,4274,$179,34,94.9%,$2025,33.84%,N/A,N/A,0.75%,5.78%,73.74%,Kane County,51.90%,41.40%,0.53%,4.58%,90.17%,3.75%,1.88%,Central Standard Time,85,30,55,38,119,30,8.1,76,623,3.5,2.72,IL-43406,41.9516662,-88.4743119,52%,65%,39%,60%,56%,38.4
Lincolnshire,Illinois,7694,1687,Chicago-Naperville-Elgin,9406638,$130076,73.19%,51,$616000,2892,$213,27,89.52%,$2720,38.22%,N/A,N/A,4.17%,2.91%,53.01%,Lake County,56.40%,36.20%,18.13%,0.6%,77.45%,2.74%,18.64%,Central Standard Time,83,31,52,36,121,36,8.1,63,623,3.7,4.56,IL-43666,42.1957307,-87.9181888,52%,65%,39%,60%,56%,38.4
Lincolnwood,Illinois,12338,4587,Chicago-Naperville-Elgin,9406638,$90422,56.77%,46,$418000,1962,$213,62,80.66%,$2195,34.84%,N/A,N/A,5.4%,6.28%,52.99%,Cook County,73.90%,20.80%,26.82%,1.64%,62.21%,6.39%,31.55%,Central Standard Time,83,32,51,38,125,36,8.1,46,623,3.6,2.69,IL-43744,42.0054296,-87.7329593,52%,65%,39%,60%,56%,38.4
Lindenhurst,Illinois,14317,3160,Chicago-Naperville-Elgin,9406638,$115495,46.25%,38,$240000,1579,$152,32,87.97%,$1562,39.58%,N/A,N/A,4.3%,6.24%,74.78%,Lake County,56.40%,36.20%,4.36%,1.93%,80.71%,11.01%,8.28%,Central Standard Time,82,30,52,36,116,43,8.1,69,623,3.7,4.53,IL-43770,42.4175107,-88.0257796,52%,65%,39%,60%,56%,38.4
Lisbon,Illinois,281,133,Chicago-Naperville-Elgin,9406638,$63750,24.54%,29,N/A,N/A,N/A,62,85.41%,$950,39.9%,N/A,N/A,0.71%,1.61%,62.63%,Kendall County,46.00%,46.20%,0.0%,1.42%,90.75%,2.14%,4.27%,Central Standard Time,84,31,53,38,119,27,8.1,78,623,3.4,2.12,IL-43900,41.4806286,-88.4559061,52%,65%,39%,60%,56%,38.4
Lisbon township,Illinois,281,133,Chicago-Naperville-Elgin,9406638,$63750,24.54%,29,N/A,N/A,N/A,62,85.41%,$950,39.9%,N/A,N/A,0.71%,1.61%,62.63%,Kendall County,46.00%,46.20%,0.0%,1.42%,90.75%,2.14%,4.27%,Central Standard Time,84,31,53,38,120,27,8.1,78,623,3.4,2.12,IL-43900,41.4806286,-88.4559061,52%,65%,39%,60%,56%,38.4
Lisle,Illinois,23363,3386,Chicago-Naperville-Elgin,9406638,$96945,61.86%,37,$374000,1816,$206,39,67.77%,$1333,45.58%,N/A,N/A,5.67%,4.82%,71.01%,DuPage County,53.10%,38.60%,17.37%,5.16%,69.11%,5.51%,16.12%,Central Standard Time,84,31,53,39,118,28,8.1,61,623,3.4,6.9,IL-43939,41.791823,-88.0888054,52%,65%,39%,60%,56%,38.4
Lisle township,Illinois,23363,3386,Chicago-Naperville-Elgin,9406638,$96945,61.86%,37,$374000,1816,$206,39,67.77%,$1333,45.58%,N/A,N/A,5.67%,4.82%,71.01%,DuPage County,53.10%,38.60%,17.37%,5.16%,69.11%,5.51%,16.12%,Central Standard Time,84,31,53,39,120,29,8.1,63,623,3.4,6.9,IL-43939,41.791823,-88.0888054,52%,65%,39%,60%,56%,38.4
Little Rock,Illinois,13650,387,Chicago-Naperville-Elgin,9406638,$58527,22.96%,N/A,N/A,N/A,N/A,27,76.80%,N/A,48.70%,N/A,N/A,N/A,3.80%,N/A,Kendall County,46.00%,46.20%,0.0%,7.8%,61.2%,28.9%,N/A,Central Standard Time,84,30,54,38,123,30,8.1,76,623,3.4,35.27,IL-44043,41.676808,-88.5463447,52%,65%,39%,60%,56%,38.4
Lockport,Illinois,25499,2212,Chicago-Naperville-Elgin,9406638,$87817,37.16%,37,$275000,1647,$167,24,84.38%,$1305,46.27%,N/A,N/A,7.07%,3.36%,73.06%,Will County,49.90%,43.60%,1.76%,2.19%,84.96%,9.96%,7.89%,Central Standard Time,84,31,53,39,125,31,8.1,69,623,3.7,11.53,IL-44225,41.5906074,-88.029278,52%,65%,39%,60%,56%,38.4
Lockport township,Illinois,25499,2212,Chicago-Naperville-Elgin,9406638,$87817,37.16%,37,$275000,1647,$167,24,84.38%,$1305,46.27%,N/A,N/A,7.07%,3.36%,73.06%,Will County,49.90%,43.60%,1.76%,2.19%,84.96%,9.96%,7.89%,Central Standard Time,84,31,53,39,125,30,8.1,69,623,3.7,11.53,IL-44225,41.5906074,-88.029278,52%,65%,39%,60%,56%,38.4
Lombard,Illinois,43755,4281,Chicago-Naperville-Elgin,9406638,$86167,48.41%,38,$310000,1542,$201,49,73.03%,$1482,46.43%,N/A,N/A,5.64%,3.95%,69.94%,DuPage County,53.10%,38.60%,12.62%,4.79%,70.2%,9.16%,16.59%,Central Standard Time,84,31,53,39,121,31,8.1,55,623,3.4,10.22,IL-44407,41.8741138,-88.0156927,52%,65%,39%,60%,56%,38.4
Long Grove,Illinois,7907,638,Chicago-Naperville-Elgin,9406638,$207188,67.7%,47,$755000,3528,$214,31,97.47%,$3501,29.8%,N/A,N/A,1.99%,3.07%,60.81%,Lake County,56.40%,36.20%,17.63%,1.53%,71.66%,5.88%,20.31%,Central Standard Time,83,30,53,37,124,38,8.1,68,623,3.7,12.39,IL-44524,42.1966292,-88.0057516,52%,65%,39%,60%,56%,38.4
Lynwood,Illinois,9210,1857,Chicago-Naperville-Elgin,9406638,$76154,40.62%,38,$259000,2008,$129,30,81.63%,$937,55.27%,N/A,N/A,7.07%,9.09%,72.26%,Cook County,73.90%,20.80%,0.0%,75.9%,10.56%,8.45%,4.17%,Central Standard Time,84,31,53,39,110,28,8.1,24,623,3.6,4.96,IL-45421,41.5235133,-87.5510732,52%,65%,39%,60%,56%,38.4
Lyons,Illinois,10338,4678,Chicago-Naperville-Elgin,9406638,$66005,16.45%,36,$225000,1037,$217,62,64.41%,$1054,50.36%,N/A,N/A,9.3%,4.85%,66.61%,Cook County,73.90%,20.80%,2.32%,3.91%,35.34%,57.28%,22.35%,Central Standard Time,84,33,51,39,124,32,8.1,56,623,3.6,2.21,IL-45434,41.8118572,-87.8190944,52%,65%,39%,60%,56%,38.4
Lyons township,Illinois,10338,4678,Chicago-Naperville-Elgin,9406638,$66005,16.45%,36,$225000,1037,$217,62,64.41%,$1054,50.36%,N/A,N/A,9.3%,4.85%,66.61%,Cook County,73.90%,20.80%,2.32%,3.91%,35.34%,57.28%,22.35%,Central Standard Time,84,32,52,39,122,32,8.1,57,623,3.6,2.21,IL-45434,41.8118572,-87.8190944,52%,65%,39%,60%,56%,38.4
Maine township (Cook Cnty),Illinois,136573,5267,Chicago-Naperville-Elgin,9406638,$65059,N/A,N/A,N/A,N/A,N/A,53,68.90%,N/A,44.80%,N/A,N/A,N/A,4.20%,N/A,Cook County,73.90%,20.80%,16.7%,2.9%,63.4%,14.7%,N/A,Central Standard Time,84,31,53,36,125,36,8.1,36,623,3.6,25.93,IL-46162,42.0333669,-87.8642957,52%,65%,39%,60%,56%,38.4
Maine township (Grundy Cnty),Illinois,295,16,Chicago-Naperville-Elgin,9406638,$65625,N/A,N/A,N/A,N/A,N/A,24,86.00%,N/A,30.40%,N/A,N/A,N/A,4.80%,N/A,Grundy County,34.70%,57.90%,0.0%,0.0%,87.8%,12.2%,N/A,Central Standard Time,84,31,53,37,109,22,8.1,81,623,3.5,18.44,IL-46175,41.2431728,-88.3322149,52%,65%,39%,60%,56%,38.4
Malta,Illinois,1431,2346,Chicago-Naperville-Elgin,9406638,$73250,25.29%,38,$338000,1673,$202,48,78.06%,$876,46.18%,N/A,N/A,20.56%,5.47%,67.46%,DeKalb County,46.90%,43.80%,0.42%,3.07%,75.68%,19.64%,7.2%,Central Standard Time,83,28,55,37,115,28,8.1,83,623,3.5,0.61,IL-46279,41.9290691,-88.8671558,52%,65%,39%,60%,56%,38.4
Malta township,Illinois,1431,2346,Chicago-Naperville-Elgin,9406638,$73250,25.29%,38,$338000,1673,$202,48,78.06%,$876,46.18%,N/A,N/A,20.56%,5.47%,67.46%,DeKalb County,46.90%,43.80%,0.42%,3.07%,75.68%,19.64%,7.2%,Central Standard Time,83,28,55,37,115,28,8.1,83,623,3.5,0.61,IL-46279,41.9290691,-88.8671558,52%,65%,39%,60%,56%,38.4
Manhattan,Illinois,8218,1230,Chicago-Naperville-Elgin,9406638,$105726,31.18%,33,$332000,2049,$162,19,88.83%,$1051,38.73%,N/A,N/A,5.09%,4.15%,72.5%,Will County,49.90%,43.60%,0.44%,0.75%,92.76%,3.75%,2.93%,Central Standard Time,84,31,53,39,115,29,8.1,78,623,3.7,6.68,IL-46357,41.4010545,-87.9630967,52%,65%,39%,60%,56%,38.4
Manhattan township,Illinois,8218,1230,Chicago-Naperville-Elgin,9406638,$105726,31.18%,33,$332000,2049,$162,19,88.83%,$1051,38.73%,N/A,N/A,5.09%,4.15%,72.5%,Will County,49.90%,43.60%,0.44%,0.75%,92.76%,3.75%,2.93%,Central Standard Time,84,31,53,39,115,29,8.1,78,623,3.7,6.68,IL-46357,41.4010545,-87.9630967,52%,65%,39%,60%,56%,38.4
Maple Park,Illinois,1599,744,Chicago-Naperville-Elgin,9406638,$90833,33.89%,42,$145000,1036,$140,29,84.74%,$1518,43.46%,N/A,N/A,2.64%,3.95%,66.64%,Kane County,51.90%,41.40%,0.31%,0.0%,90.99%,5.88%,2.13%,Central Standard Time,83,28,55,38,115,31,8.1,80,623,3.5,2.15,IL-46604,41.901094,-88.611858,52%,65%,39%,60%,56%,38.4
Marengo,Illinois,7871,922,Chicago-Naperville-Elgin,9406638,$69688,17.92%,33,$270000,1688,$160,51,62.06%,$901,55.38%,N/A,N/A,14.65%,5.34%,69.65%,McHenry County,42.20%,49.80%,0.0%,2.17%,82.3%,14.83%,8.05%,Central Standard Time,83,29,54,37,112,34,8.1,81,623,3.4,8.54,IL-46786,42.2094461,-88.6417312,52%,65%,39%,60%,56%,38.4
Marengo township,Illinois,7871,922,Chicago-Naperville-Elgin,9406638,$69688,17.92%,33,$270000,1688,$160,51,62.06%,$901,55.38%,N/A,N/A,14.65%,5.34%,69.65%,McHenry County,42.20%,49.80%,0.0%,2.17%,82.3%,14.83%,8.05%,Central Standard Time,83,29,54,37,112,34,8.1,81,623,3.4,8.54,IL-46786,42.2094461,-88.6417312,52%,65%,39%,60%,56%,38.4
Markham,Illinois,12401,2292,Chicago-Naperville-Elgin,9406638,$42050,15.32%,32,$130000,1130,$115,59,63.79%,$1362,72.1%,N/A,N/A,20.89%,14.1%,60.43%,Cook County,73.90%,20.80%,0.75%,74.78%,11.4%,11.15%,5.24%,Central Standard Time,84,32,52,39,124,31,8.1,57,623,3.6,5.41,IL-47007,41.6000363,-87.6904564,52%,65%,39%,60%,56%,38.4
Matteson,Illinois,19374,2085,Chicago-Naperville-Elgin,9406638,$84611,38.31%,44,$220000,1692,$130,30,78.66%,$1230,50.59%,N/A,N/A,13.58%,8.58%,66.45%,Cook County,73.90%,20.80%,1.31%,82.28%,12.3%,1.35%,4.61%,Central Standard Time,84,31,53,41,116,28,8.1,64,623,3.6,9.29,IL-47540,41.5094795,-87.746783,52%,65%,39%,60%,56%,38.4
Mayfield,Illinois,805,23,Chicago-Naperville-Elgin,9406638,$45733,32.23%,N/A,N/A,N/A,N/A,35,48.50%,$796,56.90%,N/A,N/A,N/A,4.50%,N/A,DeKalb County,46.90%,43.80%,0.0%,1.1%,79.5%,18.8%,N/A,Central Standard Time,83,28,55,37,117,31,8.1,79,623,3.5,35.0,IL-47696,42.0230386,-88.7723563,52%,65%,39%,60%,56%,38.4
Maywood,Illinois,23351,8585,Chicago-Naperville-Elgin,9406638,$56623,13.61%,37,$249000,1456,$171,76,69.65%,$972,60.73%,N/A,N/A,11.71%,9.12%,63.06%,Cook County,73.90%,20.80%,0.54%,63.3%,5.24%,30.93%,14.88%,Central Standard Time,84,32,52,39,121,34,8.1,57,623,3.6,2.72,IL-47774,41.8797775,-87.8441836,52%,65%,39%,60%,56%,38.4
Mazon,Illinois,1222,2037,Chicago-Naperville-Elgin,9406638,$60966,16.42%,37,$173000,1713,$101,52,74.88%,$947,37.62%,N/A,N/A,4.69%,3.44%,65.73%,Grundy County,34.70%,57.90%,0.41%,0.0%,95.09%,4.26%,4.91%,Central Standard Time,84,31,53,37,110,22,8.1,81,623,3.5,0.6,IL-47787,41.2417195,-88.4231111,52%,65%,39%,60%,56%,38.4
Mazon township,Illinois,1222,2037,Chicago-Naperville-Elgin,9406638,$60966,16.42%,37,$173000,1713,$101,52,74.88%,$947,37.62%,N/A,N/A,4.69%,3.44%,65.73%,Grundy County,34.70%,57.90%,0.41%,0.0%,95.09%,4.26%,4.91%,Central Standard Time,84,31,53,37,110,22,8.1,81,623,3.5,0.6,IL-47787,41.2417195,-88.4231111,52%,65%,39%,60%,56%,38.4
McCook,Illinois,317,121,Chicago-Naperville-Elgin,9406638,$75417,12.82%,31,N/A,N/A,N/A,57,58.99%,$1125,49.38%,N/A,N/A,5.05%,3.82%,54.36%,Cook County,73.90%,20.80%,0.0%,4.73%,53.63%,40.06%,11.36%,Central Standard Time,84,31,53,39,121,32,8.1,61,623,3.6,2.61,IL-45564,41.7959083,-87.8411386,52%,65%,39%,60%,56%,38.4
McCullom Lake,Illinois,1193,3409,Chicago-Naperville-Elgin,9406638,$62430,10.17%,37,$167000,799,$209,64,58.93%,$1221,43.69%,N/A,N/A,2.35%,7.98%,74.07%,McHenry County,42.20%,49.80%,1.01%,0.75%,82.65%,6.87%,5.53%,Central Standard Time,82,29,53,36,113,37,8.1,76,623,3.4,0.35,IL-45616,42.3679657,-88.2965402,52%,65%,39%,60%,56%,38.4
McHenry,Illinois,26889,1854,Chicago-Naperville-Elgin,9406638,$77004,29.69%,41,$271000,1895,$143,32,74.84%,$1328,45.36%,N/A,N/A,7.44%,4.52%,68.82%,McHenry County,42.20%,49.80%,1.82%,0.7%,79.29%,17.01%,9.23%,Central Standard Time,82,29,53,36,113,37,8.1,76,623,3.4,14.5,IL-45694,42.3387529,-88.2931706,52%,65%,39%,60%,56%,38.4
McHenry township,Illinois,26889,1854,Chicago-Naperville-Elgin,9406638,$77004,29.69%,41,$271000,1895,$143,32,74.84%,$1328,45.36%,N/A,N/A,7.44%,4.52%,68.82%,McHenry County,42.20%,49.80%,1.82%,0.7%,79.29%,17.01%,9.23%,Central Standard Time,82,29,53,36,114,38,8.1,76,623,3.4,14.5,IL-45694,42.3387529,-88.2931706,52%,65%,39%,60%,56%,38.4
Melrose Park,Illinois,25404,5840,Chicago-Naperville-Elgin,9406638,$53596,12.58%,34,$264000,1239,$213,64,53.08%,$1054,57.7%,N/A,N/A,15.82%,6.24%,65.03%,Cook County,73.90%,20.80%,0.83%,4.24%,17.09%,77.61%,34.61%,Central Standard Time,84,32,52,38,125,37,8.1,57,623,3.6,4.35,IL-48242,41.9029941,-87.8636471,52%,65%,39%,60%,56%,38.4
Merrionette Park,Illinois,1973,5192,Chicago-Naperville-Elgin,9406638,$43047,17.32%,39,$169000,1166,$145,55,80.64%,$966,63.48%,N/A,N/A,8.11%,5.54%,71.38%,Cook County,73.90%,20.80%,0.0%,8.97%,72.28%,18.65%,4.87%,Central Standard Time,84,33,51,39,124,32,8.1,53,623,3.6,0.38,IL-48554,41.6811167,-87.7012117,52%,65%,39%,60%,56%,38.4
Mettawa,Illinois,573,105,Chicago-Naperville-Elgin,9406638,$123125,63.26%,50,$1361000,5943,$229,38,94.94%,$1422,33.88%,N/A,N/A,8.03%,6.32%,56.16%,Lake County,56.40%,36.20%,3.84%,2.62%,87.26%,5.76%,17.45%,Central Standard Time,82,30,52,36,120,38,8.1,68,623,3.7,5.45,IL-48671,42.244497,-87.9196614,52%,65%,39%,60%,56%,38.4
Midlothian,Illinois,14464,5129,Chicago-Naperville-Elgin,9406638,$61067,16.09%,40,$227000,1401,$162,55,84.86%,$1107,45.85%,N/A,N/A,9.08%,2.79%,64.82%,Cook County,73.90%,20.80%,1.7%,6.8%,56.83%,31.55%,13.31%,Central Standard Time,84,32,52,38,123,32,8.1,53,623,3.6,2.82,IL-48892,41.6254276,-87.7242336,52%,65%,39%,60%,56%,38.4
Milan township,Illinois,125,20,Chicago-Naperville-Elgin,9406638,$34491,N/A,N/A,$132000,1361,$97,78,54.00%,N/A,44.00%,N/A,N/A,N/A,4.50%,N/A,DeKalb County,46.90%,43.80%,0.0%,0.0%,100.0%,0.0%,N/A,Central Standard Time,82,28,54,37,113,30,8.1,82,623,3.5,6.25,IL-48983,41.8484254,-88.8846786,52%,65%,39%,60%,56%,38.4
Millbrook,Illinois,357,193,Chicago-Naperville-Elgin,9406638,$91875,31.6%,42,N/A,N/A,N/A,38,90.76%,$1025,39.86%,N/A,N/A,9.32%,8.15%,64.56%,Kendall County,46.00%,46.20%,0.0%,0.0%,96.92%,2.24%,0.28%,Central Standard Time,84,30,54,38,119,27,8.1,76,623,3.4,1.85,IL-49100,41.6071316,-88.5454153,52%,65%,39%,60%,56%,38.4
Millington,Illinois,662,932,Chicago-Naperville-Elgin,9406638,$74063,14.7%,38,$160000,1221,$131,47,91.09%,$1018,38.94%,N/A,N/A,3.79%,4.0%,74.7%,LaSalle County,39.30%,53.70%,0.0%,0.0%,93.35%,6.65%,1.81%,Central Standard Time,84,30,54,38,111,27,8.1,78,623,3.4,0.71,IL-49308,41.5622481,-88.6023303,52%,65%,39%,60%,56%,38.4
Milton township,Illinois,118505,303859,Chicago-Naperville-Elgin,9406638,$82703,N/A,N/A,N/A,N/A,N/A,42,69.00%,N/A,41.00%,N/A,N/A,N/A,3.30%,N/A,DuPage County,53.10%,38.60%,8.7%,4.9%,77.0%,7.1%,N/A,Central Standard Time,84,31,53,39,120,31,8.1,62,623,3.4,0.39,IL-49451,41.8588474,-88.0896017,52%,65%,39%,60%,56%,38.4
Minooka,Illinois,11069,1178,Chicago-Naperville-Elgin,9406638,$97097,34.64%,34,$285000,1926,$148,18,88.43%,$1640,39.04%,N/A,N/A,5.35%,2.85%,76.92%,Grundy County,34.70%,57.90%,1.44%,2.31%,80.15%,14.99%,4.17%,Central Standard Time,84,31,53,37,119,24,8.1,75,623,3.5,9.4,IL-49607,41.450672,-88.2791072,52%,65%,39%,60%,56%,38.4
Mokena,Illinois,20720,2384,Chicago-Naperville-Elgin,9406638,$109935,44.14%,42,$410000,2470,$166,25,91.09%,$1182,39.63%,N/A,N/A,4.1%,3.15%,71.38%,Will County,49.90%,43.60%,0.8%,1.2%,91.39%,5.41%,3.99%,Central Standard Time,84,31,53,40,123,30,8.1,67,623,3.7,8.69,IL-49854,41.5326926,-87.8780883,52%,65%,39%,60%,56%,38.4
Monee,Illinois,5080,1136,Chicago-Naperville-Elgin,9406638,$76638,23.68%,38,$325000,2372,$137,20,89.68%,$862,53.63%,N/A,N/A,7.5%,2.18%,70.71%,Will County,49.90%,43.60%,3.62%,32.05%,55.16%,9.04%,11.18%,Central Standard Time,84,31,53,41,115,28,8.1,57,623,3.7,4.47,IL-49945,41.4180837,-87.7501316,52%,65%,39%,60%,56%,38.4
Monee township,Illinois,5080,1136,Chicago-Naperville-Elgin,9406638,$76638,23.68%,38,$325000,2372,$137,20,89.68%,$862,53.63%,N/A,N/A,7.5%,2.18%,70.71%,Will County,49.90%,43.60%,3.62%,32.05%,55.16%,9.04%,11.18%,Central Standard Time,84,31,53,41,112,28,8.1,66,623,3.7,4.47,IL-49945,41.4180837,-87.7501316,52%,65%,39%,60%,56%,38.4
Montgomery,Illinois,19515,2098,Chicago-Naperville-Elgin,9406638,$99208,32.26%,30,$250000,1497,$167,17,82.02%,$1454,51.23%,N/A,N/A,4.79%,4.21%,76.93%,Kendall County,46.00%,46.20%,0.91%,3.66%,61.1%,32.41%,9.29%,Central Standard Time,84,30,54,38,120,28,8.1,71,623,3.5,9.3,IL-50218,41.7187895,-88.3923885,52%,65%,39%,60%,56%,38.4
Moraine,Illinois,34067,2860,Chicago-Naperville-Elgin,9406638,$100688,69.31%,N/A,N/A,N/A,N/A,55,70.70%,N/A,N/A,N/A,N/A,N/A,3.80%,N/A,Lake County,56.40%,36.20%,2.6%,1.3%,79.8%,14.7%,N/A,Central Standard Time,83,32,51,36,124,36,8.1,66,623,3.7,11.91,IL-50364,42.1858323,-87.805653,52%,65%,39%,60%,56%,38.4
Morris,Illinois,14420,1455,Chicago-Naperville-Elgin,9406638,$61419,25.2%,38,$208000,1300,$160,42,58.57%,$985,46.91%,N/A,N/A,10.24%,2.55%,64.05%,Grundy County,34.70%,57.90%,0.87%,0.5%,85.98%,9.32%,5.1%,Central Standard Time,85,31,54,38,118,22,8.1,70,623,3.5,9.91,IL-50491,41.3748971,-88.4304786,52%,65%,39%,60%,56%,38.4
Morris township,Illinois,14420,1455,Chicago-Naperville-Elgin,9406638,$61419,25.2%,38,$208000,1300,$160,42,58.57%,$985,46.91%,N/A,N/A,10.24%,2.55%,64.05%,Grundy County,34.70%,57.90%,0.87%,0.5%,85.98%,9.32%,5.1%,Central Standard Time,85,31,54,38,118,22,8.1,67,623,3.5,9.91,IL-50491,41.3748971,-88.4304786,52%,65%,39%,60%,56%,38.4
Morton Grove,Illinois,22937,4506,Chicago-Naperville-Elgin,9406638,$87063,47.9%,47,$370000,1682,$220,61,89.13%,$2022,38.55%,N/A,N/A,7.04%,2.81%,61.07%,Cook County,73.90%,20.80%,32.03%,0.83%,58.2%,6.35%,38.28%,Central Standard Time,83,32,51,36,125,36,8.1,47,623,3.6,5.09,IL-50647,42.0423209,-87.7890137,52%,65%,39%,60%,56%,38.4
Mount Prospect,Illinois,54165,5053,Chicago-Naperville-Elgin,9406638,$84353,44.02%,41,$321000,1681,$191,52,70.23%,$1172,38.57%,N/A,N/A,5.75%,3.53%,66.34%,Cook County,73.90%,20.80%,12.9%,3.34%,66.68%,14.59%,30.0%,Central Standard Time,84,31,53,36,125,36,8.1,50,623,3.6,10.72,IL-51089,42.0640888,-87.9375398,52%,65%,39%,60%,56%,38.4
Mundelein,Illinois,31574,3292,Chicago-Naperville-Elgin,9406638,$91535,42.29%,38,$325000,1826,$178,37,71.31%,$1396,42.47%,N/A,N/A,6.87%,2.96%,71.39%,Lake County,56.40%,36.20%,10.88%,1.52%,52.12%,32.99%,29.97%,Central Standard Time,82,29,53,36,120,41,8.1,69,623,3.7,9.59,IL-51349,42.2692149,-88.010093,52%,65%,39%,60%,56%,38.4
Na-Au-Say,Illinois,8604,251,Chicago-Naperville-Elgin,9406638,$98876,43.22%,N/A,N/A,N/A,N/A,16,89.40%,N/A,37.20%,N/A,N/A,N/A,3.80%,N/A,Kendall County,46.00%,46.20%,4.9%,13.3%,70.0%,11.7%,N/A,Central Standard Time,84,31,53,39,124,28,8.1,78,623,3.4,34.28,IL-51531,41.5922599,-88.3126135,52%,65%,39%,60%,56%,38.4
Naperville,Illinois,147734,3780,Chicago-Naperville-Elgin,9406638,$127648,69.89%,39,$465000,2225,$209,32,79.25%,$1546,38.11%,N/A,N/A,3.77%,4.25%,69.18%,DuPage County,53.10%,38.60%,20.45%,4.23%,65.29%,6.67%,21.03%,Central Standard Time,84,31,53,39,120,29,8.1,66,623,3.4,39.08,IL-51622,41.7480736,-88.1658902,52%,65%,39%,60%,56%,38.4
Naperville township,Illinois,147734,3780,Chicago-Naperville-Elgin,9406638,$127648,69.89%,39,$465000,2225,$209,32,79.25%,$1546,38.11%,N/A,N/A,3.77%,4.25%,69.18%,DuPage County,53.10%,38.60%,20.45%,4.23%,65.29%,6.67%,21.03%,Central Standard Time,84,31,53,39,120,28,8.1,65,623,3.4,39.08,IL-51622,41.7480736,-88.1658902,52%,65%,39%,60%,56%,38.4
Nettle Creek,Illinois,531,15,Chicago-Naperville-Elgin,9406638,$100625,23.00%,N/A,N/A,N/A,N/A,38,71.00%,N/A,46.20%,N/A,N/A,N/A,4.80%,N/A,Grundy County,34.70%,57.90%,0.0%,0.0%,95.1%,4.9%,N/A,Central Standard Time,84,31,53,38,118,24,8.1,76,623,3.5,35.4,IL-52038,41.4139503,-88.5377852,52%,65%,39%,60%,56%,38.4
New Lenox,Illinois,26788,1704,Chicago-Naperville-Elgin,9406638,$115327,44.44%,36,$400000,2273,$176,24,93.79%,$1163,35.08%,N/A,N/A,2.42%,3.49%,72.5%,Will County,49.90%,43.60%,0.4%,0.55%,92.51%,4.19%,2.18%,Central Standard Time,84,31,53,38,122,30,8.1,70,623,3.7,15.72,IL-52584,41.5095485,-87.9703697,52%,65%,39%,60%,56%,38.4
New Lenox township,Illinois,26788,1704,Chicago-Naperville-Elgin,9406638,$115327,44.44%,36,$400000,2273,$176,24,93.79%,$1163,35.08%,N/A,N/A,2.42%,3.49%,72.5%,Will County,49.90%,43.60%,0.4%,0.55%,92.51%,4.19%,2.18%,Central Standard Time,84,31,53,38,123,30,8.1,70,623,3.7,15.72,IL-52584,41.5095485,-87.9703697,52%,65%,39%,60%,56%,38.4
New Trier,Illinois,56451,3550,Chicago-Naperville-Elgin,9406638,$145008,84.99%,N/A,N/A,N/A,N/A,63,83.00%,N/A,31.70%,N/A,N/A,N/A,4.20%,N/A,Cook County,73.90%,20.80%,9.0%,0.6%,84.6%,3.7%,N/A,Central Standard Time,83,32,51,36,125,36,8.1,66,623,3.6,15.9,IL-52909,42.1011389,-87.744439,52%,65%,39%,60%,56%,38.4
Newark,Illinois,1325,1183,Chicago-Naperville-Elgin,9406638,$101750,24.41%,43,$495000,2200,$225,54,90.34%,$621,45.51%,N/A,N/A,8.64%,3.19%,67.63%,Kendall County,46.00%,46.20%,0.15%,0.68%,93.21%,5.96%,5.43%,Central Standard Time,84,31,53,38,119,27,8.1,78,623,3.4,1.12,IL-52103,41.5368613,-88.5803098,52%,65%,39%,60%,56%,38.4
Newport,Illinois,6801,214,Chicago-Naperville-Elgin,9406638,$88073,43.02%,N/A,N/A,N/A,N/A,26,88.60%,N/A,42.10%,N/A,N/A,N/A,3.80%,N/A,Lake County,56.40%,36.20%,6.7%,11.1%,67.0%,13.5%,N/A,Central Standard Time,81,30,51,36,116,41,8.1,63,623,3.7,31.78,IL-52753,42.4535394,-87.9457869,53%,66%,44%,63%,61%,34.2
Niles,Illinois,29198,4991,Chicago-Naperville-Elgin,9406638,$63490,36.71%,48,$285000,1447,$197,57,77.78%,$1133,48.65%,N/A,N/A,9.23%,4.65%,58.88%,Cook County,73.90%,20.80%,18.72%,2.99%,65.62%,10.58%,40.39%,Central Standard Time,84,31,53,36,125,36,8.1,30,623,3.6,5.85,IL-53000,42.0278639,-87.8099801,52%,65%,39%,60%,56%,38.4
Niles township,Illinois,29198,4991,Chicago-Naperville-Elgin,9406638,$63490,36.71%,48,$285000,1447,$197,57,77.78%,$1133,48.65%,N/A,N/A,9.23%,4.65%,58.88%,Cook County,73.90%,20.80%,18.72%,2.99%,65.62%,10.58%,40.39%,Central Standard Time,83,32,51,37,125,36,8.1,46,623,3.6,5.85,IL-53000,42.0278639,-87.8099801,52%,65%,39%,60%,56%,38.4
Norman,Illinois,305,18,Chicago-Naperville-Elgin,9406638,$80966,N/A,N/A,N/A,N/A,N/A,42,100.00%,N/A,18.40%,N/A,N/A,N/A,4.80%,N/A,Grundy County,34.70%,57.90%,0.0%,0.0%,100.0%,0.0%,N/A,Central Standard Time,84,31,53,38,114,23,8.1,79,623,3.5,16.94,IL-53286,41.305519,-88.5263461,52%,65%,39%,60%,56%,38.4
Norridge,Illinois,14465,7992,Chicago-Naperville-Elgin,9406638,$78300,25.52%,47,$368000,1319,$279,59,82.59%,$1464,47.39%,N/A,N/A,3.87%,4.95%,55.52%,Cook County,73.90%,20.80%,4.87%,1.12%,82.55%,9.43%,34.55%,Central Standard Time,84,31,53,36,125,36,8.1,34,623,3.6,1.81,IL-53377,41.9637256,-87.8231934,52%,65%,39%,60%,56%,38.4
North Aurora,Illinois,18089,2393,Chicago-Naperville-Elgin,9406638,$90315,40.02%,41,$300000,1714,$175,24,83.02%,$1271,42.57%,N/A,N/A,4.7%,4.96%,70.61%,Kane County,51.90%,41.40%,4.62%,7.0%,72.31%,14.78%,12.78%,Central Standard Time,84,30,54,37,119,28,8.1,66,623,3.5,7.56,IL-53442,41.8085931,-88.3414798,52%,65%,39%,60%,56%,38.4
North Barrington,Illinois,2789,592,Chicago-Naperville-Elgin,9406638,$197188,77.28%,49,$493000,2554,$193,36,97.17%,$2328,26.23%,N/A,N/A,4.85%,3.02%,54.96%,Lake County,56.40%,36.20%,5.59%,2.44%,86.05%,3.08%,10.22%,Central Standard Time,83,30,53,38,124,38,8.1,73,623,3.7,4.71,IL-53455,42.2064469,-88.131585,52%,65%,39%,60%,56%,38.4
North Chicago,Illinois,29967,3751,Chicago-Naperville-Elgin,9406638,$47213,22.48%,24,$197000,1288,$153,48,37.61%,$1250,68.32%,N/A,N/A,20.18%,7.34%,76.19%,Lake County,56.40%,36.20%,5.87%,26.46%,29.5%,34.7%,16.26%,Central Standard Time,81,31,50,36,120,38,8.1,65,623,3.7,7.99,IL-53559,42.3171582,-87.8594048,52%,65%,39%,60%,56%,38.4
North Riverside,Illinois,6460,3939,Chicago-Naperville-Elgin,9406638,$55879,30.8%,39,$285000,1075,$265,65,70.05%,$1001,57.04%,N/A,N/A,5.84%,5.74%,57.13%,Cook County,73.90%,20.80%,1.49%,12.31%,64.58%,20.29%,8.75%,Central Standard Time,84,33,51,39,124,34,8.1,62,623,3.6,1.64,IL-54144,41.8461414,-87.8262824,52%,65%,39%,60%,56%,38.4
Northbrook,Illinois,33216,2509,Chicago-Naperville-Elgin,9406638,$128883,70.58%,50,$448000,2009,$223,47,89.91%,$1949,35.99%,N/A,N/A,3.28%,2.11%,58.4%,Cook County,73.90%,20.80%,16.63%,2.09%,76.79%,3.43%,20.1%,Central Standard Time,83,32,51,36,125,36,8.1,57,623,3.6,13.24,IL-53481,42.1291908,-87.8351602,52%,65%,39%,60%,56%,38.4
Northfield,Illinois,5678,1758,Chicago-Naperville-Elgin,9406638,$143661,74.9%,52,$420000,1700,$247,55,89.22%,$2364,37.36%,N/A,N/A,8.3%,0.34%,55.45%,Cook County,73.90%,20.80%,9.32%,0.46%,83.3%,5.35%,13.4%,Central Standard Time,83,32,51,36,125,36,8.1,61,623,3.6,3.23,IL-53663,42.1025935,-87.779214,52%,65%,39%,60%,56%,38.4
Northfield township,Illinois,5678,1758,Chicago-Naperville-Elgin,9406638,$143661,74.9%,52,$420000,1700,$247,55,89.22%,$2364,37.36%,N/A,N/A,8.3%,0.34%,55.45%,Cook County,73.90%,20.80%,9.32%,0.46%,83.3%,5.35%,13.4%,Central Standard Time,83,32,51,36,125,36,8.1,56,623,3.6,3.23,IL-53663,42.1025935,-87.779214,52%,65%,39%,60%,56%,38.4
Northlake,Illinois,12235,3847,Chicago-Naperville-Elgin,9406638,$60495,14.29%,38,$255000,1356,$188,63,72.62%,$978,55.77%,N/A,N/A,15.45%,5.21%,62.05%,Cook County,73.90%,20.80%,2.84%,3.62%,30.81%,62.29%,27.92%,Central Standard Time,84,31,53,38,122,34,8.1,52,623,3.6,3.18,IL-53871,41.9143165,-87.9054868,52%,65%,39%,60%,56%,38.4
Norwood Park,Illinois,26404,7195,Chicago-Naperville-Elgin,9406638,$55364,32.80%,N/A,N/A,N/A,N/A,59,74.00%,$989,45.20%,N/A,N/A,N/A,4.20%,N/A,Cook County,73.90%,20.80%,5.8%,0.4%,82.3%,10.9%,N/A,Central Standard Time,84,31,53,36,125,36,8.1,36,623,3.6,3.67,IL-54430,41.9686784,-87.8181149,52%,65%,39%,60%,56%,38.4
Nunda,Illinois,37777,807,Chicago-Naperville-Elgin,9406638,$76961,37.54%,N/A,N/A,N/A,N/A,30,75.80%,N/A,40.90%,N/A,N/A,N/A,3.50%,N/A,McHenry County,42.20%,49.80%,1.9%,0.8%,85.3%,9.8%,N/A,Central Standard Time,82,29,53,36,116,38,8.1,76,623,3.4,46.81,IL-54495,42.284786,-88.2768166,52%,65%,39%,60%,56%,38.4
Oak Brook,Illinois,8085,1016,Chicago-Naperville-Elgin,9406638,$140743,66.03%,55,$743000,3230,$230,45,95.14%,N/A,37.53%,N/A,N/A,4.17%,9.6%,47.5%,DuPage County,53.10%,38.60%,29.62%,1.81%,61.29%,4.66%,26.73%,Central Standard Time,84,31,53,39,121,31,8.1,56,623,3.4,7.96,IL-54534,41.8373143,-87.9516214,52%,65%,39%,60%,56%,38.4
