City,State,Population,People per sq mi,Metro Name,Metro population,Median household income,% with at least Bachelor's degree,Median age,Median home price,Median home sqft,Median home cost per sqft,Median home age,Homeownership Rate,Avg Apartment Monthly Rent,Single Population,Num Violent Crimes Per 100k residents,Num Property Crimes Per 100k residents,Poverty Rate,Unemployment rate,Labor Force Participation rate,County,% Democrat,% Republican,% Asian,% Black,% Non-Hispanic White,% Hispanic,Foreign Born %,Timezone,Hottest month's avg high (F),Coldest month's avg high (F),Hottest high minus coldest high,Hottest month's avg low (F),Coldest month's avg low (F),Annual Relative Humidity (afternoon),Summer Relative Humidity (afternoon),Annual dew point (F),Average summer dew point (F),Hottest month's avg heat index high (F),Annual Sunshine - Percentage of Possible,Summer Sunshine - Percentage of Possible,Winter Sunshine - Percentage of Possible,Annual rainfall (in),Summer rainfall (in),Winter rainfall (in),Percent of days that include precipitation,Percent of Summer days that include precipitation,Percent of Winter days that include precipitation,Annual snowfall (in),Days of snow per year,Average yearly windspeed (mph),Number of days with thunder per year,Air quality Index,Elevation (ft),UV Index,Land Area (sq mi),Fips Code,Latitude,Longitude
Addison,Texas,17128,3937,Dallas-Fort Worth-Arlington,7543340,$82858,61.45%,36,$545000,2180,$250,24,18.88%,$1717,65.12%,489,4296,6.83%,2.78%,81.25%,Dallas County,60.20%,34.30%,7.91%,18.39%,43.08%,26.06%,22.77%,Central Standard Time,95,56,39,76,36,54%,50%,51,67,104,61%,71%,56%,41.09,8.47,8.31,26.03%,21.1%,27.78%,2.1,0,N/A,45.7,36,678,5.7,4.35,TX-01240,32.9589204,-96.8355331
Aledo,Texas,5432,2073,Dallas-Fort Worth-Arlington,7543340,$152083,60.8%,39,$590000,2850,$207,10,88.38%,$2604,35.84%,N/A,N/A,1.01%,1.54%,70.66%,Parker County,14.70%,81.80%,0.28%,0.64%,79.27%,15.74%,1.23%,Central Standard Time,98,59,39,74,33,54%,50%,51,67,111,61%,71%,56%,37.82,8.38,6.63,21.12%,18.79%,20.44%,2.3,0,N/A,45.7,55,621,5.5,2.62,TX-01744,32.697388,-97.606867
Allen,Texas,107684,4079,Dallas-Fort Worth-Arlington,7543340,$129130,56.15%,39,$566000,2538,$223,18,77.26%,$1877,39.2%,83,1089,4.84%,4.31%,70.16%,Collin County,38.60%,55.20%,19.63%,10.62%,51.19%,11.77%,21.92%,Central Standard Time,96,56,40,74,33,54%,50%,51,67,106,61%,71%,56%,40.71,8.18,8.24,23.73%,20.77%,21.78%,3.4,0,N/A,45.7,61,561,5.6,26.4,TX-01924,33.1087688,-96.6735076
Alma,Texas,469,91,Dallas-Fort Worth-Arlington,7543340,$105300,14.78%,40,N/A,N/A,N/A,20,93.07%,$930,44.82%,N/A,N/A,2.56%,2.41%,70.12%,Ellis County,25.40%,70.10%,0.0%,1.28%,78.04%,19.83%,8.96%,Central Standard Time,97,58,39,75,35,54%,50%,51,67,109,61%,71%,56%,41.26,8.45,8.53,22.14%,18.13%,24.44%,2.1,0,N/A,45.7,63,423,5.5,5.17,TX-02044,32.281278,-96.549805
Alvarado,Texas,5424,1307,Dallas-Fort Worth-Arlington,7543340,$71296,9.73%,33,$280000,1647,$170,34,53.51%,$854,51.45%,380,1589,10.32%,3.14%,59.41%,Johnson County,19.10%,77.00%,0.0%,8.54%,59.38%,28.78%,6.36%,Central Standard Time,96,57,39,73,33,54%,50%,51,67,106,61%,71%,56%,39.45,7.94,7.23,18.74%,15.49%,18.56%,2.3,0,6.5,45.7,56,645,5.4,4.15,TX-02260,32.4067933,-97.2149429
Alvord,Texas,1318,867,Dallas-Fort Worth-Arlington,7543340,$70294,13.27%,29,$285000,1592,$179,38,65.4%,$1050,38.3%,N/A,N/A,7.51%,8.31%,66.74%,Wise County,13.80%,83.40%,0.0%,0.3%,88.47%,6.83%,1.06%,Central Standard Time,96,56,40,72,28,50%,46%,51,67,103,61%,71%,56%,37.31,10.0,5.76,20.77%,19.23%,18.22%,2.3,0,N/A,45.7,59,924,5.6,1.52,TX-02284,33.3569682,-97.6960255
Anna,Texas,20975,1275,Dallas-Fort Worth-Arlington,7543340,$99375,35.18%,32,$393000,2113,$186,10,77.54%,$1955,37.17%,118,885,10.15%,3.72%,72.89%,Collin County,38.60%,55.20%,0.89%,16.21%,60.35%,19.45%,9.44%,Central Standard Time,96,56,40,74,33,54%,50%,51,67,106,61%,71%,56%,43.38,8.77,9.0,24.16%,20.66%,23.44%,3.4,0,N/A,45.7,59,645,5.6,16.45,TX-03300,33.3471885,-96.5509194
Annetta,Texas,3172,846,Dallas-Fort Worth-Arlington,7543340,$173750,52.37%,39,$550000,2423,$227,20,98.62%,N/A,31.81%,N/A,N/A,1.77%,6.02%,70.43%,Parker County,14.70%,81.80%,1.23%,0.0%,85.56%,8.54%,1.17%,Central Standard Time,96,57,39,73,31,54%,50%,51,67,106,61%,71%,56%,33.88,8.23,5.83,19.45%,17.14%,19.0%,2.3,0,N/A,45.7,55,873,5.5,3.75,TX-03336,32.6937856,-97.6580953
Annetta North,Texas,524,139,Dallas-Fort Worth-Arlington,7543340,$163750,64.37%,43,N/A,N/A,N/A,24,93.23%,$1417,27.01%,N/A,N/A,2.68%,1.55%,68.07%,Parker County,14.70%,81.80%,0.57%,1.91%,80.92%,13.17%,7.25%,Central Standard Time,96,57,39,73,31,54%,50%,51,67,106,61%,71%,56%,33.88,8.23,5.83,19.45%,17.14%,19.0%,2.3,0,N/A,45.7,55,873,5.5,3.78,TX-03340,32.7279119,-97.7098983
Annetta South,Texas,752,394,Dallas-Fort Worth-Arlington,7543340,$136250,52.13%,41,N/A,N/A,N/A,29,99.26%,N/A,26.62%,N/A,N/A,0.4%,1.74%,69.31%,Parker County,14.70%,81.80%,2.93%,0.0%,90.03%,5.19%,2.26%,Central Standard Time,96,57,39,73,31,54%,50%,51,67,106,61%,71%,56%,33.88,8.23,5.83,19.45%,17.14%,19.0%,2.3,0,N/A,45.7,55,873,5.5,1.91,TX-03342,32.6686375,-97.642493
Argyle,Texas,4970,430,Dallas-Fort Worth-Arlington,7543340,$172604,63.62%,47,$650000,2790,$233,23,86.93%,N/A,26.13%,N/A,N/A,0.28%,0.66%,66.67%,Denton County,37.10%,57.10%,9.24%,1.55%,78.29%,8.99%,15.79%,Central Standard Time,96,56,40,74,32,54%,50%,51,67,107,61%,71%,56%,35.85,8.08,6.58,21.97%,19.56%,19.78%,2.3,0,N/A,45.7,53,588,5.6,11.56,TX-03768,33.1102072,-97.1866617
Arlington,Texas,394769,4118,Dallas-Fort Worth-Arlington,7543340,$73519,33.06%,34,$320000,1749,$183,35,59.02%,$1389,52.82%,510,2806,13.08%,5.73%,70.13%,Tarrant County,43.10%,51.70%,7.33%,22.44%,35.76%,31.02%,21.32%,Central Standard Time,97,58,39,75,36,54%,50%,51,67,109,61%,71%,56%,35.67,6.53,6.89,21.48%,18.24%,20.56%,2.3,0,N/A,45.7,46,576,5.7,95.87,TX-04000,32.6997793,-97.1250742
Aubrey,Texas,6637,2205,Dallas-Fort Worth-Arlington,7543340,$100596,35.98%,34,$390000,2120,$184,9,76.36%,$1827,44.76%,184,316,12.54%,2.33%,73.34%,Denton County,37.10%,57.10%,5.79%,17.48%,62.78%,6.01%,13.11%,Central Standard Time,96,56,40,75,34,54%,50%,51,67,107,61%,71%,56%,40.46,9.04,7.59,20.05%,17.36%,20.44%,3.4,0,N/A,45.7,60,528,5.6,3.01,TX-04600,33.3028487,-96.9837904
Aurora,Texas,1453,391,Dallas-Fort Worth-Arlington,7543340,$87708,19.4%,42,$565000,1565,$361,26,86.37%,$1272,45.45%,N/A,N/A,6.44%,6.28%,62.51%,Wise County,13.80%,83.40%,0.0%,1.79%,70.89%,23.19%,4.89%,Central Standard Time,98,58,40,77,36,54%,50%,51,67,111,61%,71%,56%,38.03,8.75,7.01,15.89%,13.63%,15.22%,2.3,0,N/A,45.7,40,618,5.6,3.72,TX-04672,33.0559431,-97.5096151
Azle,Texas,13734,1562,Dallas-Fort Worth-Arlington,7543340,$81200,22.45%,36,$330000,1919,$172,34,73.35%,$1341,39.39%,102,1723,12.69%,3.66%,63.99%,Tarrant County,43.10%,51.70%,0.38%,1.39%,78.08%,16.39%,2.64%,Central Standard Time,98,57,41,75,34,54%,50%,51,67,111,61%,71%,56%,37.56,8.46,6.82,20.49%,18.02%,19.89%,2.3,0,N/A,45.7,33,564,5.7,8.79,TX-05168,32.895476,-97.5378956
Balch Springs,Texas,27181,3013,Dallas-Fort Worth-Arlington,7543340,$70528,11.43%,34,$250000,1553,$161,33,70.07%,$1260,54.95%,646,3547,6.97%,8.33%,66.8%,Dallas County,60.20%,34.30%,0.11%,33.98%,14.39%,50.96%,22.56%,Central Standard Time,98,57,41,74,35,54%,50%,51,67,111,61%,71%,56%,41.99,9.29,8.41,17.4%,14.84%,17.11%,2.1,0,N/A,45.7,49,459,5.7,9.02,TX-05372,32.7193845,-96.6150657
Bardwell,Texas,786,2535,Dallas-Fort Worth-Arlington,7543340,$56797,9.7%,30,N/A,N/A,N/A,32,52.46%,$1269,55.43%,N/A,N/A,10.18%,11.36%,67.61%,Ellis County,25.40%,70.10%,0.0%,23.16%,34.22%,42.11%,9.41%,Central Standard Time,97,58,39,75,35,54%,50%,51,67,109,61%,71%,56%,41.26,8.45,8.53,22.14%,18.13%,24.44%,2.1,0,6.5,45.7,64,423,5.5,0.31,TX-05612,32.267076,-96.6955387
Bartonville,Texas,2022,296,Dallas-Fort Worth-Arlington,7543340,$148194,54.88%,47,N/A,N/A,N/A,29,93.79%,$1168,29.43%,114,456,5.29%,1.66%,55.05%,Denton County,37.10%,57.10%,0.64%,0.45%,80.76%,15.43%,8.46%,Central Standard Time,96,56,40,75,34,54%,50%,51,67,107,61%,71%,56%,39.58,8.69,7.63,17.95%,15.49%,18.67%,2.3,0,N/A,45.7,53,540,5.6,6.83,TX-05768,33.0789945,-97.1506428
Bedford,Texas,49191,4904,Dallas-Fort Worth-Arlington,7543340,$81393,40.86%,38,$406000,2010,$202,37,56.02%,$1429,51.18%,291,2029,7.19%,4.76%,70.35%,Tarrant County,43.10%,51.70%,5.04%,13.35%,59.49%,17.47%,12.26%,Central Standard Time,96,56,40,76,35,54%,50%,51,67,106,61%,71%,56%,39.68,8.9,7.6,22.05%,19.78%,20.0%,2.3,0,N/A,45.7,44,552,5.7,10.03,TX-07132,32.8464265,-97.1349988
Benbrook,Texas,24430,2270,Dallas-Fort Worth-Arlington,7543340,$82148,44.36%,39,$310000,1751,$177,36,75.46%,$1457,48.88%,159,1541,6.95%,3.81%,65.94%,Tarrant County,43.10%,51.70%,1.69%,5.37%,65.76%,24.15%,5.26%,Central Standard Time,98,59,39,74,33,54%,50%,51,67,111,61%,71%,56%,37.82,8.38,6.63,21.12%,18.79%,20.44%,2.3,0,N/A,45.7,40,621,5.7,10.76,TX-07552,32.6787504,-97.4638004
Blue Mound,Texas,2372,4651,Dallas-Fort Worth-Arlington,7543340,$64665,8.35%,38,$209000,1061,$197,50,79.54%,$1429,45.09%,201,1167,6.5%,3.48%,63.94%,Tarrant County,43.10%,51.70%,1.98%,1.43%,40.18%,54.89%,20.07%,Central Standard Time,98,60,38,76,36,54%,50%,51,67,111,61%,71%,56%,37.46,8.65,6.63,21.81%,19.01%,21.56%,2.3,0,N/A,45.7,37,687,5.7,0.51,TX-08860,32.8542567,-97.3383694
Blue Ridge,Texas,1135,1013,Dallas-Fort Worth-Arlington,7543340,$76296,12.77%,34,$189000,1000,$189,31,68.36%,$1399,52.77%,N/A,N/A,19.21%,2.43%,74.07%,Collin County,38.60%,55.20%,0.26%,0.44%,59.91%,36.39%,8.99%,Central Standard Time,96,56,40,74,33,54%,50%,51,67,106,61%,71%,56%,42.66,8.48,8.46,24.16%,20.66%,23.44%,3.4,0,N/A,45.7,65,606,5.6,1.12,TX-08872,33.2982244,-96.3976885
Boyd,Texas,1488,363,Dallas-Fort Worth-Arlington,7543340,$66944,12.12%,40,$565000,3005,$188,35,77.31%,$842,41.16%,66,264,9.81%,2.72%,60.13%,Wise County,13.80%,83.40%,0.0%,1.28%,67.94%,27.96%,9.41%,Central Standard Time,96,57,39,74,33,54%,50%,51,67,107,61%,71%,56%,38.89,9.64,6.6,20.68%,20.66%,17.89%,2.3,0,N/A,45.7,49,888,5.6,4.1,TX-09748,33.084348,-97.5632078
Brazos Bend,Texas,327,519,Dallas-Fort Worth-Arlington,7543340,N/A,N/A,N/A,$313000,1490,$210,N/A,N/A,N/A,N/A,N/A,N/A,N/A,N/A,N/A,Hood County,15.30%,81.40%,N/A,N/A,N/A,N/A,N/A,Central Standard Time,97,58,39,73,31,54%,50%,51,67,109,61%,71%,56%,34.87,7.69,7.02,20.49%,18.02%,18.78%,2.3,0,N/A,45.7,57,648,5.7,0.63,TX-10087,32.4751756,-97.7610337
Briar,Texas,6253,308,Dallas-Fort Worth-Arlington,7543340,$90972,17.74%,39,$535000,2346,$228,31,85.86%,$890,41.75%,N/A,N/A,10.79%,3.27%,60.54%,Tarrant County,43.10%,51.70%,0.58%,0.0%,85.1%,11.8%,4.21%,Central Standard Time,98,57,41,75,34,54%,50%,51,67,111,61%,71%,56%,38.03,8.75,7.01,20.71%,18.13%,19.56%,2.3,0,N/A,45.7,39,618,5.7,20.33,TX-10192,32.9669291,-97.5293722
Briaroaks,Texas,734,686,Dallas-Fort Worth-Arlington,7543340,$96071,35.6%,51,N/A,N/A,N/A,44,98.47%,N/A,38.87%,N/A,N/A,0.41%,2.13%,56.36%,Johnson County,19.10%,77.00%,0.0%,0.27%,90.74%,6.13%,3.27%,Central Standard Time,96,57,39,73,33,54%,50%,51,67,106,61%,71%,56%,36.69,7.11,6.85,18.74%,15.49%,18.56%,2.3,0,N/A,45.7,30,696,5.4,1.07,TX-10216,32.4957799,-97.3033156
Bridgeport,Texas,6174,788,Dallas-Fort Worth-Arlington,7543340,$93914,21.95%,34,$209000,1571,$133,44,61.82%,$1207,44.61%,329,1259,1.62%,2.48%,67.48%,Wise County,13.80%,83.40%,1.0%,4.55%,44.31%,45.82%,18.4%,Central Standard Time,96,57,39,72,30,54%,50%,51,67,106,61%,71%,56%,35.78,8.94,5.27,20.68%,20.66%,17.89%,2.3,0,N/A,45.7,45,702,5.6,7.84,TX-10264,33.2099519,-97.7707901
Bristol,Texas,566,98,Dallas-Fort Worth-Arlington,7543340,$69613,22.35%,55,N/A,N/A,N/A,35,72.67%,N/A,34.85%,N/A,N/A,17.67%,0.0%,66.28%,Ellis County,25.40%,70.10%,7.77%,0.0%,71.73%,20.49%,16.25%,Central Standard Time,98,57,41,74,35,54%,50%,51,67,111,61%,71%,56%,43.11,9.29,8.74,21.95%,17.91%,24.56%,2.1,0,N/A,45.7,63,333,5.5,5.78,TX-10336,32.4550365,-96.5672124
Burleson,Texas,50981,1804,Dallas-Fort Worth-Arlington,7543340,$94162,30.82%,35,$377000,2130,$177,18,67.47%,$1665,42.15%,231,1489,8.08%,3.82%,69.77%,Johnson County,19.10%,77.00%,1.42%,5.37%,69.04%,19.44%,4.49%,Central Standard Time,96,57,39,73,33,54%,50%,51,67,106,61%,71%,56%,36.69,7.11,6.85,18.74%,15.49%,18.56%,2.3,0,N/A,45.7,38,696,5.4,28.26,TX-11428,32.5169717,-97.3344548
Caddo Mills,Texas,2589,615,Dallas-Fort Worth-Arlington,7543340,$75385,23.88%,34,$321000,1707,$188,35,59.18%,$1103,37.91%,N/A,N/A,8.49%,5.51%,65.91%,Hunt County,20.30%,75.80%,0.15%,5.83%,71.26%,16.65%,4.29%,Central Standard Time,99,58,41,74,33,54%,50%,51,67,114,61%,71%,56%,44.59,9.54,8.83,22.49%,19.56%,23.67%,3.4,0,7.3,45.7,62,501,5.6,4.21,TX-11716,32.9960488,-96.2366755
Campbell,Texas,914,682,Dallas-Fort Worth-Arlington,7543340,$55818,14.41%,46,N/A,N/A,N/A,33,44.42%,$1108,43.01%,N/A,N/A,18.27%,18.22%,57.39%,Hunt County,20.30%,75.80%,0.88%,2.52%,84.68%,4.05%,1.31%,Central Standard Time,99,58,41,74,33,54%,50%,51,67,114,61%,71%,56%,45.59,8.9,9.3,21.01%,17.25%,20.89%,0.0,0,7.3,45.7,64,504,5.6,1.34,TX-12112,33.1480561,-95.9535076
Canyon Creek,Texas,963,410,Dallas-Fort Worth-Arlington,7543340,$90774,33.33%,42,$286000,1554,$184,12,80.25%,$1768,27.47%,N/A,N/A,0.83%,0.0%,55.95%,Hood County,15.30%,81.40%,0.0%,0.0%,73.52%,24.09%,2.18%,Central Standard Time,97,58,39,73,31,54%,50%,51,67,109,61%,71%,56%,34.87,7.69,7.02,20.85%,18.24%,20.22%,2.3,0,6.5,45.7,58,648,5.7,2.35,TX-12562,32.3926946,-97.7405158
Carrollton,Texas,132741,3621,Dallas-Fort Worth-Arlington,7543340,$99115,43.26%,38,$422000,1927,$219,32,62.92%,$1674,45.5%,N/A,N/A,6.85%,3.17%,74.14%,Denton County,37.10%,57.10%,16.41%,9.23%,39.16%,31.84%,26.9%,Central Standard Time,95,56,39,76,36,54%,50%,51,67,104,61%,71%,56%,41.09,8.47,8.31,17.95%,15.49%,18.67%,2.3,0,N/A,45.7,51,678,5.6,36.66,TX-13024,32.9889219,-96.8999809
Cedar Hill,Texas,48547,1356,Dallas-Fort Worth-Arlington,7543340,$90608,30.94%,35,$350000,2134,$164,26,74.21%,$1878,51.32%,202,2562,10.15%,7.27%,71.66%,Dallas County,60.20%,34.30%,1.72%,50.6%,16.2%,27.95%,11.43%,Central Standard Time,96,57,39,75,34,54%,50%,51,67,107,61%,71%,56%,41.82,8.39,8.28,18.14%,16.7%,17.56%,2.1,0,N/A,45.7,60,738,5.7,35.79,TX-13492,32.5809919,-96.9591619
Celeste,Texas,1084,809,Dallas-Fort Worth-Arlington,7543340,$56458,10.82%,27,$225000,1355,$166,48,67.88%,$1014,64.54%,N/A,N/A,23.36%,10.23%,57.1%,Hunt County,20.30%,75.80%,0.0%,0.92%,65.5%,20.85%,3.97%,Central Standard Time,99,58,41,74,33,54%,50%,51,67,114,61%,71%,56%,46.56,9.9,9.53,21.01%,17.25%,20.89%,3.4,0,N/A,45.7,66,498,5.6,1.34,TX-13672,33.2896747,-96.1944697
Celina,Texas,27141,841,Dallas-Fort Worth-Arlington,7543340,$155875,54.32%,37,$589000,2653,$222,8,87.63%,$2064,33.97%,85,665,6.07%,2.92%,69.08%,Collin County,38.60%,55.20%,11.91%,11.53%,53.25%,15.97%,16.87%,Central Standard Time,96,56,40,74,33,54%,50%,51,67,106,61%,71%,56%,42.33,8.98,8.28,23.1%,21.43%,22.78%,3.4,0,N/A,45.7,63,684,5.6,32.26,TX-13684,33.3154607,-96.7940102
Chico,Texas,1174,772,Dallas-Fort Worth-Arlington,7543340,$58125,10.26%,31,$150000,1064,$141,41,75.21%,$1130,41.74%,N/A,N/A,10.31%,13.49%,64.35%,Wise County,13.80%,83.40%,0.0%,0.26%,84.24%,12.86%,3.24%,Central Standard Time,96,57,39,72,30,50%,46%,51,67,103,61%,71%,56%,35.78,8.94,5.27,20.77%,19.23%,18.22%,2.3,0,N/A,45.7,50,702,5.6,1.52,TX-14620,33.2960564,-97.7986046
Cleburne,Texas,32966,923,Dallas-Fort Worth-Arlington,7543340,$66324,18.0%,35,$270000,1636,$165,39,64.23%,$1283,44.04%,327,1905,11.96%,1.75%,62.17%,Johnson County,19.10%,77.00%,0.66%,5.69%,57.8%,31.53%,7.16%,Central Standard Time,96,58,38,73,33,54%,50%,51,67,106,61%,71%,56%,38.54,8.21,6.94,18.74%,15.49%,18.56%,2.3,0,6.5,45.7,53,717,5.4,35.7,TX-15364,32.3569214,-97.4151556
Cockrell Hill,Texas,3736,6441,Dallas-Fort Worth-Arlington,7543340,$53788,11.46%,35,$290000,1408,$206,66,64.79%,$1058,53.31%,N/A,N/A,7.22%,10.33%,63.19%,Dallas County,60.20%,34.30%,0.0%,4.07%,12.69%,83.24%,28.51%,Central Standard Time,98,58,40,76,38,54%,50%,51,67,111,61%,71%,56%,37.99,7.51,7.33,22.79%,19.56%,21.44%,2.1,0,N/A,45.7,52,603,5.7,0.58,TX-15796,32.738177,-96.8885804
Colleyville,Texas,25906,1975,Dallas-Fort Worth-Arlington,7543340,$203566,70.32%,46,$822000,3411,$241,26,96.94%,$3194,28.81%,18,614,2.7%,3.77%,63.64%,Tarrant County,43.10%,51.70%,8.69%,3.93%,72.04%,11.25%,9.68%,Central Standard Time,97,56,41,75,34,54%,50%,51,67,109,61%,71%,56%,38.63,8.65,7.43,24.85%,20.55%,25.11%,2.3,0,N/A,45.7,46,588,5.7,13.12,TX-15988,32.8913756,-97.1486714
Combine,Texas,2780,382,Dallas-Fort Worth-Arlington,7543340,$92360,21.6%,39,$465000,2279,$204,29,95.51%,$1663,36.73%,N/A,N/A,7.68%,8.68%,67.38%,Kaufman County,24.90%,71.70%,1.15%,2.63%,66.8%,22.7%,13.09%,Central Standard Time,98,57,41,74,35,54%,50%,51,67,111,61%,71%,56%,41.35,8.56,8.48,17.4%,14.84%,17.11%,2.1,0,N/A,45.7,63,429,5.5,7.28,TX-16216,32.5879808,-96.536712
Commerce,Texas,9211,1106,Dallas-Fort Worth-Arlington,7543340,$43051,25.7%,24,$224000,1982,$113,45,40.6%,$902,70.25%,N/A,N/A,26.74%,4.16%,58.85%,Hunt County,20.30%,75.80%,2.46%,17.78%,52.02%,22.6%,9.43%,Central Standard Time,99,58,41,74,33,54%,50%,51,67,114,61%,71%,56%,45.59,8.9,9.3,21.01%,17.25%,20.89%,0.0,0,7.3,45.7,56,504,5.6,8.33,TX-16240,33.2420417,-95.8991688
Cool,Texas,116,70,Dallas-Fort Worth-Arlington,7543340,$52188,23.08%,52,$380000,2000,$190,33,89.33%,$2100,49.54%,N/A,N/A,16.38%,0.0%,60.55%,Parker County,14.70%,81.80%,0.0%,0.0%,89.66%,10.34%,3.45%,Central Standard Time,97,59,38,73,32,54%,50%,51,67,109,61%,71%,56%,32.02,7.81,5.0,19.42%,18.24%,17.11%,2.3,0,N/A,45.7,62,852,5.5,1.65,TX-16540,32.8000697,-98.0112638
Coppell,Texas,42029,2915,Dallas-Fort Worth-Arlington,7543340,$139227,68.14%,41,$525000,2117,$248,27,75.88%,$1851,35.63%,59,1244,4.03%,1.98%,72.46%,Dallas County,60.20%,34.30%,29.12%,4.94%,46.72%,15.91%,27.69%,Central Standard Time,97,56,41,75,34,54%,50%,51,67,109,61%,71%,56%,39.63,8.21,7.38,24.85%,20.55%,25.11%,2.3,0,N/A,45.7,49,534,5.7,14.42,TX-16612,32.9638422,-96.9902551
Copper Canyon,Texas,2257,493,Dallas-Fort Worth-Arlington,7543340,$143304,56.26%,54,$946000,3112,$304,18,97.15%,$1946,24.98%,N/A,N/A,0.66%,8.04%,60.9%,Denton County,37.10%,57.10%,3.37%,0.62%,83.47%,6.51%,10.28%,Central Standard Time,96,56,40,75,34,54%,50%,51,67,107,61%,71%,56%,39.58,8.69,7.63,17.95%,15.49%,18.67%,2.3,0,N/A,45.7,52,540,5.6,4.58,TX-16636,33.0962412,-97.0976245
Corinth,Texas,22868,2943,Dallas-Fort Worth-Arlington,7543340,$118949,43.56%,39,$435000,2500,$174,23,84.01%,$1826,38.59%,72,760,3.89%,1.94%,70.38%,Denton County,37.10%,57.10%,4.76%,8.04%,67.48%,15.6%,9.61%,Central Standard Time,96,56,40,75,34,54%,50%,51,67,107,61%,71%,56%,38.88,8.04,7.31,20.05%,17.36%,20.44%,3.4,0,N/A,45.7,52,576,5.6,7.77,TX-16696,33.1433683,-97.0681997
Corral City,Texas,7,47,Dallas-Fort Worth-Arlington,7543340,N/A,N/A,N/A,N/A,N/A,N/A,N/A,N/A,N/A,N/A,N/A,N/A,N/A,N/A,N/A,Denton County,37.10%,57.10%,N/A,N/A,N/A,N/A,N/A,Central Standard Time,96,56,40,74,32,54%,50%,51,67,107,61%,71%,56%,39.9,9.14,7.2,15.89%,13.63%,15.22%,2.3,0,N/A,45.7,43,585,5.6,0.15,TX-17024,33.1001215,-97.2261266
Cottonwood,Texas,335,236,Dallas-Fort Worth-Arlington,7543340,$100417,19.33%,40,N/A,N/A,N/A,31,80.5%,N/A,42.01%,N/A,N/A,12.54%,9.68%,80.97%,Kaufman County,24.90%,71.70%,0.0%,0.3%,79.7%,6.27%,0.0%,Central Standard Time,98,57,41,74,35,54%,50%,51,67,111,61%,71%,56%,43.11,9.29,8.74,21.95%,17.91%,24.56%,2.1,0,N/A,45.7,65,333,5.5,1.42,TX-17200,32.4676475,-96.3839233
Coyote Flats,Texas,367,110,Dallas-Fort Worth-Arlington,7543340,$62750,4.43%,49,$440000,1826,$241,24,89.02%,$1469,39.16%,N/A,N/A,17.49%,2.35%,57.05%,Johnson County,19.10%,77.00%,0.0%,0.0%,76.57%,22.62%,1.36%,Central Standard Time,96,58,38,73,33,54%,50%,51,67,106,61%,71%,56%,39.71,8.81,7.12,18.74%,15.49%,18.56%,2.3,0,6.5,45.7,58,75,5.4,3.33,TX-17429,32.3528116,-97.2944087
Crandall,Texas,4307,983,Dallas-Fort Worth-Arlington,7543340,$105556,17.03%,34,$316000,1708,$185,13,86.23%,$1274,44.71%,414,2020,16.81%,4.15%,71.34%,Kaufman County,24.90%,71.70%,1.0%,4.9%,57.09%,35.48%,17.0%,Central Standard Time,97,58,39,75,35,54%,50%,51,67,109,61%,71%,56%,41.63,8.14,8.89,21.95%,17.91%,24.56%,2.1,0,N/A,45.7,64,393,5.5,4.38,TX-17504,32.6231565,-96.452528
Cresson,Texas,1556,135,Dallas-Fort Worth-Arlington,7543340,$85625,22.03%,33,$225000,1679,$134,12,83.48%,$1534,36.55%,N/A,N/A,6.36%,5.73%,62.39%,Parker County,14.70%,81.80%,0.84%,5.46%,66.84%,18.7%,1.74%,Central Standard Time,97,58,39,73,31,54%,50%,51,67,109,61%,71%,56%,36.59,7.67,6.16,20.49%,18.02%,18.78%,2.3,0,N/A,45.7,53,951,5.7,11.55,TX-17648,32.5298859,-97.6153873
Cross Roads,Texas,2090,310,Dallas-Fort Worth-Arlington,7543340,$115000,42.23%,40,$850000,3680,$231,6,94.95%,$1893,29.58%,N/A,N/A,4.59%,8.39%,68.54%,Denton County,37.10%,57.10%,2.63%,2.87%,68.71%,15.41%,13.73%,Central Standard Time,96,56,40,75,34,54%,50%,51,67,107,61%,71%,56%,41.71,9.9,7.96,20.05%,17.36%,20.44%,3.4,0,N/A,45.7,62,504,5.6,6.74,TX-17852,33.230647,-97.001896
Cross Timber,Texas,848,601,Dallas-Fort Worth-Arlington,7543340,$83889,28.6%,35,N/A,N/A,N/A,12,93.06%,$1894,52.23%,N/A,N/A,31.37%,4.27%,73.96%,Johnson County,19.10%,77.00%,0.71%,0.0%,54.01%,42.69%,1.42%,Central Standard Time,96,57,39,73,33,54%,50%,51,67,106,61%,71%,56%,36.69,7.11,6.85,18.74%,15.49%,18.56%,2.3,0,N/A,45.7,47,696,5.4,1.41,TX-17917,32.4832396,-97.3259277
Crowley,Texas,19007,2600,Dallas-Fort Worth-Arlington,7543340,$92599,26.74%,34,$305000,1763,$173,17,72.74%,$1659,48.61%,237,2608,6.47%,4.94%,72.68%,Tarrant County,43.10%,51.70%,2.54%,21.36%,44.42%,31.03%,7.42%,Central Standard Time,96,57,39,73,33,54%,50%,51,67,106,61%,71%,56%,36.69,7.11,6.85,18.74%,15.49%,18.56%,2.3,0,N/A,45.7,44,696,5.7,7.31,TX-17960,32.5781332,-97.3585185
Dallas,Texas,1299553,3827,Dallas-Fort Worth-Arlington,7543340,$67760,37.43%,33,$414000,1690,$245,40,45.65%,$1403,57.26%,862,3321,17.16%,4.93%,68.85%,Dallas County,60.20%,34.30%,3.68%,23.74%,28.18%,41.94%,23.39%,Central Standard Time,98,58,40,78,38,54%,50%,51,67,111,61%,71%,56%,42.13,9.1,8.35,22.14%,19.56%,21.78%,2.1,0,N/A,45.7,45,450,5.7,339.58,TX-19000,32.7935588,-96.7667098
Dalworthington Gardens,Texas,2061,1151,Dallas-Fort Worth-Arlington,7543340,$138542,50.88%,53,$244000,1730,$141,34,80.35%,$1782,36.23%,83,915,3.78%,3.58%,61.64%,Tarrant County,43.10%,51.70%,11.84%,5.92%,68.61%,11.31%,12.28%,Central Standard Time,97,58,39,75,36,54%,50%,51,67,109,61%,71%,56%,35.67,6.53,6.89,21.48%,18.24%,20.56%,2.3,0,N/A,45.7,48,576,5.7,1.79,TX-19084,32.6936949,-97.1566689
Decatur,Texas,7087,807,Dallas-Fort Worth-Arlington,7543340,$71919,23.23%,38,$295000,1505,$196,32,64.26%,$1089,50.46%,112,3471,7.31%,1.48%,60.23%,Wise County,13.80%,83.40%,1.26%,0.32%,64.17%,34.47%,13.46%,Central Standard Time,96,57,39,74,33,54%,50%,51,67,107,61%,71%,56%,38.89,9.64,6.6,20.68%,20.66%,17.89%,2.3,0,N/A,45.7,50,888,5.6,8.78,TX-19528,33.2262639,-97.5876115
DeCordova,Texas,3086,2189,Dallas-Fort Worth-Arlington,7543340,$113676,54.8%,55,$350000,2303,$152,33,97.22%,N/A,30.13%,N/A,N/A,4.57%,4.65%,53.25%,Hood County,15.30%,81.40%,0.42%,0.29%,94.59%,2.75%,2.04%,Central Standard Time,97,58,39,73,31,54%,50%,51,67,109,61%,71%,56%,36.59,7.67,6.16,20.49%,18.02%,18.78%,2.3,0,6.5,45.7,52,951,5.7,1.41,TX-19570,32.4278934,-97.6911676
Denton,Texas,146987,1526,Dallas-Fort Worth-Arlington,7543340,$73719,41.88%,31,$381000,1995,$191,25,53.23%,$1344,57.67%,233,1883,15.93%,5.23%,66.99%,Denton County,37.10%,57.10%,3.91%,11.69%,54.59%,25.14%,12.75%,Central Standard Time,96,56,40,75,34,54%,50%,51,67,107,61%,71%,56%,38.88,8.04,7.31,20.05%,17.36%,20.44%,3.4,0,N/A,45.7,45,576,5.6,96.35,TX-19972,33.2174811,-97.141831
DeSoto,Texas,55896,2584,Dallas-Fort Worth-Arlington,7543340,$83256,29.86%,42,$350000,2288,$153,27,67.14%,$1478,56.8%,325,2198,7.35%,7.52%,68.73%,Dallas County,60.20%,34.30%,0.57%,68.22%,8.1%,19.17%,8.54%,Central Standard Time,98,58,40,76,38,54%,50%,51,67,111,61%,71%,56%,41.84,8.55,8.16,22.79%,19.56%,21.44%,2.1,0,N/A,45.7,56,561,5.7,21.63,TX-20092,32.5991674,-96.8633334
DISH,Texas,614,372,Dallas-Fort Worth-Arlington,7543340,$148750,33.1%,40,N/A,N/A,N/A,7,98.17%,N/A,20.38%,N/A,N/A,1.63%,0.83%,76.97%,Denton County,37.10%,57.10%,2.61%,2.77%,80.62%,11.24%,1.95%,Central Standard Time,96,56,40,74,32,54%,50%,51,67,107,61%,71%,56%,39.9,9.14,7.2,15.89%,13.63%,15.22%,2.3,0,N/A,45.7,43,585,5.6,1.65,TX-20540,33.1330712,-97.3012733
Double Oak,Texas,3060,1249,Dallas-Fort Worth-Arlington,7543340,$180208,53.23%,46,$800000,4103,$195,32,97.7%,$1375,31.09%,0,65,4.12%,2.1%,58.97%,Denton County,37.10%,57.10%,2.35%,3.14%,79.61%,8.79%,7.03%,Central Standard Time,97,56,41,75,34,54%,50%,51,67,109,61%,71%,56%,39.58,8.69,7.63,17.95%,15.49%,18.67%,2.3,0,N/A,45.7,51,540,5.6,2.45,TX-21028,33.0632884,-97.1116468
Duncanville,Texas,39879,3561,Dallas-Fort Worth-Arlington,7543340,$71381,23.7%,37,$300000,1796,$167,42,65.49%,$1562,54.5%,441,2779,9.94%,7.32%,62.11%,Dallas County,60.20%,34.30%,1.3%,30.64%,22.74%,43.11%,15.86%,Central Standard Time,98,58,40,76,38,54%,50%,51,67,111,61%,71%,56%,44.52,9.18,8.11,25.51%,21.21%,25.11%,2.1,0,N/A,45.7,55,645,5.7,11.2,TX-21628,32.6459616,-96.9127368
Edgecliff Village,Texas,3752,3153,Dallas-Fort Worth-Arlington,7543340,$85236,25.39%,40,$341000,2105,$162,43,80.41%,$1793,44.39%,N/A,N/A,4.68%,12.2%,64.97%,Tarrant County,43.10%,51.70%,5.01%,13.51%,38.97%,39.66%,16.55%,Central Standard Time,98,59,39,74,33,54%,50%,51,67,111,61%,71%,56%,38.83,8.04,7.18,21.12%,18.79%,20.44%,2.3,0,N/A,45.7,42,696,5.7,1.19,TX-22588,32.6560773,-97.3405975
Elmo,Texas,1377,337,Dallas-Fort Worth-Arlington,7543340,$36923,7.51%,46,$205000,1165,$176,34,49.45%,N/A,54.03%,N/A,N/A,0.8%,16.9%,57.65%,Kaufman County,24.90%,71.70%,0.0%,2.4%,76.18%,19.54%,4.21%,Central Standard Time,97,58,39,75,35,54%,50%,51,67,109,61%,71%,56%,38.08,7.7,8.0,23.21%,18.9%,23.44%,0.0,0,7.3,45.7,64,435,5.5,4.09,TX-23356,32.7315298,-96.1589207
Ennis,Texas,21546,663,Dallas-Fort Worth-Arlington,7543340,$72772,19.88%,35,$270000,1688,$160,33,61.55%,$1233,51.88%,84,1657,11.32%,2.95%,71.11%,Ellis County,25.40%,70.10%,0.0%,11.1%,38.97%,47.13%,16.46%,Central Standard Time,97,58,39,75,35,54%,50%,51,67,109,61%,71%,56%,41.26,8.45,8.53,22.14%,18.13%,24.44%,2.1,0,N/A,45.7,58,423,5.5,32.5,TX-24348,32.3254484,-96.6348044
Euless,Texas,60373,3745,Dallas-Fort Worth-Arlington,7543340,$80987,39.43%,34,$373000,1776,$210,34,44.74%,$1606,52.25%,184,2040,7.03%,5.02%,76.88%,Tarrant County,43.10%,51.70%,13.42%,17.34%,39.86%,19.19%,20.29%,Central Standard Time,97,57,40,77,36,54%,50%,51,67,109,61%,71%,56%,39.68,8.9,7.6,21.26%,18.24%,21.56%,2.3,0,N/A,45.7,38,552,5.7,16.12,TX-24768,32.8508043,-97.0798933
Everman,Texas,6060,3443,Dallas-Fort Worth-Arlington,7543340,$60068,13.23%,36,$206000,1304,$158,51,67.67%,$1190,52.67%,N/A,N/A,21.37%,9.42%,59.87%,Tarrant County,43.10%,51.70%,0.33%,26.17%,19.93%,52.19%,15.46%,Central Standard Time,96,57,39,73,33,54%,50%,51,67,106,61%,71%,56%,38.83,8.04,7.18,18.74%,15.49%,18.56%,2.3,0,N/A,45.7,44,696,5.7,1.76,TX-24912,32.6295981,-97.2827906
Fairview,Texas,10570,1192,Dallas-Fort Worth-Arlington,7543340,$107308,61.7%,50,$620000,2470,$251,14,79.43%,$1875,36.77%,128,449,15.67%,2.59%,43.42%,Collin County,38.60%,55.20%,4.66%,8.26%,78.15%,7.35%,9.99%,Central Standard Time,96,56,40,74,33,54%,50%,51,67,106,61%,71%,56%,40.71,8.18,8.24,23.73%,20.77%,21.78%,3.4,0,N/A,45.7,62,561,5.6,8.87,TX-25224,33.13992,-96.6115962
Farmers Branch,Texas,36254,3052,Dallas-Fort Worth-Arlington,7543340,$87702,48.21%,34,$415000,1708,$243,27,56.4%,$1820,51.25%,150,2241,10.99%,2.57%,75.76%,Dallas County,60.20%,34.30%,11.42%,8.3%,35.29%,42.6%,31.26%,Central Standard Time,98,58,40,78,38,54%,50%,51,67,111,61%,71%,56%,43.07,9.38,8.49,23.12%,20.66%,22.56%,2.1,0,N/A,45.7,47,477,5.7,11.88,TX-25452,32.9272036,-96.8804722
Farmersville,Texas,3851,937,Dallas-Fort Worth-Arlington,7543340,$47016,8.96%,38,$323000,1755,$184,49,58.29%,$1503,58.92%,200,1202,12.94%,7.88%,55.31%,Collin County,38.60%,55.20%,0.0%,9.24%,53.18%,36.85%,9.84%,Central Standard Time,96,56,40,74,33,54%,50%,51,67,106,61%,71%,56%,44.59,9.54,8.83,22.49%,19.56%,23.67%,3.4,0,N/A,45.7,65,501,5.6,4.11,TX-25488,33.1607055,-96.3604245
Fate,Texas,20757,1752,Dallas-Fort Worth-Arlington,7543340,$129500,41.09%,32,$385000,2238,$172,7,91.92%,$2528,40.02%,39,474,3.77%,6.22%,74.91%,Rockwall County,24.00%,70.80%,3.01%,11.56%,49.81%,32.74%,10.79%,Central Standard Time,97,58,39,75,35,54%,50%,51,67,109,61%,71%,56%,44.59,9.54,8.83,22.49%,19.56%,23.67%,2.1,0,N/A,45.7,61,501,5.4,11.85,TX-25572,32.9428979,-96.3857943
Ferris,Texas,2932,632,Dallas-Fort Worth-Arlington,7543340,$71583,17.56%,30,$320000,1850,$173,37,61.68%,$1145,30.84%,208,2294,9.69%,0.64%,70.75%,Ellis County,25.40%,70.10%,0.0%,19.51%,21.96%,56.55%,8.02%,Central Standard Time,98,57,41,74,35,54%,50%,51,67,111,61%,71%,56%,41.35,8.56,8.48,17.4%,14.84%,17.11%,2.1,0,N/A,45.7,62,429,5.5,4.64,TX-25752,32.5369411,-96.6737582
Flower Mound,Texas,77886,1856,Dallas-Fort Worth-Arlington,7543340,$157737,64.34%,43,$618000,2664,$232,23,87.54%,$2221,34.02%,54,923,4.02%,3.23%,71.09%,Denton County,37.10%,57.10%,13.46%,3.42%,66.06%,12.97%,15.46%,Central Standard Time,97,56,41,75,34,54%,50%,51,67,109,61%,71%,56%,39.58,8.69,7.63,17.95%,15.49%,18.67%,2.3,0,N/A,45.7,47,540,5.6,41.96,TX-26232,33.0343231,-97.1146307
Forest Hill,Texas,13923,3339,Dallas-Fort Worth-Arlington,7543340,$59653,12.44%,33,$292000,1825,$160,50,73.77%,$1506,54.52%,276,3168,15.13%,5.59%,60.49%,Tarrant County,43.10%,51.70%,0.0%,43.97%,7.25%,48.22%,22.85%,Central Standard Time,97,58,39,75,36,54%,50%,51,67,109,61%,71%,56%,38.83,8.04,7.18,21.48%,18.24%,20.56%,2.3,0,N/A,45.7,45,696,5.7,4.17,TX-26544,32.6619363,-97.2662356
Forney,Texas,28222,1906,Dallas-Fort Worth-Arlington,7543340,$103360,35.02%,32,$360000,2143,$168,11,82.98%,$1665,45.35%,126,1190,7.25%,5.2%,75.25%,Kaufman County,24.90%,71.70%,3.06%,15.46%,59.73%,18.79%,6.1%,Central Standard Time,97,58,39,75,35,54%,50%,51,67,109,61%,71%,56%,41.92,8.88,8.36,23.21%,18.9%,23.44%,2.1,0,N/A,45.7,62,453,5.5,14.81,TX-26604,32.7440465,-96.4529301
Fort Worth,Texas,941311,2711,Dallas-Fort Worth-Arlington,7543340,$76602,31.67%,33,$340000,1910,$178,28,60.99%,$1412,51.22%,444,2688,12.86%,4.9%,68.51%,Tarrant County,43.10%,51.70%,5.24%,19.54%,37.3%,34.63%,17.03%,Central Standard Time,98,60,38,76,36,54%,50%,51,67,111,61%,71%,56%,35.02,8.2,6.39,20.49%,18.02%,19.89%,2.3,0,N/A,45.7,40,645,5.7,347.27,TX-27000,32.7817769,-97.3473886
Frisco,Texas,210238,3063,Dallas-Fort Worth-Arlington,7543340,$146158,65.97%,38,$680000,2764,$246,11,77.08%,$1902,36.56%,80,1198,3.54%,4.17%,71.81%,Collin County,38.60%,55.20%,26.96%,8.65%,47.71%,12.69%,26.5%,Central Standard Time,95,56,39,76,36,54%,50%,51,67,104,61%,71%,56%,42.33,8.98,8.28,23.1%,21.43%,22.78%,3.4,0,N/A,45.7,59,684,5.6,68.64,TX-27684,33.1559627,-96.8216311
Garland,Texas,245298,4294,Dallas-Fort Worth-Arlington,7543340,$74717,25.01%,35,$328000,1745,$188,42,64.04%,$1525,48.08%,302,2583,12.27%,4.92%,68.81%,Dallas County,60.20%,34.30%,11.17%,15.31%,24.54%,44.97%,31.21%,Central Standard Time,95,56,39,76,36,54%,50%,51,67,104,61%,71%,56%,42.44,8.86,8.37,26.03%,21.1%,27.78%,2.1,0,N/A,45.7,57,495,5.7,57.13,TX-29000,32.9100616,-96.6303724
Garrett,Texas,1067,593,Dallas-Fort Worth-Arlington,7543340,$76458,1.92%,26,$288000,2198,$131,32,64.29%,$958,46.2%,N/A,N/A,5.15%,13.14%,73.85%,Ellis County,25.40%,70.10%,0.0%,15.56%,18.74%,67.76%,24.74%,Central Standard Time,97,58,39,75,35,54%,50%,51,67,109,61%,71%,56%,41.26,8.45,8.53,22.14%,18.13%,24.44%,2.1,0,N/A,45.7,61,423,5.5,1.8,TX-29036,32.3680591,-96.6543432
Glen Rose,Texas,2770,708,Dallas-Fort Worth-Arlington,7543340,$75000,23.9%,44,N/A,N/A,N/A,32,73.26%,$946,42.34%,N/A,N/A,7.12%,1.98%,60.97%,Somervell County,13.90%,82.30%,0.0%,0.58%,81.23%,14.77%,6.1%,Central Standard Time,97,58,39,73,31,56%,50%,51,67,108,61%,71%,56%,37.17,8.67,6.35,20.85%,18.24%,20.22%,2.3,0,6.5,45.7,58,594,5.2,3.91,TX-29876,32.2461183,-97.7441692
Glenn Heights,Texas,17175,2382,Dallas-Fort Worth-Arlington,7543340,$79739,25.53%,35,$368000,2300,$160,20,81.56%,$1544,51.15%,332,1841,11.81%,6.86%,72.47%,Dallas County,60.20%,34.30%,0.75%,44.75%,21.08%,32.97%,9.07%,Central Standard Time,98,58,40,76,38,54%,50%,51,67,111,61%,71%,56%,41.49,8.55,7.98,23.42%,19.89%,23.0%,2.1,0,N/A,45.7,57,657,5.7,7.21,TX-29840,32.5506425,-96.8547929
Godley,Texas,2223,1020,Dallas-Fort Worth-Arlington,7543340,$93182,25.16%,35,$470000,2398,$196,9,65.19%,$1647,23.94%,N/A,N/A,12.18%,4.9%,74.2%,Johnson County,19.10%,77.00%,0.0%,0.76%,71.79%,23.3%,3.51%,Central Standard Time,96,57,39,73,33,54%,50%,51,67,106,61%,71%,56%,36.59,7.67,6.16,20.49%,18.02%,18.78%,2.3,0,6.5,45.7,56,951,5.4,2.18,TX-29972,32.4549833,-97.5302389
Granbury,Texas,11665,721,Dallas-Fort Worth-Arlington,7543340,$68839,30.38%,50,$358000,1855,$193,17,57.06%,$1387,42.67%,241,4129,10.45%,3.2%,49.85%,Hood County,15.30%,81.40%,0.92%,1.28%,84.5%,9.38%,1.48%,Central Standard Time,97,58,39,73,31,54%,50%,51,67,109,61%,71%,56%,34.87,7.69,7.02,20.85%,18.24%,20.22%,2.3,0,6.5,45.7,57,648,5.7,16.18,TX-30416,32.4057423,-97.7940713
Grand Prairie,Texas,198564,2736,Dallas-Fort Worth-Arlington,7543340,$78889,29.05%,34,$350000,1966,$178,29,66.66%,$1470,47.64%,217,2101,12.01%,5.15%,69.66%,Dallas County,60.20%,34.30%,6.46%,24.64%,20.11%,47.19%,23.73%,Central Standard Time,96,57,39,75,34,54%,50%,51,67,107,61%,71%,56%,41.25,8.78,7.89,18.14%,16.7%,17.56%,2.3,0,N/A,45.7,49,471,5.7,72.57,TX-30464,32.6870477,-97.0208197
Grandview,Texas,2004,1107,Dallas-Fort Worth-Arlington,7543340,$93790,15.82%,34,$253000,1360,$186,36,70.38%,$1036,45.65%,N/A,N/A,7.0%,1.83%,68.55%,Johnson County,19.10%,77.00%,2.99%,2.54%,66.32%,26.35%,2.54%,Central Standard Time,96,58,38,73,33,54%,50%,51,67,106,61%,71%,56%,41.08,9.07,7.72,22.88%,16.7%,26.22%,2.3,0,6.5,45.7,61,501,5.4,1.81,TX-30512,32.2684954,-97.1774965
Grapevine,Texas,50875,1583,Dallas-Fort Worth-Arlington,7543340,$111438,57.53%,40,$595000,2399,$248,28,59.84%,$1806,42.99%,N/A,N/A,6.48%,4.14%,75.85%,Tarrant County,43.10%,51.70%,7.58%,4.94%,63.33%,19.54%,16.64%,Central Standard Time,97,56,41,75,34,54%,50%,51,67,109,61%,71%,56%,39.63,8.21,7.38,24.85%,20.55%,25.11%,2.3,0,N/A,45.7,32,534,5.7,32.14,TX-30644,32.9343516,-97.0742534
Grays Prairie,Texas,378,310,Dallas-Fort Worth-Arlington,7543340,$118750,20.31%,45,N/A,N/A,N/A,31,95.73%,$675,36.36%,N/A,N/A,2.38%,0.0%,72.04%,Kaufman County,24.90%,71.70%,0.0%,6.08%,80.69%,11.64%,2.12%,Central Standard Time,97,58,39,75,35,54%,50%,51,67,109,61%,71%,56%,43.11,9.29,8.74,21.95%,17.91%,24.56%,2.1,0,7.3,45.7,65,333,5.5,1.22,TX-30752,32.4734233,-96.350227
Greenville,Texas,29936,927,Dallas-Fort Worth-Arlington,7543340,$63574,21.45%,35,$246000,1509,$163,42,53.37%,$1274,50.69%,269,2219,13.16%,6.28%,63.78%,Hunt County,20.30%,75.80%,1.23%,15.27%,56.02%,23.94%,9.21%,Central Standard Time,99,58,41,74,33,54%,50%,51,67,114,61%,71%,56%,46.56,9.9,9.53,21.01%,17.25%,20.89%,0.0,0,7.3,45.7,59,498,5.6,32.29,TX-30920,33.1116068,-96.1098601
Hackberry,Texas,2927,4304,Dallas-Fort Worth-Arlington,7543340,$118000,47.76%,33,N/A,N/A,N/A,8,77.08%,$2173,35.42%,N/A,N/A,10.96%,2.91%,78.71%,Denton County,37.10%,57.10%,15.65%,14.55%,43.18%,22.07%,30.88%,Central Standard Time,96,56,40,75,34,54%,50%,51,67,107,61%,71%,56%,40.35,8.92,7.59,17.95%,15.49%,18.67%,3.4,0,N/A,45.7,64,525,5.6,0.68,TX-31715,33.1501112,-96.9184067
Haltom City,Texas,45681,3699,Dallas-Fort Worth-Arlington,7543340,$56156,12.18%,35,$279000,1423,$196,43,52.26%,$1329,53.55%,282,2626,14.51%,3.72%,66.14%,Tarrant County,43.10%,51.70%,7.96%,6.75%,38.59%,43.75%,23.79%,Central Standard Time,95,56,39,76,35,54%,50%,51,67,104,61%,71%,56%,38.05,9.62,6.94,21.81%,19.01%,21.56%,2.3,0,N/A,45.7,37,588,5.7,12.35,TX-31928,32.8175921,-97.2706897
Haslet,Texas,2710,303,Dallas-Fort Worth-Arlington,7543340,$146161,40.68%,43,$605000,2909,$208,14,95.61%,$1786,31.92%,N/A,N/A,2.14%,1.0%,69.57%,Tarrant County,43.10%,51.70%,8.34%,5.79%,71.4%,10.74%,9.23%,Central Standard Time,98,58,40,77,36,54%,50%,51,67,111,61%,71%,56%,35.8,8.72,6.12,20.71%,18.13%,19.56%,2.3,0,N/A,45.7,36,627,5.7,8.93,TX-32720,32.9609938,-97.3387497
Hawk Cove,Texas,387,1046,Dallas-Fort Worth-Arlington,7543340,$36042,4.18%,44,N/A,N/A,N/A,35,81.97%,$1208,54.55%,N/A,N/A,17.31%,4.02%,55.06%,Hunt County,20.30%,75.80%,0.0%,3.36%,67.7%,22.74%,7.24%,Central Standard Time,95,55,40,73,33,54%,50%,51,67,104,61%,71%,56%,45.44,8.9,10.2,23.67%,19.67%,25.56%,0.0,0,7.3,45.7,65,462,5.6,0.37,TX-32810,32.8839731,-96.0832735
Heath,Texas,10218,827,Dallas-Fort Worth-Arlington,7543340,$216160,60.58%,43,$770000,3684,$209,19,92.84%,$1854,30.73%,130,501,2.37%,3.35%,58.31%,Rockwall County,24.00%,70.80%,1.96%,0.3%,84.07%,10.81%,3.06%,Central Standard Time,97,58,39,75,35,54%,50%,51,67,109,61%,71%,56%,43.64,10.3,9.02,22.49%,19.56%,23.67%,2.1,0,N/A,45.7,62,477,5.4,12.36,TX-32984,32.8438327,-96.4674248
Hebron,Texas,245,742,Dallas-Fort Worth-Arlington,7543340,$211364,60.51%,50,N/A,N/A,N/A,10,92.76%,$1333,31.25%,N/A,N/A,0.82%,0.63%,71.43%,Denton County,37.10%,57.10%,3.67%,19.59%,66.12%,8.98%,5.31%,Central Standard Time,95,56,39,76,36,54%,50%,51,67,104,61%,71%,56%,41.09,8.47,8.31,17.95%,15.49%,18.67%,2.3,0,N/A,45.7,55,678,5.6,0.33,TX-33020,33.0277402,-96.8935072
Hickory Creek,Texas,5161,1080,Dallas-Fort Worth-Arlington,7543340,$144434,50.33%,38,$599000,3041,$197,11,75.64%,$2133,38.42%,101,1155,0.72%,1.04%,84.78%,Denton County,37.10%,57.10%,5.77%,2.98%,76.17%,12.21%,11.51%,Central Standard Time,96,56,40,75,34,54%,50%,51,67,107,61%,71%,56%,35.08,8.28,6.9,17.95%,15.49%,18.67%,2.3,0,N/A,45.7,54,510,5.6,4.78,TX-33476,33.1109422,-97.030812
Highland Park,Texas,8774,3917,Dallas-Fort Worth-Arlington,7543340,$250001,88.31%,46,$3218000,3877,$830,47,86.05%,$2216,31.55%,97,2075,6.28%,5.02%,54.96%,Dallas County,60.20%,34.30%,3.59%,0.85%,89.06%,4.24%,6.93%,Central Standard Time,98,58,40,78,38,54%,50%,51,67,111,61%,71%,56%,42.13,9.1,8.35,23.12%,20.66%,22.56%,2.1,0,N/A,45.7,46,450,5.7,2.24,TX-33824,32.8310563,-96.8012344
Highland Village,Texas,16004,2894,Dallas-Fort Worth-Arlington,7543340,$164459,55.09%,43,$570000,2714,$210,27,94.0%,$2434,33.98%,47,645,2.24%,3.35%,66.14%,Denton County,37.10%,57.10%,3.01%,4.73%,77.81%,11.98%,7.22%,Central Standard Time,96,56,40,75,34,54%,50%,51,67,107,61%,71%,56%,39.58,8.69,7.63,17.95%,15.49%,18.67%,2.3,0,N/A,45.7,51,540,5.6,5.53,TX-33848,33.0896452,-97.0614881
Horseshoe Bend,Texas,709,430,Dallas-Fort Worth-Arlington,7543340,$41875,20.96%,59,N/A,N/A,N/A,30,60.87%,N/A,52.75%,N/A,N/A,17.35%,12.1%,52.47%,Parker County,14.70%,81.80%,0.0%,0.0%,100.0%,0.0%,0.0%,Central Standard Time,97,58,39,73,31,54%,50%,51,67,109,61%,71%,56%,34.52,7.95,5.99,19.45%,17.14%,19.0%,2.3,0,N/A,45.7,58,735,5.5,1.65,TX-34865,32.5752361,-97.8782381
Hudson Oaks,Texas,2484,801,Dallas-Fort Worth-Arlington,7543340,$138500,50.47%,40,$225000,1009,$223,18,95.06%,$1330,41.25%,238,2624,2.42%,2.4%,69.97%,Parker County,14.70%,81.80%,0.93%,13.08%,77.42%,6.04%,1.81%,Central Standard Time,96,57,39,73,31,54%,50%,51,67,106,61%,71%,56%,33.88,8.23,5.83,19.45%,17.14%,19.0%,2.3,0,N/A,45.7,56,873,5.5,3.1,TX-35254,32.7508691,-97.7000667
Hurst,Texas,39912,4007,Dallas-Fort Worth-Arlington,7543340,$71743,33.17%,38,$345000,1734,$199,46,56.56%,$1319,47.38%,209,3576,10.42%,3.02%,67.63%,Tarrant County,43.10%,51.70%,4.44%,9.14%,54.33%,27.02%,14.81%,Central Standard Time,95,56,39,76,35,54%,50%,51,67,104,61%,71%,56%,39.68,8.9,7.6,21.81%,19.01%,21.56%,2.3,0,N/A,45.7,44,552,5.7,9.96,TX-35576,32.835246,-97.1808224
Hutchins,Texas,5713,628,Dallas-Fort Worth-Arlington,7543340,$45250,6.07%,30,$281000,1479,$190,24,59.72%,$1370,60.49%,398,3670,28.38%,2.42%,48.6%,Dallas County,60.20%,34.30%,0.19%,37.91%,9.92%,49.47%,19.99%,Central Standard Time,98,57,41,74,35,54%,50%,51,67,111,61%,71%,56%,41.84,8.55,8.16,17.4%,14.84%,17.11%,2.1,0,N/A,45.7,54,561,5.7,9.09,TX-35612,32.6421259,-96.709289
Irving,Texas,255036,3808,Dallas-Fort Worth-Arlington,7543340,$79641,41.57%,33,$378000,1835,$206,34,42.67%,$1517,47.46%,251,2437,10.97%,4.3%,72.06%,Dallas County,60.20%,34.30%,22.62%,12.9%,18.64%,42.96%,41.86%,Central Standard Time,97,57,40,77,36,54%,50%,51,67,109,61%,71%,56%,37.09,7.8,7.81,21.26%,18.24%,21.56%,2.3,0,N/A,45.7,49,513,5.7,66.98,TX-37000,32.858278,-96.9701973
Italy,Texas,2460,1367,Dallas-Fort Worth-Arlington,7543340,$59082,15.81%,28,$280000,1772,$158,44,55.26%,$1304,57.96%,N/A,N/A,12.3%,4.4%,57.01%,Ellis County,25.40%,70.10%,0.0%,17.28%,55.89%,23.41%,3.33%,Central Standard Time,97,58,39,75,35,54%,50%,53,68,109,61%,71%,56%,41.08,9.07,7.72,22.88%,16.7%,26.22%,0.7,0,6.5,43.1,66,501,5.5,1.8,TX-37072,32.1857479,-96.8866264
Josephine,Texas,4498,2485,Dallas-Fort Worth-Arlington,7543340,$99063,31.3%,31,$333000,1690,$197,8,89.05%,$1367,33.96%,N/A,N/A,4.98%,1.42%,68.03%,Collin County,38.60%,55.20%,0.24%,11.78%,64.56%,19.41%,8.29%,Central Standard Time,99,58,41,74,33,54%,50%,51,67,114,61%,71%,56%,44.59,9.54,8.83,22.49%,19.56%,23.67%,3.4,0,N/A,45.7,64,501,5.6,1.81,TX-38068,33.0617663,-96.3186553
Joshua,Texas,8279,905,Dallas-Fort Worth-Arlington,7543340,$60466,29.51%,37,$378000,2077,$182,27,68.89%,$1286,48.37%,73,665,18.73%,1.49%,63.05%,Johnson County,19.10%,77.00%,0.29%,4.3%,78.19%,13.41%,4.58%,Central Standard Time,96,57,39,73,33,54%,50%,51,67,106,61%,71%,56%,39.71,8.81,7.12,18.74%,15.49%,18.56%,2.3,0,N/A,45.7,52,75,5.4,9.15,TX-38080,32.4579716,-97.3848661
Justin,Texas,5068,1550,Dallas-Fort Worth-Arlington,7543340,$93887,36.0%,38,$416000,2178,$191,11,87.32%,$1475,29.93%,N/A,N/A,0.3%,4.71%,69.78%,Denton County,37.10%,57.10%,0.81%,4.46%,60.77%,23.48%,3.39%,Central Standard Time,98,58,40,77,36,54%,50%,51,67,111,61%,71%,56%,39.9,9.14,7.2,15.89%,13.63%,15.22%,2.3,0,N/A,45.7,42,585,5.6,3.27,TX-38332,33.0882318,-97.3041308
Kaufman,Texas,8010,885,Dallas-Fort Worth-Arlington,7543340,$58269,15.25%,33,$325000,1923,$169,43,54.97%,$1319,64.93%,224,1965,14.99%,4.87%,66.91%,Kaufman County,24.90%,71.70%,0.0%,11.76%,52.78%,33.5%,10.66%,Central Standard Time,97,58,39,75,35,54%,50%,51,67,109,61%,71%,56%,41.63,8.14,8.89,23.21%,18.9%,23.44%,2.1,0,7.3,45.7,61,393,5.5,9.05,TX-38488,32.5766556,-96.3157517
Keene,Texas,6574,1325,Dallas-Fort Worth-Arlington,7543340,$50796,25.6%,34,$269000,1387,$194,35,45.75%,$950,52.68%,151,698,13.07%,5.04%,62.2%,Johnson County,19.10%,77.00%,5.22%,2.27%,58.2%,30.24%,15.01%,Central Standard Time,96,58,38,73,33,54%,50%,51,67,106,61%,71%,56%,39.71,8.81,7.12,18.74%,15.49%,18.56%,2.3,0,6.5,45.7,56,75,5.4,4.96,TX-38548,32.3955434,-97.3224575
Keller,Texas,45598,2484,Dallas-Fort Worth-Arlington,7543340,$172654,60.1%,44,$648000,2880,$225,21,84.75%,$1985,33.42%,51,721,3.2%,2.99%,66.33%,Tarrant County,43.10%,51.70%,6.11%,2.86%,76.76%,10.71%,11.04%,Central Standard Time,98,58,40,77,36,54%,50%,51,67,111,61%,71%,56%,39.96,9.57,7.58,20.71%,18.13%,19.56%,2.3,0,N/A,45.7,49,630,5.7,18.36,TX-38632,32.9334953,-97.2256542
Kemp,Texas,1389,652,Dallas-Fort Worth-Arlington,7543340,$69875,14.97%,39,$228000,1583,$144,43,51.05%,$1080,45.65%,N/A,N/A,11.12%,1.34%,57.09%,Kaufman County,24.90%,71.70%,0.0%,2.38%,73.07%,22.82%,2.09%,Central Standard Time,97,58,39,75,35,54%,50%,51,67,109,61%,71%,56%,43.11,9.29,8.74,21.95%,17.91%,24.56%,0.9,0,7.3,45.7,64,333,5.5,2.13,TX-38788,32.4228456,-96.2298352
Kennedale,Texas,8954,1355,Dallas-Fort Worth-Arlington,7543340,$117853,28.92%,41,$396000,1970,$201,25,70.56%,$1215,45.0%,216,1512,5.01%,2.43%,72.22%,Tarrant County,43.10%,51.70%,4.01%,18.96%,56.37%,17.6%,10.26%,Central Standard Time,97,58,39,75,36,54%,50%,51,67,109,61%,71%,56%,35.67,6.53,6.89,21.48%,18.24%,20.56%,2.3,0,N/A,45.7,44,576,5.7,6.61,TX-38896,32.6434618,-97.2172017
Krugerville,Texas,1929,1461,Dallas-Fort Worth-Arlington,7543340,$121952,38.23%,49,$496000,2624,$189,19,93.43%,N/A,27.87%,N/A,N/A,1.5%,3.64%,67.05%,Denton County,37.10%,57.10%,3.27%,6.07%,81.08%,7.83%,14.2%,Central Standard Time,96,56,40,75,34,54%,50%,51,67,107,61%,71%,56%,40.46,9.04,7.59,20.05%,17.36%,20.44%,3.4,0,N/A,45.7,60,528,5.6,1.32,TX-39916,33.278955,-96.9879584
Krum,Texas,5896,2285,Dallas-Fort Worth-Arlington,7543340,$111316,36.91%,37,$328000,1864,$176,16,86.42%,$1669,47.02%,N/A,N/A,6.05%,0.87%,68.46%,Denton County,37.10%,57.10%,2.07%,0.7%,86.23%,6.34%,4.97%,Central Standard Time,96,56,40,74,32,54%,50%,51,67,107,61%,71%,56%,35.85,8.08,6.58,21.97%,19.56%,19.78%,3.4,0,N/A,45.7,50,588,5.6,2.58,TX-39928,33.2655313,-97.2251607
Lake Bridgeport,Texas,347,738,Dallas-Fort Worth-Arlington,7543340,$71538,20.25%,49,N/A,N/A,N/A,36,57.7%,$1286,47.65%,N/A,N/A,11.82%,1.52%,63.34%,Wise County,13.80%,83.40%,0.0%,0.0%,90.78%,7.2%,2.31%,Central Standard Time,96,57,39,72,30,50%,46%,51,67,103,61%,71%,56%,35.78,8.94,5.27,20.68%,20.66%,17.89%,2.3,0,N/A,45.7,50,702,5.6,0.47,TX-40450,33.2072789,-97.8309882
Lake Dallas,Texas,7761,3194,Dallas-Fort Worth-Arlington,7543340,$74241,30.26%,40,$396000,2152,$184,21,67.36%,$1507,42.86%,273,1453,2.36%,2.78%,69.93%,Denton County,37.10%,57.10%,0.68%,7.6%,53.1%,36.64%,25.43%,Central Standard Time,96,56,40,75,34,54%,50%,51,67,107,61%,71%,56%,35.08,8.28,6.9,17.95%,15.49%,18.67%,3.4,0,N/A,45.7,54,510,5.6,2.43,TX-40516,33.1278579,-97.023371
Lake Worth,Texas,4667,1897,Dallas-Fort Worth-Arlington,7543340,$83869,20.86%,45,$270000,1500,$180,53,78.46%,$1342,54.4%,120,6749,16.51%,8.98%,63.52%,Tarrant County,43.10%,51.70%,0.0%,2.1%,60.51%,35.33%,11.93%,Central Standard Time,99,60,39,78,37,54%,50%,51,67,114,61%,71%,56%,34.64,7.91,6.48,20.49%,18.02%,19.89%,2.3,0,N/A,45.7,31,555,5.7,2.46,TX-41056,32.812972,-97.4305473
Lakeside (Tarrant Cnty),Texas,1495,854,Dallas-Fort Worth-Arlington,7543340,$108214,26.74%,46,$330000,1784,$185,51,94.66%,$1609,34.45%,185,1610,7.1%,2.95%,63.25%,Tarrant County,43.10%,51.70%,0.0%,3.61%,79.46%,9.5%,1.94%,Central Standard Time,98,57,41,75,34,54%,50%,51,67,111,61%,71%,56%,37.56,8.46,6.82,20.49%,18.02%,19.89%,2.3,0,N/A,45.7,45,564,5.7,1.75,TX-40744,32.8222501,-97.4867064
Lakewood Village,Texas,784,1045,Dallas-Fort Worth-Arlington,7543340,$154219,37.46%,49,N/A,N/A,N/A,18,99.28%,N/A,35.17%,N/A,N/A,4.08%,2.01%,69.46%,Denton County,37.10%,57.10%,8.16%,0.77%,72.45%,17.22%,6.12%,Central Standard Time,96,56,40,75,34,54%,50%,51,67,107,61%,71%,56%,41.71,9.9,7.96,17.95%,15.49%,18.67%,3.4,0,N/A,45.7,63,504,5.6,0.75,TX-41050,33.1378766,-96.9750839
Lancaster,Texas,40753,1233,Dallas-Fort Worth-Arlington,7543340,$67584,25.66%,35,$305000,1794,$170,30,63.02%,$1627,53.06%,369,2548,14.36%,6.81%,66.66%,Dallas County,60.20%,34.30%,1.0%,64.55%,9.56%,23.62%,7.94%,Central Standard Time,98,57,41,74,35,54%,50%,51,67,111,61%,71%,56%,41.84,8.55,8.16,17.4%,14.84%,17.11%,2.1,0,N/A,45.7,45,561,5.7,33.06,TX-41212,32.5922596,-96.7739443
Lantana,Texas,12583,5400,Dallas-Fort Worth-Arlington,7543340,$200147,72.8%,40,$619000,3142,$197,13,95.21%,$3410,27.11%,N/A,N/A,1.3%,2.56%,61.09%,Denton County,37.10%,57.10%,6.58%,4.87%,76.62%,8.37%,14.21%,Central Standard Time,96,56,40,75,34,54%,50%,51,67,107,61%,71%,56%,39.58,8.69,7.63,17.95%,15.49%,18.67%,2.3,0,N/A,45.7,54,540,5.6,2.33,TX-41404,33.09073,-97.12416
Lavon,Texas,5624,1850,Dallas-Fort Worth-Arlington,7543340,$132778,37.02%,33,$397000,2363,$168,13,87.59%,$1780,36.78%,106,585,1.19%,2.71%,77.94%,Collin County,38.60%,55.20%,4.5%,9.48%,52.93%,25.94%,8.52%,Central Standard Time,96,56,40,74,33,54%,50%,51,67,106,61%,71%,56%,44.59,9.54,8.83,22.49%,19.56%,23.67%,3.4,0,N/A,45.7,64,501,5.6,3.04,TX-41800,33.0252795,-96.4380119
Lewisville,Texas,128313,3467,Dallas-Fort Worth-Arlington,7543340,$85002,39.43%,35,$435000,2014,$216,24,48.68%,$1572,50.64%,221,1967,7.6%,3.73%,75.65%,Denton County,37.10%,57.10%,13.83%,13.8%,38.98%,29.27%,22.86%,Central Standard Time,97,56,41,75,34,54%,50%,51,67,109,61%,71%,56%,35.08,8.28,6.9,17.95%,15.49%,18.67%,2.3,0,N/A,45.7,47,510,5.6,37.01,TX-42508,33.045433,-96.9815749
Lincoln Park,Texas,145,906,Dallas-Fort Worth-Arlington,7543340,N/A,N/A,N/A,$420000,2386,$176,N/A,N/A,N/A,N/A,N/A,N/A,N/A,N/A,N/A,Denton County,37.10%,57.10%,N/A,N/A,N/A,N/A,N/A,Central Standard Time,96,56,40,75,34,54%,50%,51,67,107,61%,71%,56%,40.46,9.04,7.59,20.05%,17.36%,20.44%,3.4,0,N/A,45.7,62,528,5.6,0.16,TX-42808,33.2240342,-96.9726727
Lipan,Texas,446,421,Dallas-Fort Worth-Arlington,7543340,$69063,18.08%,36,N/A,N/A,N/A,47,86.89%,$1175,40.74%,N/A,N/A,8.74%,7.14%,61.1%,Hood County,15.30%,81.40%,0.67%,0.0%,85.65%,10.99%,2.02%,Central Standard Time,97,58,39,73,31,54%,50%,51,67,109,61%,71%,56%,34.77,8.23,5.44,19.42%,18.24%,17.11%,2.3,0,N/A,45.7,64,903,5.7,1.06,TX-42940,32.5186509,-98.047055
Little Elm,Texas,51426,2846,Dallas-Fort Worth-Arlington,7543340,$116036,40.63%,36,$450000,2296,$196,10,71.71%,$1900,43.04%,N/A,N/A,8.99%,6.31%,74.52%,Denton County,37.10%,57.10%,10.36%,19.56%,42.74%,21.06%,18.78%,Central Standard Time,96,56,40,75,34,54%,50%,51,67,107,61%,71%,56%,40.35,8.92,7.59,23.1%,21.43%,22.78%,3.4,0,N/A,45.7,63,525,5.6,18.07,TX-43012,33.1858233,-96.9294824
Lone Oak,Texas,541,487,Dallas-Fort Worth-Arlington,7543340,$65972,20.95%,39,$173000,1210,$143,21,80.03%,$1017,42.53%,N/A,N/A,3.33%,6.09%,64.14%,Hunt County,20.30%,75.80%,5.18%,7.76%,77.08%,1.48%,4.62%,Central Standard Time,95,55,40,73,33,54%,50%,51,67,104,61%,71%,56%,44.28,9.38,9.82,26.47%,20.22%,29.11%,0.0,0,7.3,45.7,64,495,5.6,1.11,TX-43636,32.9961029,-95.9406577
Lowry Crossing,Texas,1842,711,Dallas-Fort Worth-Arlington,7543340,$110357,29.24%,43,$1025000,3463,$296,26,94.94%,$1167,34.08%,N/A,N/A,4.89%,4.78%,64.94%,Collin County,38.60%,55.20%,0.92%,1.63%,75.35%,16.4%,10.37%,Central Standard Time,96,56,40,74,33,54%,50%,51,67,106,61%,71%,56%,39.24,7.41,8.0,23.73%,20.77%,21.78%,3.4,0,N/A,45.7,64,531,5.6,2.59,TX-44308,33.1710028,-96.5443303
Mansfield,Texas,75398,2059,Dallas-Fort Worth-Arlington,7543340,$116590,43.23%,36,$489000,2615,$187,16,79.26%,$1798,44.19%,89,1049,6.35%,3.62%,72.21%,Tarrant County,43.10%,51.70%,4.81%,23.61%,50.46%,16.98%,12.34%,Central Standard Time,97,58,39,75,36,54%,50%,51,67,109,61%,71%,56%,39.03,7.75,7.24,21.48%,18.24%,20.56%,2.3,0,N/A,45.7,48,555,5.7,36.62,TX-46452,32.5690156,-97.1212642
Maypearl,Texas,1328,1640,Dallas-Fort Worth-Arlington,7543340,$74583,19.54%,29,$351000,2029,$173,39,46.81%,$1398,25.96%,N/A,N/A,0.68%,6.93%,83.03%,Ellis County,25.40%,70.10%,0.45%,0.08%,75.6%,23.64%,1.36%,Central Standard Time,98,59,39,75,34,54%,50%,51,67,111,61%,71%,56%,41.08,9.07,7.72,28.82%,26.92%,27.78%,2.1,0,6.5,45.7,65,501,5.5,0.81,TX-47268,32.313892,-97.0054809
McKinney,Texas,202314,3021,Dallas-Fort Worth-Arlington,7543340,$120273,52.58%,37,$517000,2329,$222,14,69.69%,$1841,41.14%,143,993,6.07%,3.45%,71.38%,Collin County,38.60%,55.20%,12.99%,12.27%,53.39%,17.0%,18.38%,Central Standard Time,96,56,40,74,33,54%,50%,51,67,106,61%,71%,56%,43.2,9.33,8.36,23.73%,20.77%,21.78%,3.4,0,N/A,45.7,61,552,5.6,66.96,TX-45744,33.201516,-96.6669419
McLendon-Chisholm,Texas,4121,330,Dallas-Fort Worth-Arlington,7543340,$196458,48.57%,41,$625000,3079,$203,11,98.1%,N/A,29.76%,N/A,N/A,0.22%,1.64%,74.38%,Rockwall County,24.00%,70.80%,3.11%,11.79%,70.32%,12.06%,6.92%,Central Standard Time,97,58,39,75,35,54%,50%,51,67,109,61%,71%,56%,41.92,8.88,8.36,23.21%,18.9%,23.44%,2.1,0,N/A,45.7,61,453,5.4,12.5,TX-45804,32.8423476,-96.3805389
Melissa,Texas,17497,1528,Dallas-Fort Worth-Arlington,7543340,$137875,52.22%,37,$510000,2550,$200,5,82.55%,$2341,31.67%,62,678,2.58%,3.69%,71.48%,Collin County,38.60%,55.20%,4.69%,17.72%,60.04%,13.62%,11.17%,Central Standard Time,96,56,40,74,33,54%,50%,51,67,106,61%,71%,56%,43.07,7.95,8.98,24.16%,20.66%,23.44%,3.4,0,N/A,45.7,59,531,5.6,11.45,TX-47496,33.2890941,-96.5572485
Mesquite,Texas,148848,3070,Dallas-Fort Worth-Arlington,7543340,$71843,18.51%,33,$298000,1693,$176,37,61.29%,$1407,52.75%,478,3632,12.37%,4.77%,69.94%,Dallas County,60.20%,34.30%,3.05%,24.74%,24.35%,44.66%,20.99%,Central Standard Time,98,57,41,74,35,54%,50%,51,67,111,61%,71%,56%,41.99,9.29,8.41,17.4%,14.84%,17.11%,2.1,0,N/A,45.7,53,459,5.7,48.48,TX-47892,32.7602086,-96.5864698
Midlothian,Texas,37256,587,Dallas-Fort Worth-Arlington,7543340,$122643,35.17%,36,$485000,2566,$189,14,81.56%,$1867,38.97%,N/A,N/A,6.49%,3.49%,73.4%,Ellis County,25.40%,70.10%,0.45%,11.05%,64.59%,19.73%,5.41%,Central Standard Time,96,57,39,75,34,54%,50%,51,67,107,61%,71%,56%,42.93,9.07,7.38,28.82%,26.92%,27.78%,2.1,0,N/A,45.7,61,687,5.5,63.5,TX-48096,32.4668552,-96.988994
Milford,Texas,1033,420,Dallas-Fort Worth-Arlington,7543340,N/A,7.15%,39,$227000,1261,$180,67,56.53%,$933,52.84%,N/A,N/A,19.92%,9.58%,55.23%,Ellis County,25.40%,70.10%,0.0%,25.07%,51.4%,18.78%,0.48%,Central Standard Time,98,59,39,75,34,56%,50%,53,68,110,61%,71%,56%,41.48,8.49,7.8,22.88%,16.7%,26.22%,0.7,0,6.5,43.1,66,597,5.5,2.46,TX-48408,32.1213867,-96.9497881
Millsap,Texas,520,354,Dallas-Fort Worth-Arlington,7543340,$69167,20.16%,38,N/A,N/A,N/A,45,84.26%,$1031,40.57%,N/A,N/A,19.37%,9.31%,59.66%,Parker County,14.70%,81.80%,0.38%,0.0%,78.85%,15.38%,5.19%,Central Standard Time,97,59,38,73,32,54%,50%,51,67,109,61%,71%,56%,32.02,7.81,5.0,19.42%,18.24%,17.11%,2.3,0,N/A,45.7,60,852,5.5,1.47,TX-48564,32.7492507,-98.0116525
Mobile City,Texas,316,15800,Dallas-Fort Worth-Arlington,7543340,N/A,0.0%,19,N/A,N/A,N/A,34,19.42%,$1162,94.44%,N/A,N/A,54.75%,3.81%,64.81%,Rockwall County,24.00%,70.80%,0.0%,0.0%,4.75%,95.25%,23.73%,Central Standard Time,97,58,39,75,35,54%,50%,51,67,109,61%,71%,56%,44.59,9.54,8.83,22.49%,19.56%,23.67%,2.1,0,N/A,45.7,61,501,5.4,0.02,TX-48858,32.9228316,-96.4111491
Murphy,Texas,21001,3691,Dallas-Fort Worth-Arlington,7543340,$165109,56.86%,40,$581000,3074,$189,15,86.07%,$2640,35.13%,42,500,2.24%,4.03%,68.09%,Collin County,38.60%,55.20%,33.42%,10.87%,49.93%,3.0%,25.52%,Central Standard Time,95,56,39,76,36,54%,50%,51,67,104,61%,71%,56%,43.08,8.47,8.53,22.49%,19.56%,23.67%,3.4,0,N/A,45.7,63,516,5.6,5.69,TX-50100,33.0186276,-96.6105188
Nevada,Texas,1292,541,Dallas-Fort Worth-Arlington,7543340,$133750,37.17%,41,$490000,2121,$231,11,91.51%,$1696,32.71%,N/A,N/A,5.57%,2.28%,60.39%,Collin County,38.60%,55.20%,4.1%,0.31%,76.32%,17.41%,6.73%,Central Standard Time,96,56,40,74,33,54%,50%,51,67,106,61%,71%,56%,44.59,9.54,8.83,22.49%,19.56%,23.67%,3.4,0,N/A,45.7,64,501,5.6,2.39,TX-50760,33.0385804,-96.3693915
New Hope,Texas,705,493,Dallas-Fort Worth-Arlington,7543340,$65625,31.7%,53,N/A,N/A,N/A,35,86.33%,$1841,42.28%,N/A,N/A,8.94%,2.29%,56.82%,Collin County,38.60%,55.20%,3.55%,0.0%,78.01%,6.24%,4.96%,Central Standard Time,96,56,40,74,33,54%,50%,51,67,106,61%,71%,56%,39.24,7.41,8.0,23.73%,20.77%,21.78%,3.4,0,N/A,45.7,63,531,5.6,1.43,TX-51036,33.2115302,-96.5634944
Newark,Texas,1221,1357,Dallas-Fort Worth-Arlington,7543340,$57000,13.57%,33,N/A,N/A,N/A,26,61.44%,$1144,44.36%,N/A,N/A,26.62%,6.94%,62.44%,Wise County,13.80%,83.40%,0.57%,0.0%,60.11%,35.38%,9.83%,Central Standard Time,98,58,40,77,36,54%,50%,51,67,111,61%,71%,56%,38.03,8.75,7.01,20.71%,18.13%,19.56%,2.3,0,N/A,45.7,39,618,5.6,0.9,TX-50772,32.9995153,-97.488418
Neylandville,Texas,91,284,Dallas-Fort Worth-Arlington,7543340,$32109,2.74%,47,N/A,N/A,N/A,25,21.76%,$1150,36.36%,N/A,N/A,24.18%,0.0%,32.47%,Hunt County,20.30%,75.80%,0.0%,53.85%,5.49%,40.66%,36.26%,Central Standard Time,99,58,41,74,33,54%,50%,51,67,114,61%,71%,56%,45.59,8.9,9.3,21.01%,17.25%,20.89%,0.0,0,7.3,45.7,64,504,5.6,0.32,TX-51444,33.1967331,-96.0055665
North Richland Hills,Texas,70338,3873,Dallas-Fort Worth-Arlington,7543340,$93434,36.24%,40,$365000,1843,$198,34,67.7%,$1609,44.75%,199,1780,6.13%,2.89%,68.44%,Tarrant County,43.10%,51.70%,2.94%,6.62%,67.34%,19.3%,9.74%,Central Standard Time,95,56,39,76,35,54%,50%,51,67,104,61%,71%,56%,37.41,8.6,6.92,21.81%,19.01%,21.56%,2.3,0,N/A,45.7,43,570,5.7,18.16,TX-52356,32.8604816,-97.2179901
Northlake,Texas,7138,404,Dallas-Fort Worth-Arlington,7543340,$119803,49.03%,28,$530000,2335,$227,6,56.19%,$1671,38.45%,149,1736,8.2%,6.2%,84.97%,Denton County,37.10%,57.10%,1.79%,12.44%,59.18%,22.19%,6.5%,Central Standard Time,98,58,40,77,36,54%,50%,51,67,111,61%,71%,56%,39.9,9.14,7.2,15.89%,13.63%,15.22%,2.3,0,N/A,45.7,42,585,5.6,17.66,TX-52212,33.0810057,-97.2547506
Oak Leaf,Texas,1752,742,Dallas-Fort Worth-Arlington,7543340,$162083,41.99%,50,N/A,N/A,N/A,34,89.71%,N/A,31.54%,N/A,N/A,1.71%,5.98%,63.86%,Ellis County,25.40%,70.10%,4.22%,12.5%,62.27%,19.52%,7.42%,Central Standard Time,96,57,39,75,34,54%,50%,51,67,107,61%,71%,56%,41.49,8.55,7.98,23.42%,19.89%,23.0%,2.1,0,N/A,45.7,59,657,5.5,2.36,TX-53115,32.5073519,-96.865219
Oak Point,Texas,5395,921,Dallas-Fort Worth-Arlington,7543340,$109528,44.83%,34,$700000,3167,$221,13,85.76%,$2215,43.51%,N/A,N/A,1.51%,1.35%,72.79%,Denton County,37.10%,57.10%,4.41%,5.88%,55.51%,26.34%,12.36%,Central Standard Time,96,56,40,75,34,54%,50%,51,67,107,61%,71%,56%,41.71,9.9,7.96,20.05%,17.36%,20.44%,3.4,0,N/A,45.7,63,504,5.6,5.86,TX-53130,33.1795131,-96.9907522
Oak Ridge (Kaufman Cnty),Texas,811,268,Dallas-Fort Worth-Arlington,7543340,$92750,17.14%,36,$430000,2000,$215,20,95.04%,$1054,40.16%,N/A,N/A,2.49%,10.13%,60.92%,Kaufman County,24.90%,71.70%,0.0%,9.25%,49.08%,36.25%,8.51%,Central Standard Time,97,58,39,75,35,54%,50%,51,67,109,61%,71%,56%,38.08,7.7,8.0,23.21%,18.9%,23.44%,2.1,0,7.3,45.7,60,435,5.5,3.03,TX-53160,32.6347258,-96.252563
Oak Trail Shores,Texas,2900,1142,Dallas-Fort Worth-Arlington,7543340,$33272,20.56%,41,$211000,1407,$150,36,82.21%,$1364,51.62%,N/A,N/A,18.97%,11.72%,56.32%,Hood County,15.30%,81.40%,0.55%,0.0%,56.24%,36.62%,11.83%,Central Standard Time,97,58,39,73,31,54%,50%,51,67,109,61%,71%,56%,34.87,7.69,7.02,20.49%,18.02%,18.78%,2.3,0,N/A,45.7,59,648,5.7,2.54,TX-53212,32.4884789,-97.8356571
Palmer,Texas,2449,787,Dallas-Fort Worth-Arlington,7543340,$87379,13.47%,31,$341000,1680,$203,32,65.67%,$1709,44.56%,0,1587,8.33%,8.07%,75.93%,Ellis County,25.40%,70.10%,0.0%,1.06%,59.94%,35.28%,7.27%,Central Standard Time,98,57,41,74,35,54%,50%,51,67,111,61%,71%,56%,41.35,8.56,8.48,17.4%,14.84%,17.11%,2.1,0,N/A,45.7,63,429,5.5,3.11,TX-54744,32.4258929,-96.6723903
Paloma Creek,Texas,3250,7065,Dallas-Fort Worth-Arlington,7543340,$88850,37.63%,32,$375000,2467,$152,12,79.04%,$2732,40.37%,N/A,N/A,9.02%,1.28%,81.25%,Denton County,37.10%,57.10%,3.51%,12.37%,50.89%,28.09%,10.09%,Central Standard Time,96,56,40,75,34,54%,50%,51,67,107,61%,71%,56%,40.46,9.04,7.59,23.1%,21.43%,22.78%,3.4,0,N/A,45.7,63,528,5.6,0.46,TX-54868,33.225336,-96.9369974
Paloma Creek South,Texas,8797,6982,Dallas-Fort Worth-Arlington,7543340,$137585,46.54%,34,$406000,2051,$198,9,86.75%,$2366,33.3%,N/A,N/A,1.76%,3.74%,81.9%,Denton County,37.10%,57.10%,3.63%,37.39%,35.03%,15.01%,9.24%,Central Standard Time,96,56,40,75,34,54%,50%,51,67,107,61%,71%,56%,40.46,9.04,7.59,23.1%,21.43%,22.78%,3.4,0,N/A,45.7,63,528,5.6,1.26,TX-54872,33.2100196,-96.9326858
Pantego,Texas,2467,2372,Dallas-Fort Worth-Arlington,7543340,$64955,42.76%,43,N/A,N/A,N/A,45,69.34%,$1413,53.01%,430,5242,12.34%,7.68%,64.59%,Tarrant County,43.10%,51.70%,0.32%,8.47%,77.34%,11.39%,3.24%,Central Standard Time,97,58,39,75,36,54%,50%,51,67,109,61%,71%,56%,35.67,6.53,6.89,21.48%,18.24%,20.56%,2.3,0,N/A,45.7,44,576,5.7,1.04,TX-55020,32.7148839,-97.1538821
Paradise,Texas,489,243,Dallas-Fort Worth-Arlington,7543340,$64444,20.92%,40,$397000,1813,$219,35,53.59%,$1375,48.16%,N/A,N/A,6.75%,2.26%,66.0%,Wise County,13.80%,83.40%,0.0%,3.68%,67.89%,26.58%,0.2%,Central Standard Time,96,57,39,72,30,54%,50%,51,67,106,61%,71%,56%,35.78,8.94,5.27,20.68%,20.66%,17.89%,2.3,0,N/A,45.7,53,702,5.6,2.01,TX-55056,33.1503399,-97.6887282
Parker,Texas,5776,678,Dallas-Fort Worth-Arlington,7543340,$216179,66.31%,46,$1025000,3942,$260,15,98.39%,N/A,36.55%,0,605,0.99%,1.53%,59.8%,Collin County,38.60%,55.20%,20.12%,11.93%,63.66%,3.84%,17.17%,Central Standard Time,95,56,39,76,36,54%,50%,51,67,104,61%,71%,56%,43.08,8.47,8.53,26.03%,21.1%,27.78%,3.4,0,N/A,45.7,63,516,5.6,8.52,TX-55152,33.0570059,-96.6244721
Pecan Acres,Texas,3966,210,Dallas-Fort Worth-Arlington,7543340,$138977,41.99%,41,$525000,2376,$221,17,93.52%,N/A,38.43%,N/A,N/A,14.09%,12.99%,60.53%,Tarrant County,43.10%,51.70%,0.43%,0.23%,82.88%,12.81%,5.24%,Central Standard Time,98,57,41,75,34,54%,50%,51,67,111,61%,71%,56%,38.03,8.75,7.01,20.71%,18.13%,19.56%,2.3,0,N/A,45.7,33,618,5.6,18.88,TX-56462,32.9703804,-97.4724663
Pecan Hill,Texas,730,343,Dallas-Fort Worth-Arlington,7543340,$101667,15.27%,54,$729000,2382,$306,37,87.89%,$2125,29.47%,N/A,N/A,3.85%,4.42%,60.34%,Ellis County,25.40%,70.10%,0.0%,2.74%,63.84%,28.63%,4.38%,Central Standard Time,98,57,41,74,35,54%,50%,51,67,111,61%,71%,56%,40.51,8.08,8.15,23.42%,19.89%,23.0%,2.1,0,N/A,45.7,58,549,5.5,2.13,TX-56485,32.490714,-96.7813326
Pecan Plantation,Texas,6539,880,Dallas-Fort Worth-Arlington,7543340,$102403,43.47%,63,$391000,1955,$200,22,96.45%,$2117,25.75%,N/A,N/A,3.33%,18.21%,42.56%,Hood County,15.30%,81.40%,1.38%,0.0%,90.72%,3.41%,3.78%,Central Standard Time,97,58,39,73,31,54%,50%,51,67,109,61%,71%,56%,37.17,8.67,6.35,20.85%,18.24%,20.22%,2.3,0,6.5,45.7,48,594,5.7,7.43,TX-56498,32.3628087,-97.6553227
Pelican Bay,Texas,2271,3390,Dallas-Fort Worth-Arlington,7543340,$57105,11.91%,30,$277000,1639,$169,23,48.21%,$1299,46.24%,0,1980,11.93%,9.47%,61.52%,Tarrant County,43.10%,51.70%,0.09%,0.4%,68.65%,29.63%,2.64%,Central Standard Time,98,57,41,75,34,54%,50%,51,67,111,61%,71%,56%,38.03,8.75,7.01,20.49%,18.02%,19.89%,2.3,0,N/A,45.7,31,618,5.7,0.67,TX-56640,32.9227504,-97.5189215
Pilot Point,Texas,4829,1110,Dallas-Fort Worth-Arlington,7543340,$79128,27.12%,35,$324000,1679,$193,31,57.74%,$1182,36.25%,N/A,N/A,6.93%,7.15%,57.34%,Denton County,37.10%,57.10%,0.0%,2.77%,60.26%,34.13%,10.73%,Central Standard Time,96,56,40,75,34,54%,50%,51,67,107,61%,71%,56%,40.46,9.04,7.59,20.05%,17.36%,20.44%,3.4,0,N/A,45.7,60,528,5.6,4.35,TX-57476,33.3950725,-96.9497033
Plano,Texas,287339,4008,Dallas-Fort Worth-Arlington,7543340,$108649,59.18%,39,$500000,2222,$225,27,63.17%,$1792,43.0%,147,1683,7.11%,4.12%,69.33%,Collin County,38.60%,55.20%,22.63%,8.98%,48.16%,16.21%,28.69%,Central Standard Time,95,56,39,76,36,54%,50%,51,67,104,61%,71%,56%,41.09,8.47,8.31,26.03%,21.1%,27.78%,3.4,0,N/A,45.7,55,678,5.6,71.69,TX-58016,33.0502359,-96.7486867
Ponder,Texas,2524,747,Dallas-Fort Worth-Arlington,7543340,$110714,37.44%,30,$341000,1884,$181,10,86.88%,$2345,31.04%,78,629,0.75%,1.84%,80.14%,Denton County,37.10%,57.10%,1.62%,3.57%,76.15%,13.99%,3.17%,Central Standard Time,96,56,40,74,32,54%,50%,51,67,107,61%,71%,56%,35.85,8.08,6.58,21.97%,19.56%,19.78%,2.3,0,N/A,45.7,44,588,5.6,3.38,TX-58664,33.178129,-97.290976
Post Oak Bend City,Texas,573,280,Dallas-Fort Worth-Arlington,7543340,N/A,N/A,N/A,N/A,N/A,N/A,N/A,91.46%,N/A,N/A,N/A,N/A,N/A,N/A,N/A,Kaufman County,24.90%,71.70%,N/A,N/A,N/A,N/A,N/A,Central Standard Time,97,58,39,75,35,54%,50%,51,67,109,61%,71%,56%,41.63,8.14,8.89,23.21%,18.9%,23.44%,2.1,0,7.3,45.7,63,393,5.5,2.05,TX-59066,32.6330231,-96.3185963
Princeton,Texas,20966,2076,Dallas-Fort Worth-Arlington,7543340,$96766,28.3%,33,$327000,1777,$184,8,74.25%,$2059,43.93%,N/A,N/A,5.26%,1.98%,75.37%,Collin County,38.60%,55.20%,3.81%,21.56%,45.01%,27.13%,15.59%,Central Standard Time,96,56,40,74,33,54%,50%,51,67,106,61%,71%,56%,42.66,8.48,8.46,23.73%,20.77%,21.78%,3.4,0,N/A,45.7,64,606,5.6,10.1,TX-59576,33.1760836,-96.487484
Prosper,Texas,34567,1372,Dallas-Fort Worth-Arlington,7543340,$187603,63.52%,37,$830000,3416,$243,7,90.68%,$2152,31.22%,56,878,2.96%,4.87%,71.33%,Collin County,38.60%,55.20%,11.17%,6.66%,64.95%,11.73%,14.09%,Central Standard Time,96,56,40,74,33,54%,50%,51,67,106,61%,71%,56%,42.33,8.98,8.28,23.1%,21.43%,22.78%,3.4,0,N/A,45.7,63,684,5.6,25.2,TX-59696,33.2394348,-96.8087281
Providence Village,Texas,8116,4411,Dallas-Fort Worth-Arlington,7543340,$105469,45.18%,34,$314000,1847,$170,11,69.48%,$2399,38.26%,N/A,N/A,9.54%,1.2%,69.42%,Denton County,37.10%,57.10%,1.15%,18.75%,57.9%,17.39%,9.89%,Central Standard Time,96,56,40,75,34,54%,50%,51,67,107,61%,71%,56%,40.46,9.04,7.59,20.05%,17.36%,20.44%,3.4,0,N/A,45.7,63,528,4,1.84,TX-59748,33.2380029,-96.9581271
Quinlan,Texas,1514,1174,Dallas-Fort Worth-Arlington,7543340,$41450,15.04%,35,$266000,1538,$173,37,63.31%,$1095,49.55%,N/A,N/A,15.26%,3.55%,56.79%,Hunt County,20.30%,75.80%,2.58%,0.0%,78.14%,13.54%,3.63%,Central Standard Time,95,55,40,73,33,54%,50%,51,67,104,61%,71%,56%,45.44,8.9,10.2,23.67%,19.67%,25.56%,0.0,0,7.3,45.7,65,462,5.6,1.29,TX-60140,32.9089743,-96.1312971
Red Oak,Texas,15909,1035,Dallas-Fort Worth-Arlington,7543340,$104125,36.13%,36,$350000,2071,$169,15,72.16%,$1527,47.77%,126,2286,6.93%,4.7%,73.63%,Ellis County,25.40%,70.10%,1.7%,36.85%,36.11%,21.32%,8.59%,Central Standard Time,98,57,41,74,35,54%,50%,51,67,111,61%,71%,56%,40.51,8.08,8.15,23.42%,19.89%,23.0%,2.1,0,N/A,45.7,57,549,5.5,15.37,TX-61196,32.517411,-96.8027474
Rendon,Texas,15894,645,Dallas-Fort Worth-Arlington,7543340,$107618,26.23%,39,$654000,3159,$207,28,79.47%,$1229,41.13%,N/A,N/A,8.59%,2.83%,60.69%,Tarrant County,43.10%,51.70%,2.53%,7.71%,64.73%,21.82%,7.96%,Central Standard Time,96,57,39,73,33,54%,50%,51,67,106,61%,71%,56%,39.03,7.75,7.24,18.74%,15.49%,18.56%,2.3,0,N/A,45.7,40,555,5.7,24.63,TX-61568,32.5788566,-97.2348893
Reno (Parker Cnty),Texas,3156,239,Dallas-Fort Worth-Arlington,7543340,$92857,10.76%,40,$384000,2462,$156,28,67.51%,$1167,50.86%,N/A,N/A,6.97%,2.21%,63.33%,Parker County,14.70%,81.80%,0.0%,0.06%,76.93%,19.14%,7.13%,Central Standard Time,98,57,41,75,34,54%,50%,51,67,111,61%,71%,56%,38.03,8.75,7.01,20.71%,18.13%,19.56%,2.3,0,N/A,45.7,47,618,5.5,13.2,TX-61604,32.9459828,-97.5765811
Rhome,Texas,2006,437,Dallas-Fort Worth-Arlington,7543340,$90969,20.24%,33,$271000,1726,$157,20,80.78%,$983,39.68%,N/A,N/A,7.06%,3.35%,72.31%,Wise County,13.80%,83.40%,0.8%,1.15%,71.29%,22.98%,4.29%,Central Standard Time,98,58,40,77,36,54%,50%,51,67,111,61%,71%,56%,35.8,8.72,6.12,20.71%,18.13%,19.56%,2.3,0,N/A,45.7,40,627,5.6,4.59,TX-61700,33.0441774,-97.439131
Richland Hills,Texas,8473,2698,Dallas-Fort Worth-Arlington,7543340,$67628,15.56%,40,$280000,1522,$184,61,72.1%,$1327,54.33%,483,3548,8.42%,3.59%,69.43%,Tarrant County,43.10%,51.70%,1.79%,5.22%,63.46%,26.39%,6.92%,Central Standard Time,95,56,39,76,35,54%,50%,51,67,104,61%,71%,56%,39.19,8.34,7.59,21.81%,19.01%,21.56%,2.3,0,N/A,45.7,41,504,5.7,3.14,TX-61844,32.8094572,-97.2272773
Rio Vista,Texas,1616,1539,Dallas-Fort Worth-Arlington,7543340,$70587,13.47%,29,N/A,N/A,N/A,25,71.11%,$1131,43.65%,N/A,N/A,4.16%,3.25%,74.96%,Johnson County,19.10%,77.00%,0.0%,0.0%,95.24%,3.09%,0.25%,Central Standard Time,96,58,38,73,33,56%,50%,51,67,105,61%,71%,56%,38.54,8.21,6.94,22.88%,16.7%,26.22%,2.3,0,6.5,45.7,61,717,5.4,1.05,TX-62240,32.235226,-97.3746534
River Oaks,Texas,7516,3721,Dallas-Fort Worth-Arlington,7543340,$65582,15.63%,36,$196000,1037,$189,67,69.46%,$1220,49.79%,N/A,N/A,13.74%,3.99%,55.13%,Tarrant County,43.10%,51.70%,0.93%,0.84%,29.91%,67.55%,17.75%,Central Standard Time,99,60,39,78,37,54%,50%,51,67,114,61%,71%,56%,34.64,7.91,6.48,20.49%,18.02%,19.89%,2.3,0,N/A,45.7,32,555,5.7,2.02,TX-62384,32.7766769,-97.3984229
Roanoke,Texas,9947,1444,Dallas-Fort Worth-Arlington,7543340,$100986,47.5%,39,$773000,3142,$246,13,69.28%,$1814,33.19%,125,1181,2.2%,3.99%,76.68%,Denton County,37.10%,57.10%,7.13%,4.54%,59.0%,21.36%,15.03%,Central Standard Time,98,58,40,77,36,54%,50%,51,67,111,61%,71%,56%,35.8,8.72,6.12,20.71%,18.13%,19.56%,2.3,0,N/A,45.7,45,627,5.6,6.89,TX-62504,33.0144102,-97.2275903
Rockwall,Texas,49605,1683,Dallas-Fort Worth-Arlington,7543340,$114926,49.22%,40,$510000,2512,$203,17,79.85%,$1832,39.76%,108,1605,3.88%,3.86%,69.69%,Rockwall County,24.00%,70.80%,4.15%,8.12%,67.64%,16.52%,10.32%,Central Standard Time,97,58,39,75,35,54%,50%,51,67,109,61%,71%,56%,42.44,8.86,8.37,22.49%,19.56%,23.67%,2.1,0,N/A,45.7,55,495,5.4,29.47,TX-62828,32.9169231,-96.4374156
Rosser,Texas,388,203,Dallas-Fort Worth-Arlington,7543340,$91875,7.01%,40,N/A,N/A,N/A,34,90.3%,$595,40.94%,N/A,N/A,3.09%,6.74%,65.87%,Kaufman County,24.90%,71.70%,0.0%,30.67%,33.76%,18.56%,4.12%,Central Standard Time,98,57,41,74,35,54%,50%,51,67,111,61%,71%,56%,43.11,9.29,8.74,21.95%,17.91%,24.56%,2.1,0,N/A,45.7,64,333,5.5,1.91,TX-63404,32.4604148,-96.4523975
Rowlett,Texas,64139,3091,Dallas-Fort Worth-Arlington,7543340,$113600,38.23%,38,$420000,2222,$189,23,82.47%,$1964,40.41%,N/A,N/A,7.2%,3.8%,71.64%,Dallas County,60.20%,34.30%,6.9%,22.59%,46.7%,19.73%,13.23%,Central Standard Time,95,56,39,76,36,54%,50%,51,67,104,61%,71%,56%,42.44,8.86,8.37,22.49%,19.56%,23.67%,2.1,0,N/A,45.7,63,495,5.7,20.75,TX-63572,32.9155059,-96.5488954
Royse City,Texas,17357,948,Dallas-Fort Worth-Arlington,7543340,$116424,29.2%,33,$359000,2028,$177,13,83.97%,$2108,39.6%,162,1240,7.22%,1.7%,72.79%,Rockwall County,24.00%,70.80%,1.03%,11.49%,62.73%,23.01%,10.01%,Central Standard Time,99,58,41,74,33,54%,50%,51,67,114,61%,71%,56%,44.59,9.54,8.83,22.49%,19.56%,23.67%,3.4,0,N/A,45.7,62,501,5.4,18.3,TX-63668,32.9762253,-96.3174673
Runaway Bay,Texas,1522,604,Dallas-Fort Worth-Arlington,7543340,$83333,33.39%,56,$201000,1349,$149,34,78.31%,$1172,36.55%,0,189,5.09%,4.29%,57.39%,Wise County,13.80%,83.40%,2.76%,0.99%,85.94%,5.45%,2.69%,Central Standard Time,96,57,39,72,30,50%,46%,51,67,103,61%,71%,56%,37.82,9.66,5.9,20.68%,20.66%,17.89%,2.3,0,N/A,45.7,61,777,5.6,2.52,TX-63782,33.1773604,-97.8709567
Sachse,Texas,29075,2976,Dallas-Fort Worth-Arlington,7543340,$130839,47.43%,41,$410000,2050,$200,16,90.07%,$1807,40.03%,48,687,3.39%,5.22%,72.33%,Dallas County,60.20%,34.30%,19.6%,13.54%,48.72%,14.19%,21.31%,Central Standard Time,95,56,39,76,36,54%,50%,51,67,104,61%,71%,56%,43.08,8.47,8.53,22.49%,19.56%,23.67%,2.1,0,N/A,45.7,62,516,5.7,9.77,TX-64064,32.972566,-96.5792715
Saginaw,Texas,24467,3198,Dallas-Fort Worth-Arlington,7543340,$98003,25.89%,37,$330000,1897,$174,21,78.06%,$1700,46.98%,184,1677,3.99%,3.95%,69.8%,Tarrant County,43.10%,51.70%,2.01%,10.08%,49.14%,36.58%,10.38%,Central Standard Time,97,57,40,75,35,54%,50%,51,67,109,61%,71%,56%,37.46,8.65,6.63,20.49%,18.02%,19.89%,2.3,0,N/A,45.7,29,687,5.7,7.65,TX-64112,32.8657491,-97.3654075
Sanctuary,Texas,258,300,Dallas-Fort Worth-Arlington,7543340,$106250,14.09%,53,N/A,N/A,N/A,52,80.95%,$1125,44.54%,N/A,N/A,7.06%,5.71%,59.07%,Parker County,14.70%,81.80%,0.0%,2.33%,78.68%,10.08%,2.71%,Central Standard Time,98,57,41,75,34,54%,50%,51,67,111,61%,71%,56%,37.56,8.46,6.82,20.49%,18.02%,19.89%,2.3,0,N/A,45.7,46,564,5.5,0.86,TX-65066,32.9131582,-97.58767
Sanger,Texas,9302,791,Dallas-Fort Worth-Arlington,7543340,$88987,24.61%,33,$332000,1720,$193,17,69.07%,$1304,45.69%,N/A,N/A,7.11%,2.46%,76.11%,Denton County,37.10%,57.10%,0.95%,4.6%,70.62%,22.05%,5.16%,Central Standard Time,96,56,40,74,32,54%,50%,51,67,107,61%,71%,56%,40.5,9.7,7.43,21.42%,18.46%,20.56%,3.4,0,N/A,45.7,54,633,5.6,11.76,TX-65408,33.3715482,-97.1678353
Sansom Park,Texas,5387,4344,Dallas-Fort Worth-Arlington,7543340,$40993,8.93%,33,$200000,1504,$133,45,56.05%,$1163,65.63%,133,1883,26.45%,7.97%,56.27%,Tarrant County,43.10%,51.70%,0.0%,2.34%,24.86%,71.52%,13.63%,Central Standard Time,97,57,40,75,35,54%,50%,51,67,109,61%,71%,56%,35.02,8.2,6.39,20.49%,18.02%,19.89%,2.3,0,N/A,45.7,34,627,5.7,1.24,TX-65660,32.8027381,-97.4020642
Savannah,Texas,6877,7090,Dallas-Fort Worth-Arlington,7543340,$131397,42.44%,36,$395000,2380,$166,12,82.97%,$1875,38.53%,N/A,N/A,2.73%,7.89%,76.06%,Denton County,37.10%,57.10%,2.43%,21.2%,59.47%,15.56%,11.21%,Central Standard Time,96,56,40,75,34,54%,50%,51,67,107,61%,71%,56%,40.35,8.92,7.59,23.1%,21.43%,22.78%,3.4,0,N/A,45.7,63,525,5.6,0.97,TX-66000,33.2257382,-96.9081253
Scurry,Texas,720,373,Dallas-Fort Worth-Arlington,7543340,$108125,27.12%,29,$169000,1024,$165,22,88.7%,$1227,36.18%,N/A,N/A,8.47%,2.13%,66.4%,Kaufman County,24.90%,71.70%,0.0%,2.36%,88.19%,5.56%,1.11%,Central Standard Time,97,58,39,75,35,54%,50%,51,67,109,61%,71%,56%,43.11,9.29,8.74,21.95%,17.91%,24.56%,2.1,0,N/A,45.7,64,333,5.5,1.93,TX-66368,32.51231,-96.3848506
Seagoville,Texas,18968,1009,Dallas-Fort Worth-Arlington,7543340,$68020,11.16%,36,$270000,1444,$187,19,77.82%,$1152,57.06%,81,2073,11.93%,5.17%,57.86%,Dallas County,60.20%,34.30%,0.74%,19.17%,23.7%,52.29%,18.57%,Central Standard Time,98,57,41,74,35,54%,50%,51,67,111,61%,71%,56%,41.35,8.56,8.48,17.4%,14.84%,17.11%,2.1,0,N/A,45.7,60,429,5.7,18.79,TX-66428,32.6530429,-96.545573
Shady Shores,Texas,2860,888,Dallas-Fort Worth-Arlington,7543340,$158333,46.96%,50,$498000,1772,$281,20,84.8%,N/A,31.34%,N/A,N/A,4.58%,4.93%,65.66%,Denton County,37.10%,57.10%,1.96%,0.98%,83.64%,10.63%,4.48%,Central Standard Time,96,56,40,75,34,54%,50%,51,67,107,61%,71%,56%,41.71,9.9,7.96,20.05%,17.36%,20.44%,3.4,0,N/A,45.7,55,504,5.6,3.22,TX-67100,33.1632251,-97.0401418
Southlake,Texas,31044,1422,Dallas-Fort Worth-Arlington,7543340,$250001,74.65%,43,$1250000,3882,$322,23,95.24%,$3501,27.92%,30,1170,2.04%,3.05%,60.95%,Tarrant County,43.10%,51.70%,15.71%,1.79%,69.07%,9.08%,16.35%,Central Standard Time,97,56,41,75,34,54%,50%,51,67,109,61%,71%,56%,38.69,9.03,7.16,24.85%,20.55%,25.11%,2.3,0,N/A,45.7,49,528,5.7,21.83,TX-69032,32.9544799,-97.1503154
Springtown,Texas,3493,1149,Dallas-Fort Worth-Arlington,7543340,$70254,12.42%,33,$335000,1851,$181,34,60.25%,$1305,55.43%,96,2030,6.25%,1.97%,67.26%,Parker County,14.70%,81.80%,0.0%,0.0%,80.5%,13.8%,2.81%,Central Standard Time,98,57,41,75,34,54%,50%,51,67,111,61%,71%,56%,38.03,8.75,7.01,19.45%,17.14%,19.0%,2.3,0,N/A,45.7,56,618,5.5,3.04,TX-69800,32.969301,-97.6804245
St. Paul,Texas,982,687,Dallas-Fort Worth-Arlington,7543340,$124500,39.76%,42,N/A,N/A,N/A,20,92.69%,$2639,34.52%,N/A,N/A,12.32%,1.06%,63.54%,Collin County,38.60%,55.20%,0.81%,2.14%,72.51%,17.41%,5.4%,Central Standard Time,96,56,40,74,33,54%,50%,51,67,106,61%,71%,56%,39.78,8.46,7.94,22.49%,19.56%,23.67%,3.4,0,N/A,45.7,64,465,5.6,1.43,TX-64220,33.043798,-96.5505056
Sunnyvale,Texas,8069,488,Dallas-Fort Worth-Arlington,7543340,$157500,56.0%,43,$723000,3443,$210,14,90.04%,$1216,31.23%,N/A,N/A,7.89%,6.58%,70.54%,Dallas County,60.20%,34.30%,22.85%,12.98%,50.69%,8.79%,18.99%,Central Standard Time,95,56,39,76,36,54%,50%,51,67,104,61%,71%,56%,41.99,9.29,8.41,22.49%,19.56%,23.67%,2.1,0,N/A,45.7,58,459,5.7,16.52,TX-71156,32.7973937,-96.557661
Talty,Texas,2727,804,Dallas-Fort Worth-Arlington,7543340,$136917,37.44%,42,$553000,2684,$206,16,97.23%,N/A,37.1%,N/A,N/A,4.08%,4.21%,73.07%,Kaufman County,24.90%,71.70%,0.62%,16.76%,62.6%,17.6%,6.67%,Central Standard Time,97,58,39,75,35,54%,50%,51,67,109,61%,71%,56%,41.63,8.14,8.89,23.21%,18.9%,23.44%,2.1,0,N/A,45.7,61,393,5.5,3.39,TX-71756,32.6944377,-96.400756
Terrell,Texas,19019,706,Dallas-Fort Worth-Arlington,7543340,$63795,16.52%,33,$265000,1568,$169,37,55.55%,$1167,51.4%,239,3430,16.84%,4.25%,61.97%,Kaufman County,24.90%,71.70%,0.14%,22.18%,37.2%,38.37%,13.67%,Central Standard Time,97,58,39,75,35,54%,50%,51,67,109,61%,71%,56%,41.92,8.88,8.36,23.21%,18.9%,23.44%,2.1,0,7.3,45.7,56,453,5.5,26.95,TX-72284,32.7341211,-96.2931425
The Colony,Texas,44916,3206,Dallas-Fort Worth-Arlington,7543340,$111090,47.66%,37,$508000,2199,$231,20,66.27%,$1884,44.79%,275,1445,6.85%,3.84%,77.09%,Denton County,37.10%,57.10%,9.0%,9.55%,55.6%,18.95%,13.44%,Central Standard Time,95,56,39,76,36,54%,50%,51,67,104,61%,71%,56%,40.35,8.92,7.59,17.95%,15.49%,18.67%,3.4,0,N/A,45.7,59,525,5.6,14.01,TX-72530,33.092543,-96.8976612
Tolar,Texas,1461,1554,Dallas-Fort Worth-Arlington,7543340,$81818,22.92%,25,$300000,1714,$175,17,83.3%,$1679,41.57%,N/A,N/A,16.48%,6.26%,65.15%,Hood County,15.30%,81.40%,0.75%,1.98%,86.17%,8.01%,0.27%,Central Standard Time,97,58,39,73,31,56%,50%,51,67,108,61%,71%,56%,34.87,7.69,7.02,20.85%,18.24%,20.22%,2.3,0,6.5,45.7,63,648,5.7,0.94,TX-73268,32.3894839,-97.9191392
Travis Ranch,Texas,9894,8177,Dallas-Fort Worth-Arlington,7543340,$77979,34.29%,31,$390000,2335,$167,7,91.52%,$2281,47.49%,N/A,N/A,8.02%,2.45%,72.96%,Kaufman County,24.90%,71.70%,6.53%,32.17%,33.67%,25.09%,13.39%,Central Standard Time,97,58,39,75,35,54%,50%,51,67,109,61%,71%,56%,43.64,10.3,9.02,23.21%,18.9%,23.44%,2.1,0,N/A,45.7,63,477,5.5,1.21,TX-73562,32.8014392,-96.4774536
Trophy Club,Texas,13454,3380,Dallas-Fort Worth-Arlington,7543340,$193026,68.44%,43,$730000,2955,$247,20,93.2%,$1821,31.89%,7,491,2.74%,3.9%,72.51%,Denton County,37.10%,57.10%,8.55%,1.12%,74.65%,11.74%,12.83%,Central Standard Time,98,58,40,77,36,54%,50%,51,67,111,61%,71%,56%,38.69,9.03,7.16,20.71%,18.13%,19.56%,2.3,0,N/A,45.7,52,528,5.6,3.98,TX-73710,32.9986502,-97.192251
Union Valley,Texas,600,244,Dallas-Fort Worth-Arlington,7543340,$74792,29.95%,41,N/A,N/A,N/A,20,97.54%,N/A,27.31%,N/A,N/A,19.44%,0.0%,63.27%,Hunt County,20.30%,75.80%,0.0%,0.0%,61.0%,36.33%,9.5%,Central Standard Time,97,58,39,75,35,54%,50%,51,67,109,61%,71%,56%,41.92,8.88,8.36,23.21%,18.9%,23.44%,2.1,0,7.3,45.7,65,453,5.6,2.46,TX-74372,32.9199007,-96.244779
University Park,Texas,25104,6803,Dallas-Fort Worth-Arlington,7543340,$250001,90.42%,33,$2828000,4468,$633,33,84.88%,$2940,42.1%,23,743,4.24%,3.88%,58.79%,Dallas County,60.20%,34.30%,5.03%,1.1%,81.16%,7.9%,7.15%,Central Standard Time,98,58,40,78,38,54%,50%,51,67,111,61%,71%,56%,42.13,9.1,8.35,23.12%,20.66%,22.56%,2.1,0,N/A,45.7,44,450,5.7,3.69,TX-74492,32.8506099,-96.7937556
Venus,Texas,5874,1895,Dallas-Fort Worth-Arlington,7543340,$97039,20.96%,32,$330000,1784,$185,6,90.05%,$2042,51.36%,150,501,8.85%,4.04%,56.48%,Johnson County,19.10%,77.00%,0.75%,16.48%,51.23%,28.33%,6.28%,Central Standard Time,96,57,39,73,33,54%,50%,51,67,106,61%,71%,56%,39.92,7.83,7.84,28.82%,26.92%,27.78%,2.3,0,N/A,45.7,52,762,5.4,3.1,TX-75236,32.4319159,-97.1019714
Watauga,Texas,23336,5610,Dallas-Fort Worth-Arlington,7543340,$91669,25.91%,37,$284000,1406,$202,36,72.33%,$1826,48.43%,157,1551,10.07%,4.63%,70.58%,Tarrant County,43.10%,51.70%,4.95%,10.22%,54.57%,26.78%,12.94%,Central Standard Time,95,56,39,76,35,54%,50%,51,67,104,61%,71%,56%,37.41,8.6,6.92,21.81%,19.01%,21.56%,2.3,0,N/A,45.7,44,570,5.7,4.16,TX-76672,32.8718532,-97.251505
Waxahachie,Texas,43591,881,Dallas-Fort Worth-Arlington,7543340,$82449,28.12%,33,$383000,2189,$175,20,61.45%,$1495,48.33%,N/A,N/A,8.79%,2.63%,68.47%,Ellis County,25.40%,70.10%,0.8%,15.16%,55.14%,24.39%,6.26%,Central Standard Time,98,57,41,74,35,54%,50%,51,67,111,61%,71%,56%,42.12,8.38,8.34,23.42%,19.89%,23.0%,2.1,0,N/A,45.7,52,564,5.5,49.5,TX-76816,32.4035295,-96.8446172
Weatherford,Texas,33924,1251,Dallas-Fort Worth-Arlington,7543340,$78738,28.63%,37,$365000,1881,$194,23,63.95%,$1474,51.36%,153,1475,10.88%,3.26%,64.03%,Parker County,14.70%,81.80%,1.71%,2.8%,78.4%,13.48%,5.69%,Central Standard Time,96,57,39,73,31,54%,50%,51,67,106,61%,71%,56%,33.88,8.23,5.83,19.45%,17.14%,19.0%,2.3,0,N/A,45.7,47,873,5.5,27.12,TX-76864,32.7538177,-97.7723974
West Tawakoni,Texas,2057,729,Dallas-Fort Worth-Arlington,7543340,$55938,10.88%,42,$365000,2173,$168,34,66.6%,$1304,47.53%,N/A,N/A,20.91%,7.68%,54.0%,Hunt County,20.30%,75.80%,3.65%,1.75%,73.21%,15.07%,11.57%,Central Standard Time,95,55,40,73,33,54%,50%,51,67,104,61%,71%,56%,45.04,8.65,10.0,23.67%,19.67%,25.56%,0.0,0,7.3,45.7,65,411,5.6,2.82,TX-77896,32.8897404,-96.0221955
Western Lake,Texas,1418,409,Dallas-Fort Worth-Arlington,7543340,$34372,19.46%,43,N/A,N/A,N/A,26,70.33%,N/A,50.78%,N/A,N/A,1.13%,22.37%,66.07%,Parker County,14.70%,81.80%,4.37%,0.0%,17.0%,73.13%,43.09%,Central Standard Time,97,58,39,73,31,54%,50%,51,67,109,61%,71%,56%,36.39,8.23,6.33,19.45%,17.14%,19.0%,2.3,0,N/A,45.7,58,711,5.5,3.47,TX-77490,32.6215142,-97.8160429
Westlake,Texas,1543,224,Dallas-Fort Worth-Arlington,7543340,$250001,75.96%,47,$5475000,9171,$597,10,89.48%,$3501,23.35%,N/A,N/A,8.17%,2.22%,50.09%,Tarrant County,43.10%,51.70%,16.4%,0.78%,74.08%,2.66%,15.04%,Central Standard Time,98,58,40,77,36,54%,50%,51,67,111,61%,71%,56%,38.69,9.03,7.16,20.71%,18.13%,19.56%,2.3,0,N/A,45.7,51,528,5.7,6.88,TX-77620,32.9808553,-97.2040487
Westminster,Texas,1105,278,Dallas-Fort Worth-Arlington,7543340,N/A,18.97%,31,N/A,N/A,N/A,14,47.66%,$1286,63.76%,N/A,N/A,17.47%,0.0%,71.26%,Collin County,38.60%,55.20%,0.0%,0.36%,54.57%,44.34%,34.84%,Central Standard Time,96,56,40,74,33,54%,50%,51,67,106,61%,71%,56%,43.38,8.77,9.0,24.16%,20.66%,23.44%,3.4,0,N/A,45.7,65,645,5.6,3.98,TX-77680,33.3649024,-96.4598175
Weston,Texas,226,50,Dallas-Fort Worth-Arlington,7543340,$88750,21.82%,46,$860000,3399,$253,32,75.11%,$1025,27.57%,N/A,N/A,11.06%,0.93%,58.47%,Collin County,38.60%,55.20%,0.0%,0.0%,76.55%,20.35%,5.75%,Central Standard Time,96,56,40,74,33,54%,50%,51,67,106,61%,71%,56%,43.07,7.95,8.98,24.16%,20.66%,23.44%,3.4,0,N/A,45.7,64,531,5.6,4.49,TX-77740,33.3300798,-96.6675637
Westover Hills,Texas,869,1224,Dallas-Fort Worth-Arlington,7543340,$250001,77.13%,54,N/A,N/A,N/A,45,89.8%,$2222,32.0%,0,2189,5.64%,3.99%,35.8%,Tarrant County,43.10%,51.70%,3.45%,0.0%,94.71%,0.69%,3.57%,Central Standard Time,99,60,39,78,37,54%,50%,51,67,114,61%,71%,56%,38.07,8.6,6.95,20.49%,18.02%,19.89%,2.3,0,N/A,45.7,36,540,5.7,0.71,TX-77788,32.7436602,-97.4122662
Westworth Village,Texas,2618,1265,Dallas-Fort Worth-Arlington,7543340,$90750,31.0%,33,$284000,1569,$181,30,47.0%,$1734,42.82%,367,7610,17.69%,2.36%,65.2%,Tarrant County,43.10%,51.70%,1.64%,4.74%,57.87%,28.42%,6.53%,Central Standard Time,99,60,39,78,37,54%,50%,51,67,114,61%,71%,56%,34.64,7.91,6.48,20.49%,18.02%,19.89%,2.3,0,N/A,45.7,37,555,5.7,2.07,TX-78076,32.7598621,-97.4238249
White Settlement,Texas,18119,3595,Dallas-Fort Worth-Arlington,7543340,$56472,18.3%,36,$257000,1412,$182,46,55.08%,$1227,56.69%,143,1980,10.12%,2.47%,61.37%,Tarrant County,43.10%,51.70%,1.59%,7.95%,51.04%,36.33%,10.43%,Central Standard Time,99,60,39,78,37,54%,50%,51,67,114,61%,71%,56%,34.64,7.91,6.48,20.49%,18.02%,19.89%,2.3,0,N/A,45.7,36,555,5.7,5.04,TX-78544,32.755399,-97.4605201
Willow Park,Texas,5447,847,Dallas-Fort Worth-Arlington,7543340,$113736,50.77%,44,$580000,2397,$242,18,86.36%,$2514,38.45%,86,740,10.49%,2.19%,68.34%,Parker County,14.70%,81.80%,1.76%,0.17%,86.6%,6.74%,4.87%,Central Standard Time,96,57,39,73,31,54%,50%,51,67,106,61%,71%,56%,33.88,8.23,5.83,19.45%,17.14%,19.0%,2.3,0,N/A,45.7,51,873,5.5,6.43,TX-79492,32.7548283,-97.649856
Wilmer,Texas,5876,925,Dallas-Fort Worth-Arlington,7543340,$58837,9.53%,35,$270000,1444,$187,13,60.52%,$1349,50.93%,162,2257,15.16%,7.15%,64.43%,Dallas County,60.20%,34.30%,0.0%,30.74%,21.94%,46.9%,16.78%,Central Standard Time,98,57,41,74,35,54%,50%,51,67,111,61%,71%,56%,41.35,8.56,8.48,17.4%,14.84%,17.11%,2.1,0,N/A,45.7,59,429,5.7,6.35,TX-79576,32.59833,-96.6820009
Wolfe City,Texas,1201,1072,Dallas-Fort Worth-Arlington,7543340,$62188,13.34%,39,N/A,N/A,N/A,51,71.88%,$1083,51.18%,N/A,N/A,18.4%,6.68%,60.95%,Hunt County,20.30%,75.80%,0.0%,6.74%,74.02%,15.82%,3.5%,Central Standard Time,99,58,41,74,33,54%,50%,51,67,114,61%,71%,56%,46.56,9.9,9.53,21.01%,17.25%,20.89%,3.4,0,7.3,45.7,67,498,5.6,1.12,TX-79948,33.3685278,-96.071986
Wylie,Texas,58991,2674,Dallas-Fort Worth-Arlington,7543340,$113661,40.64%,35,$445000,2342,$190,14,77.65%,$1985,43.33%,69,719,5.57%,3.88%,72.84%,Collin County,38.60%,55.20%,10.75%,14.19%,50.32%,18.83%,21.53%,Central Standard Time,96,56,40,74,33,54%,50%,51,67,106,61%,71%,56%,39.78,8.46,7.94,22.49%,19.56%,23.67%,3.4,0,N/A,45.7,63,465,5.6,22.06,TX-80356,33.0362269,-96.5160786
