City,State,Population,People per sq mi,Metro Name,Metro population,Median household income,% with at least Bachelor's degree,Median age,Median home price,Median home sqft,Median home cost per sqft,Median home age,Homeownership Rate,Avg Apartment Monthly Rent,Single Population,Num Violent Crimes Per 100k residents,Num Property Crimes Per 100k residents,Poverty Rate,Unemployment rate,Labor Force Participation rate,County,% Democrat,% Republican,% Asian,% Black,% Non-Hispanic White,% Hispanic,Foreign Born %,Timezone,Hottest month's avg high (F),Coldest month's avg high (F),Hottest high minus coldest high,Annual rainfall (in),Annual days of precipitation,Annual snowfall (in),Average yearly windspeed (mph),Air quality Index,Elevation (ft),UV Index,Land Area (sq mi),Fips Code,Latitude,Longitude,Annual Sunshine - Percentage of Possible,Summer Sunshine - Percentage of Possible,Winter Sunshine - Percentage of Possible,Annual Relative Humidity (afternoon),Summer Relative Humidity (afternoon)
Addison,Texas,15428,3547,Dallas-Fort Worth-Arlington,7694138,$75235,56.36%,33,$525000,2197,$239,26,18.88%,$1413,60.84%,489,4296,6.4%,2.71%,80.56%,Dallas County,60.20%,34.30%,9.59%,13.0%,44.52%,25.47%,22.91%,Central Standard Time,96,56,40,39,77,2,N/A,36,596,5.7,4.35,TX-01240,32.9589204,-96.8355331,61%,71%,56%,54%,50%
Aledo,Texas,4767,1819,Dallas-Fort Worth-Arlington,7694138,$109303,49.28%,36,$568000,2744,$207,17,88.38%,$1837,43.48%,N/A,N/A,5.73%,2.39%,68.3%,Parker County,14.70%,81.80%,1.03%,0.08%,81.85%,12.06%,3.25%,Central Standard Time,95,57,38,37,74,0,N/A,55,596,5.5,2.62,TX-01744,32.697388,-97.606867,61%,71%,56%,54%,50%
Allen,Texas,104040,3941,Dallas-Fort Worth-Arlington,7694138,$113719,55.27%,37,$500000,2283,$219,19,77.26%,$1497,39.3%,83,1089,4.13%,4.35%,71.98%,Collin County,38.60%,55.20%,17.81%,10.4%,56.83%,10.78%,20.2%,Central Standard Time,95,54,41,41,83,2,N/A,61,596,5.6,26.4,TX-01924,33.1087688,-96.6735076,61%,71%,56%,54%,50%
Alma,Texas,433,84,Dallas-Fort Worth-Arlington,7694138,$72500,20.43%,44,N/A,N/A,N/A,40,93.07%,$1052,36.48%,N/A,N/A,3.46%,0.0%,60.37%,Ellis County,25.40%,70.10%,0.0%,0.0%,82.91%,15.24%,3.46%,Central Standard Time,96,57,39,40,74,1,N/A,63,596,5.5,5.17,TX-02044,32.281278,-96.549805,61%,71%,56%,54%,50%
Alvarado,Texas,4282,1032,Dallas-Fort Worth-Arlington,7694138,$57653,11.95%,35,$302000,1606,$188,43,53.51%,$852,44.35%,380,1589,9.29%,1.18%,57.13%,Johnson County,19.10%,77.00%,0.0%,8.31%,56.73%,32.95%,2.85%,Central Standard Time,96,57,39,38,70,1,6.5,56,596,5.4,4.15,TX-02260,32.4067933,-97.2149429,61%,71%,56%,54%,50%
Alvord,Texas,1104,726,Dallas-Fort Worth-Arlington,7694138,$60469,15.66%,28,N/A,N/A,N/A,43,65.4%,$865,45.29%,N/A,N/A,4.62%,4.09%,66.58%,Wise County,13.80%,83.40%,0.0%,0.63%,86.5%,5.71%,1.36%,Central Standard Time,94,55,39,38,74,1,N/A,59,596,5.6,1.52,TX-02284,33.3569682,-97.6960255,61%,71%,56%,50%,46%
Anna,Texas,14159,861,Dallas-Fort Worth-Arlington,7694138,$89829,38.93%,32,$393000,2079,$189,14,77.54%,$1730,35.76%,118,885,10.22%,2.01%,66.41%,Collin County,38.60%,55.20%,5.93%,11.82%,57.82%,22.42%,16.99%,Central Standard Time,95,54,41,42,74,1,N/A,59,596,5.6,16.45,TX-03300,33.3471885,-96.5509194,61%,71%,56%,54%,50%
Annetta,Texas,3178,847,Dallas-Fort Worth-Arlington,7694138,$139552,49.59%,36,$590000,2757,$214,20,98.62%,N/A,37.5%,N/A,N/A,1.89%,9.46%,71.81%,Parker County,14.70%,81.80%,0.25%,4.75%,86.47%,9.09%,1.54%,Central Standard Time,95,57,38,37,74,0,N/A,55,596,5.5,3.75,TX-03336,32.6937856,-97.6580953,61%,71%,56%,54%,50%
Annetta North,Texas,443,117,Dallas-Fort Worth-Arlington,7694138,$138125,55.56%,53,$750000,3205,$234,28,93.23%,N/A,29.0%,N/A,N/A,1.36%,4.0%,62.5%,Parker County,14.70%,81.80%,0.45%,1.81%,93.45%,3.61%,4.06%,Central Standard Time,95,57,38,37,74,0,N/A,55,596,5.5,3.78,TX-03340,32.7279119,-97.7098983,61%,71%,56%,54%,50%
Annetta South,Texas,672,352,Dallas-Fort Worth-Arlington,7694138,$128594,52.48%,37,N/A,N/A,N/A,29,99.26%,N/A,25.45%,N/A,N/A,1.97%,3.44%,65.84%,Parker County,14.70%,81.80%,0.0%,0.0%,89.73%,6.85%,0.15%,Central Standard Time,95,57,38,37,74,0,N/A,55,596,5.5,1.91,TX-03342,32.6686375,-97.642493,61%,71%,56%,54%,50%
Argyle,Texas,4278,370,Dallas-Fort Worth-Arlington,7694138,$190500,56.12%,51,$645000,3014,$214,22,86.93%,N/A,22.25%,N/A,N/A,0.0%,2.71%,73.62%,Denton County,37.10%,57.10%,0.0%,1.03%,96.33%,2.64%,8.65%,Central Standard Time,96,56,40,39,75,0,N/A,53,596,5.6,11.56,TX-03768,33.1102072,-97.1866617,61%,71%,56%,54%,50%
Arlington,Texas,397269,4144,Dallas-Fort Worth-Arlington,7694138,$63351,30.95%,33,$340000,1889,$180,36,59.02%,$1089,52.16%,510,2806,14.21%,5.21%,69.5%,Tarrant County,43.10%,51.70%,6.62%,22.9%,38.46%,29.22%,20.81%,Central Standard Time,96,57,39,40,77,1,N/A,46,596,5.7,95.87,TX-04000,32.6997793,-97.1250742,61%,71%,56%,54%,50%
Aubrey,Texas,4352,1446,Dallas-Fort Worth-Arlington,7694138,$64777,28.24%,37,$345000,1734,$199,16,76.36%,$1283,44.78%,184,316,6.59%,2.82%,74.49%,Denton County,37.10%,57.10%,0.39%,9.15%,79.39%,6.8%,2.5%,Central Standard Time,96,55,41,40,75,1,N/A,60,596,5.6,3.01,TX-04600,33.3028487,-96.9837904,61%,71%,56%,54%,50%
Aurora,Texas,1497,402,Dallas-Fort Worth-Arlington,7694138,$92083,20.66%,37,$385000,2092,$184,24,86.37%,$1173,44.39%,N/A,N/A,8.77%,4.01%,57.35%,Wise County,13.80%,83.40%,0.0%,0.0%,72.34%,12.89%,4.61%,Central Standard Time,96,56,40,39,75,1,N/A,40,596,5.6,3.72,TX-04672,33.0559431,-97.5096151,61%,71%,56%,54%,50%
Azle,Texas,12950,1473,Dallas-Fort Worth-Arlington,7694138,$76924,22.43%,39,$319000,1706,$187,36,73.35%,$1091,42.14%,102,1723,11.31%,4.32%,64.02%,Tarrant County,43.10%,51.70%,0.39%,0.36%,90.46%,6.26%,2.49%,Central Standard Time,96,57,39,37,79,2,N/A,33,596,5.7,8.79,TX-05168,32.895476,-97.5378956,61%,71%,56%,54%,50%
Balch Springs,Texas,25123,2785,Dallas-Fort Worth-Arlington,7694138,$52696,7.62%,30,$210000,1148,$183,36,70.07%,$1024,52.86%,646,3547,14.13%,9.23%,70.06%,Dallas County,60.20%,34.30%,1.68%,27.56%,18.98%,51.98%,24.32%,Central Standard Time,96,57,39,41,68,1,N/A,49,596,5.7,9.02,TX-05372,32.7193845,-96.6150657,61%,71%,56%,54%,50%
Bardwell,Texas,650,2097,Dallas-Fort Worth-Arlington,7694138,$44423,5.41%,33,N/A,N/A,N/A,33,52.46%,$989,55.27%,N/A,N/A,18.71%,11.11%,67.41%,Ellis County,25.40%,70.10%,0.0%,19.69%,38.0%,39.69%,11.23%,Central Standard Time,95,57,38,40,79,1,6.5,64,596,5.5,0.31,TX-05612,32.267076,-96.6955387,61%,71%,56%,54%,50%
Bartonville,Texas,1481,217,Dallas-Fort Worth-Arlington,7694138,$118750,45.81%,48,$1550000,4058,$382,31,93.79%,$1528,33.06%,114,456,5.41%,2.67%,60.54%,Denton County,37.10%,57.10%,1.35%,0.81%,80.01%,16.41%,10.26%,Central Standard Time,96,56,40,39,76,0,N/A,53,596,5.6,6.83,TX-05768,33.0789945,-97.1506428,61%,71%,56%,54%,50%
Bedford,Texas,49145,4900,Dallas-Fort Worth-Arlington,7694138,$71644,37.94%,39,$375000,1933,$194,37,56.02%,$1166,48.57%,291,2029,6.22%,3.51%,69.04%,Tarrant County,43.10%,51.70%,6.23%,12.98%,61.22%,15.13%,11.15%,Central Standard Time,95,55,40,38,79,1,N/A,44,596,5.7,10.03,TX-07132,32.8464265,-97.1349988,61%,71%,56%,54%,50%
Benbrook,Texas,23337,2169,Dallas-Fort Worth-Arlington,7694138,$73945,41.32%,38,$306000,1681,$182,37,75.46%,$1085,45.39%,159,1541,5.33%,3.72%,69.4%,Tarrant County,43.10%,51.70%,1.54%,4.67%,66.9%,24.0%,5.33%,Central Standard Time,96,57,39,35,77,1,N/A,40,596,5.7,10.76,TX-07552,32.6787504,-97.4638004,61%,71%,56%,54%,50%
Blue Mound,Texas,2317,4543,Dallas-Fort Worth-Arlington,7694138,$54167,4.04%,37,$190000,1258,$151,53,79.54%,$1168,42.11%,201,1167,7.51%,5.94%,65.66%,Tarrant County,43.10%,51.70%,0.39%,0.13%,38.2%,60.64%,24.69%,Central Standard Time,96,57,39,37,79,2,N/A,37,596,5.7,0.51,TX-08860,32.8542567,-97.3383694,61%,71%,56%,54%,50%
Blue Ridge,Texas,828,739,Dallas-Fort Worth-Arlington,7694138,$58929,16.48%,28,$375000,1062,$353,29,68.36%,$1100,43.27%,N/A,N/A,23.43%,2.58%,72.52%,Collin County,38.60%,55.20%,0.36%,0.24%,66.67%,29.83%,9.9%,Central Standard Time,95,55,40,42,74,1,N/A,65,596,5.6,1.12,TX-08872,33.2982244,-96.3976885,61%,71%,56%,54%,50%
Boyd,Texas,1375,335,Dallas-Fort Worth-Arlington,7694138,$63611,14.71%,34,$350000,1489,$235,37,77.31%,$915,38.22%,66,264,15.05%,8.08%,66.58%,Wise County,13.80%,83.40%,0.0%,0.44%,76.51%,18.4%,10.98%,Central Standard Time,96,56,40,37,73,2,N/A,49,596,5.6,4.1,TX-09748,33.084348,-97.5632078,61%,71%,56%,54%,50%
Brazos Bend,Texas,327,519,Dallas-Fort Worth-Arlington,7694138,$118750,N/A,N/A,N/A,N/A,N/A,12,92.50%,$1228,13.80%,N/A,N/A,0.7%,3.70%,N/A,Hood County,15.30%,81.40%,1.5%,0.0%,95.1%,3.4%,4.5%,Central Standard Time,97,58,39,35,72,0,N/A,57,596,5.7,0.63,TX-10087,32.4751756,-97.7610337,61%,71%,56%,54%,50%
Briar,Texas,5255,258,Dallas-Fort Worth-Arlington,7694138,$59311,15.88%,43,$497000,2344,$212,36,85.86%,$787,53.27%,N/A,N/A,7.61%,1.99%,57.98%,Tarrant County,43.10%,51.70%,0.0%,0.0%,84.19%,15.11%,9.8%,Central Standard Time,96,57,39,37,77,2,N/A,39,596,5.7,20.33,TX-10192,32.9669291,-97.5293722,61%,71%,56%,54%,50%
Briaroaks,Texas,718,671,Dallas-Fort Worth-Arlington,7694138,$75000,33.13%,48,$505000,3156,$160,43,98.47%,$1347,38.38%,N/A,N/A,0.97%,4.67%,56.91%,Johnson County,19.10%,77.00%,0.0%,0.97%,86.49%,9.05%,2.23%,Central Standard Time,96,57,39,37,75,1,N/A,30,596,5.4,1.07,TX-10216,32.4957799,-97.3033156,61%,71%,56%,54%,50%
Bridgeport,Texas,6498,829,Dallas-Fort Worth-Arlington,7694138,$66192,19.39%,36,$309000,1746,$177,40,61.82%,$988,47.06%,329,1259,10.4%,4.45%,60.87%,Wise County,13.80%,83.40%,0.72%,3.88%,53.85%,40.9%,19.87%,Central Standard Time,94,55,39,36,71,2,N/A,45,596,5.6,7.84,TX-10264,33.2099519,-97.7707901,61%,71%,56%,54%,50%
Bristol,Texas,450,78,Dallas-Fort Worth-Arlington,7694138,$100089,4.84%,30,N/A,N/A,N/A,19,72.67%,$1052,51.1%,N/A,N/A,26.67%,0.0%,58.91%,Ellis County,25.40%,70.10%,0.0%,4.22%,78.22%,17.56%,7.78%,Central Standard Time,96,57,39,40,74,1,N/A,63,596,5.5,5.78,TX-10336,32.4550365,-96.5672124,61%,71%,56%,54%,50%
Burleson,Texas,47151,1668,Dallas-Fort Worth-Arlington,7694138,$77329,27.21%,35,$350000,1955,$179,21,67.47%,$1326,43.1%,231,1489,6.01%,3.37%,71.85%,Johnson County,19.10%,77.00%,1.29%,4.21%,75.54%,14.12%,2.61%,Central Standard Time,96,57,39,37,75,1,N/A,38,596,5.4,28.26,TX-11428,32.5169717,-97.3344548,61%,71%,56%,54%,50%
Caddo Mills,Texas,1666,396,Dallas-Fort Worth-Arlington,7694138,$59107,19.27%,34,$310000,1792,$173,38,59.18%,$921,40.24%,N/A,N/A,8.22%,5.0%,69.96%,Hunt County,20.30%,75.80%,0.0%,7.74%,81.15%,7.38%,1.98%,Central Standard Time,96,56,40,41,84,1,7.3,62,596,5.6,4.21,TX-11716,32.9960488,-96.2366755,61%,71%,56%,54%,50%
Campbell,Texas,932,696,Dallas-Fort Worth-Arlington,7694138,$46173,18.22%,50,$468000,2283,$205,34,44.42%,$930,41.76%,N/A,N/A,10.3%,21.21%,52.11%,Hunt County,20.30%,75.80%,1.07%,2.79%,89.59%,2.25%,0.97%,Central Standard Time,95,55,40,45,72,1,7.3,64,596,5.6,1.34,TX-12112,33.1480561,-95.9535076,61%,71%,56%,54%,50%
Canyon Creek,Texas,952,405,Dallas-Fort Worth-Arlington,7694138,$56750,25.65%,38,$300000,1596,$188,31,80.25%,$886,40.3%,N/A,N/A,23.53%,0.0%,60.8%,Hood County,15.30%,81.40%,0.0%,3.68%,87.5%,8.82%,0.0%,Central Standard Time,97,58,39,35,73,0,6.5,58,596,5.7,2.35,TX-12562,32.3926946,-97.7405158,61%,71%,56%,54%,50%
Carrollton,Texas,137319,3746,Dallas-Fort Worth-Arlington,7694138,$82345,40.18%,38,$425000,1968,$216,34,62.92%,$1299,47.12%,N/A,N/A,6.47%,3.68%,73.62%,Denton County,37.10%,57.10%,15.15%,9.99%,40.26%,32.52%,27.93%,Central Standard Time,96,56,40,38,75,1,N/A,51,596,5.6,36.66,TX-13024,32.9889219,-96.8999809,61%,71%,56%,54%,50%
Cedar Hill,Texas,48337,1351,Dallas-Fort Worth-Arlington,7694138,$75715,30.61%,34,$390000,2254,$173,25,74.21%,$1475,51.62%,202,2562,8.71%,6.64%,71.12%,Dallas County,60.20%,34.30%,2.85%,54.26%,16.54%,22.99%,10.46%,Central Standard Time,96,57,39,41,81,0,N/A,60,596,5.7,35.79,TX-13492,32.5809919,-96.9591619,61%,71%,56%,54%,50%
Celeste,Texas,1124,839,Dallas-Fort Worth-Arlington,7694138,$40000,7.74%,29,$225000,1800,$125,43,67.88%,$883,59.17%,N/A,N/A,20.41%,8.61%,51.35%,Hunt County,20.30%,75.80%,0.0%,5.87%,75.62%,7.38%,0.0%,Central Standard Time,96,55,41,45,76,1,N/A,66,596,5.6,1.34,TX-13672,33.2896747,-96.1944697,61%,71%,56%,54%,50%
Celina,Texas,13608,422,Dallas-Fort Worth-Arlington,7694138,$114807,44.92%,39,$561000,2538,$221,14,87.63%,$1632,34.85%,85,665,10.04%,0.09%,66.28%,Collin County,38.60%,55.20%,7.41%,7.6%,66.83%,9.57%,11.92%,Central Standard Time,95,54,41,41,75,1,N/A,63,596,5.6,32.26,TX-13684,33.3154607,-96.7940102,61%,71%,56%,54%,50%
Chico,Texas,1166,767,Dallas-Fort Worth-Arlington,7694138,$57143,4.69%,32,$816000,1850,$441,47,75.21%,$917,38.6%,N/A,N/A,12.18%,11.57%,60.14%,Wise County,13.80%,83.40%,0.0%,0.0%,84.56%,12.44%,2.57%,Central Standard Time,94,55,39,36,65,1,N/A,50,596,5.6,1.52,TX-14620,33.2960564,-97.7986046,61%,71%,56%,50%,46%
Cleburne,Texas,30812,863,Dallas-Fort Worth-Arlington,7694138,$51475,16.14%,35,$270000,1667,$162,41,64.23%,$994,48.51%,327,1905,13.78%,4.67%,59.12%,Johnson County,19.10%,77.00%,1.2%,4.9%,60.89%,30.82%,4.95%,Central Standard Time,96,57,39,38,75,1,6.5,53,596,5.4,35.7,TX-15364,32.3569214,-97.4151556,61%,71%,56%,54%,50%
Cockrell Hill,Texas,4200,7241,Dallas-Fort Worth-Arlington,7694138,$58137,9.53%,34,$278000,1337,$208,71,64.79%,$807,51.9%,N/A,N/A,10.71%,5.14%,69.2%,Dallas County,60.20%,34.30%,0.0%,2.45%,7.88%,89.4%,28.38%,Central Standard Time,96,57,39,40,79,1,N/A,52,596,5.7,0.58,TX-15796,32.738177,-96.8885804,61%,71%,56%,54%,50%
Colleyville,Texas,26766,2040,Dallas-Fort Worth-Arlington,7694138,$171485,63.71%,47,$780000,3277,$238,27,96.94%,$2261,28.86%,18,614,2.67%,4.6%,63.78%,Tarrant County,43.10%,51.70%,5.29%,1.6%,82.94%,8.31%,9.07%,Central Standard Time,95,56,39,38,79,1,N/A,46,596,5.7,13.12,TX-15988,32.8913756,-97.1486714,61%,71%,56%,54%,50%
Combine,Texas,2535,348,Dallas-Fort Worth-Arlington,7694138,$76989,15.49%,42,$547000,2721,$201,29,95.51%,$1125,46.24%,N/A,N/A,8.57%,6.48%,64.86%,Kaufman County,24.90%,71.70%,0.75%,0.75%,66.71%,29.82%,17.44%,Central Standard Time,96,57,39,41,70,1,N/A,63,596,5.5,7.28,TX-16216,32.5879808,-96.536712,61%,71%,56%,54%,50%
Commerce,Texas,9473,1137,Dallas-Fort Worth-Arlington,7694138,$34946,30.33%,24,$185000,1869,$99,47,40.6%,$831,68.15%,N/A,N/A,32.09%,7.56%,60.32%,Hunt County,20.30%,75.80%,4.97%,22.74%,53.35%,13.27%,9.98%,Central Standard Time,95,55,40,45,72,1,7.3,56,596,5.6,8.33,TX-16240,33.2420417,-95.8991688,61%,71%,56%,54%,50%
Cool,Texas,150,91,Dallas-Fort Worth-Arlington,7694138,$49000,18.33%,51,N/A,N/A,N/A,23,89.33%,N/A,46.58%,N/A,N/A,7.33%,13.41%,58.57%,Parker County,14.70%,81.80%,0.0%,0.0%,78.0%,22.0%,10.67%,Central Standard Time,95,57,38,35,75,0,N/A,62,596,5.5,1.65,TX-16540,32.8000697,-98.0112638,61%,71%,56%,54%,50%
Coppell,Texas,41494,2878,Dallas-Fort Worth-Arlington,7694138,$128476,69.45%,40,$625000,2422,$258,28,75.88%,$1538,34.34%,59,1244,1.99%,2.43%,73.87%,Dallas County,60.20%,34.30%,27.77%,4.66%,50.5%,13.66%,26.95%,Central Standard Time,96,56,40,38,77,1,N/A,49,596,5.7,14.42,TX-16612,32.9638422,-96.9902551,61%,71%,56%,54%,50%
Copper Canyon,Texas,1578,345,Dallas-Fort Worth-Arlington,7694138,$123942,59.2%,55,$1063000,4104,$259,31,97.15%,$1700,31.39%,N/A,N/A,0.51%,3.61%,57.06%,Denton County,37.10%,57.10%,0.95%,0.7%,94.17%,1.33%,8.68%,Central Standard Time,96,56,40,38,79,0,N/A,52,596,5.6,4.58,TX-16636,33.0962412,-97.0976245,61%,71%,56%,54%,50%
Corinth,Texas,21881,2816,Dallas-Fort Worth-Arlington,7694138,$104239,44.62%,38,$430000,2429,$177,23,84.01%,$1463,37.03%,72,760,4.62%,2.57%,70.96%,Denton County,37.10%,57.10%,1.79%,6.91%,74.91%,11.8%,6.14%,Central Standard Time,96,56,40,38,76,0,N/A,52,596,5.6,7.77,TX-16696,33.1433683,-97.0681997,61%,71%,56%,54%,50%
Corral City,Texas,7,47,Dallas-Fort Worth-Arlington,7694138,$31250,N/A,N/A,N/A,N/A,N/A,21,0.00%,N/A,0.00%,N/A,N/A,0%,3.10%,N/A,Denton County,37.10%,57.10%,0.0%,0.0%,28.6%,71.4%,0%,Central Standard Time,96,56,40,39,75,0,N/A,43,596,5.6,0.15,TX-17024,33.1001215,-97.2261266,61%,71%,56%,54%,50%
Cottonwood,Texas,318,224,Dallas-Fort Worth-Arlington,7694138,$109444,17.18%,36,N/A,N/A,N/A,29,80.5%,N/A,35.34%,N/A,N/A,5.03%,2.44%,66.67%,Kaufman County,24.90%,71.70%,0.0%,0.31%,99.06%,0.63%,0.0%,Central Standard Time,96,57,39,40,69,1,N/A,65,596,5.5,1.42,TX-17200,32.4676475,-96.3839233,61%,71%,56%,54%,50%
Coyote Flats,Texas,419,126,Dallas-Fort Worth-Arlington,7694138,$50729,14.56%,53,N/A,N/A,N/A,29,89.02%,$925,33.15%,N/A,N/A,18.62%,1.64%,51.12%,Johnson County,19.10%,77.00%,0.0%,0.0%,91.65%,6.92%,1.91%,Central Standard Time,96,57,39,38,75,1,6.5,58,596,5.4,3.33,TX-17429,32.3528116,-97.2944087,61%,71%,56%,54%,50%
Crandall,Texas,3848,879,Dallas-Fort Worth-Arlington,7694138,$96417,23.42%,32,$320000,1788,$179,25,86.23%,$1054,41.93%,414,2020,6.03%,3.07%,72.68%,Kaufman County,24.90%,71.70%,0.57%,2.29%,82.48%,12.79%,2.78%,Central Standard Time,96,57,39,40,69,1,N/A,64,596,5.5,4.38,TX-17504,32.6231565,-96.452528,61%,71%,56%,54%,50%
Cresson,Texas,993,86,Dallas-Fort Worth-Arlington,7694138,$66328,18.33%,40,$500000,2075,$241,24,83.48%,$888,35.05%,N/A,N/A,18.83%,3.5%,53.59%,Parker County,14.70%,81.80%,0.0%,1.81%,83.38%,13.49%,3.93%,Central Standard Time,95,56,39,36,73,0,N/A,53,596,5.7,11.55,TX-17648,32.5298859,-97.6153873,61%,71%,56%,54%,50%
Cross Roads,Texas,1128,167,Dallas-Fort Worth-Arlington,7694138,$146477,50.13%,40,$815000,3756,$217,15,94.95%,$1452,30.2%,N/A,N/A,2.49%,5.14%,72.43%,Denton County,37.10%,57.10%,0.8%,0.53%,90.6%,4.43%,4.79%,Central Standard Time,96,55,41,40,75,1,N/A,62,596,5.6,6.74,TX-17852,33.230647,-97.001896,61%,71%,56%,54%,50%
Cross Timber,Texas,288,204,Dallas-Fort Worth-Arlington,7694138,$68125,25.25%,46,$720000,2927,$246,39,93.06%,$964,24.36%,N/A,N/A,1.04%,2.24%,59.05%,Johnson County,19.10%,77.00%,1.04%,0.0%,82.99%,14.93%,8.33%,Central Standard Time,96,57,39,37,75,1,N/A,47,596,5.4,1.41,TX-17917,32.4832396,-97.3259277,61%,71%,56%,54%,50%
Crowley,Texas,15972,2185,Dallas-Fort Worth-Arlington,7694138,$76677,20.98%,34,$331000,1936,$171,20,72.74%,$1368,46.79%,237,2608,8.81%,6.32%,70.41%,Tarrant County,43.10%,51.70%,2.13%,20.83%,50.87%,23.27%,5.1%,Central Standard Time,96,57,39,36,77,1,N/A,44,596,5.7,7.31,TX-17960,32.5781332,-97.3585185,61%,71%,56%,54%,50%
Dallas,Texas,1338846,3943,Dallas-Fort Worth-Arlington,7694138,$54747,34.71%,33,$430000,1784,$241,42,45.65%,$1111,56.52%,862,3321,18.11%,4.9%,68.72%,Dallas County,60.20%,34.30%,3.61%,24.3%,28.82%,41.48%,23.85%,Central Standard Time,96,56,40,39,78,1,N/A,45,596,5.7,339.58,TX-19000,32.7935588,-96.7667098,61%,71%,56%,54%,50%
Dalworthington Gardens,Texas,2192,1225,Dallas-Fort Worth-Arlington,7694138,$111979,45.69%,52,$642000,3101,$207,36,80.35%,$1353,36.56%,83,915,6.2%,4.66%,64.54%,Tarrant County,43.10%,51.70%,8.9%,7.66%,74.0%,8.26%,9.26%,Central Standard Time,95,56,39,39,78,1,N/A,48,596,5.7,1.79,TX-19084,32.6936949,-97.1566689,61%,71%,56%,54%,50%
Decatur,Texas,6976,795,Dallas-Fort Worth-Arlington,7694138,$63033,23.53%,33,$419000,1958,$214,36,64.26%,$955,48.01%,112,3471,9.03%,2.43%,63.89%,Wise County,13.80%,83.40%,0.42%,3.48%,58.72%,35.87%,12.23%,Central Standard Time,94,55,39,37,75,1,N/A,50,596,5.6,8.78,TX-19528,33.2262639,-97.5876115,61%,71%,56%,54%,50%
DeCordova,Texas,2981,2114,Dallas-Fort Worth-Arlington,7694138,$103111,48.09%,61,$563000,2525,$223,35,97.22%,$1512,15.25%,N/A,N/A,0.0%,1.67%,40.21%,Hood County,15.30%,81.40%,0.0%,0.0%,97.95%,2.05%,2.58%,Central Standard Time,97,58,39,34,70,0,6.5,52,596,5.7,1.41,TX-19570,32.4278934,-97.6911676,61%,71%,56%,54%,50%
Denton,Texas,139734,1450,Dallas-Fort Worth-Arlington,7694138,$62542,39.55%,30,$390000,2086,$187,30,53.23%,$1121,59.22%,233,1883,15.27%,4.92%,67.28%,Denton County,37.10%,57.10%,4.0%,10.07%,57.35%,25.12%,13.07%,Central Standard Time,96,56,40,39,75,0,N/A,45,596,5.6,96.35,TX-19972,33.2174811,-97.141831,61%,71%,56%,54%,50%
DeSoto,Texas,53170,2458,Dallas-Fort Worth-Arlington,7694138,$71124,26.67%,39,$328000,2116,$155,27,67.14%,$1208,54.32%,325,2198,9.46%,7.79%,69.02%,Dallas County,60.20%,34.30%,0.62%,68.47%,10.68%,17.99%,6.63%,Central Standard Time,96,57,39,40,76,0,N/A,56,596,5.7,21.63,TX-20092,32.5991674,-96.8633334,61%,71%,56%,54%,50%
DISH,Texas,545,330,Dallas-Fort Worth-Arlington,7694138,$135000,40.78%,41,N/A,N/A,N/A,8,98.17%,$1812,22.71%,N/A,N/A,1.13%,2.97%,73.72%,Denton County,37.10%,57.10%,2.57%,0.18%,86.97%,9.91%,1.83%,Central Standard Time,96,56,40,39,75,2,N/A,43,596,5.6,1.65,TX-20540,33.1330712,-97.3012733,61%,71%,56%,54%,50%
Double Oak,Texas,3099,1265,Dallas-Fort Worth-Arlington,7694138,$167000,54.8%,46,$680000,2537,$268,32,97.7%,N/A,34.12%,0,65,2.23%,4.12%,58.65%,Denton County,37.10%,57.10%,2.78%,3.13%,81.22%,8.94%,6.49%,Central Standard Time,96,56,40,38,80,1,N/A,51,596,5.6,2.45,TX-21028,33.0632884,-97.1116468,61%,71%,56%,54%,50%
Duncanville,Texas,39096,3491,Dallas-Fort Worth-Arlington,7694138,$57614,23.98%,37,$280000,1728,$162,42,65.49%,$1240,51.49%,441,2779,12.69%,9.05%,61.54%,Dallas County,60.20%,34.30%,1.46%,31.07%,25.34%,41.1%,13.31%,Central Standard Time,96,57,39,40,82,1,N/A,55,596,5.7,11.2,TX-21628,32.6459616,-96.9127368,61%,71%,56%,54%,50%
Edgecliff Village,Texas,3007,2527,Dallas-Fort Worth-Arlington,7694138,$67262,22.64%,39,$364000,2167,$168,44,80.41%,$1563,46.5%,N/A,N/A,12.6%,5.37%,59.97%,Tarrant County,43.10%,51.70%,4.09%,14.87%,39.71%,37.94%,14.9%,Central Standard Time,96,57,39,36,80,1,N/A,42,596,5.7,1.19,TX-22588,32.6560773,-97.3405975,61%,71%,56%,54%,50%
Elmo,Texas,1729,423,Dallas-Fort Worth-Arlington,7694138,$48813,0.0%,47,$200000,1342,$149,40,49.45%,$691,62.96%,N/A,N/A,0.87%,5.26%,65.03%,Kaufman County,24.90%,71.70%,0.0%,23.19%,76.81%,0.0%,0.0%,Central Standard Time,95,56,39,43,76,1,7.3,64,596,5.5,4.09,TX-23356,32.7315298,-96.1589207,61%,71%,56%,54%,50%
Ennis,Texas,19917,613,Dallas-Fort Worth-Arlington,7694138,$63203,18.96%,34,$270000,1698,$159,37,61.55%,$972,49.97%,84,1657,15.32%,3.3%,69.25%,Ellis County,25.40%,70.10%,0.18%,15.17%,37.59%,44.5%,14.94%,Central Standard Time,96,57,39,40,74,1,N/A,58,596,5.5,32.5,TX-24348,32.3254484,-96.6348044,61%,71%,56%,54%,50%
Euless,Texas,56334,3495,Dallas-Fort Worth-Arlington,7694138,$67181,34.17%,36,$380000,1919,$198,35,44.74%,$1220,53.48%,184,2040,8.6%,4.19%,74.49%,Tarrant County,43.10%,51.70%,12.2%,17.15%,45.11%,18.02%,21.09%,Central Standard Time,95,56,39,38,78,1,N/A,38,596,5.7,16.12,TX-24768,32.8508043,-97.0798933,61%,71%,56%,54%,50%
Everman,Texas,6232,3541,Dallas-Fort Worth-Arlington,7694138,$48007,9.84%,38,$237000,1601,$148,53,67.67%,$956,52.52%,N/A,N/A,23.91%,11.87%,60.92%,Tarrant County,43.10%,51.70%,0.35%,26.68%,20.64%,50.45%,21.33%,Central Standard Time,96,57,39,37,76,1,N/A,44,596,5.7,1.76,TX-24912,32.6295981,-97.2827906,61%,71%,56%,54%,50%
Fairview,Texas,8998,1014,Dallas-Fort Worth-Arlington,7694138,$89583,61.41%,49,$631000,2565,$246,15,79.43%,$1464,32.97%,128,449,13.07%,1.36%,51.91%,Collin County,38.60%,55.20%,3.46%,8.27%,82.15%,2.99%,8.88%,Central Standard Time,95,54,41,41,81,1,N/A,62,596,5.6,8.87,TX-25224,33.13992,-96.6115962,61%,71%,56%,54%,50%
Farmers Branch,Texas,42659,3591,Dallas-Fort Worth-Arlington,7694138,$73695,41.68%,35,$382000,1619,$236,44,56.4%,$1423,51.38%,150,2241,9.33%,2.91%,73.53%,Dallas County,60.20%,34.30%,9.26%,6.87%,35.83%,45.65%,27.18%,Central Standard Time,96,56,40,38,76,2,N/A,47,596,5.7,11.88,TX-25452,32.9272036,-96.8804722,61%,71%,56%,54%,50%
Farmersville,Texas,3560,866,Dallas-Fort Worth-Arlington,7694138,$41774,16.44%,42,$230000,1198,$192,49,58.29%,$1267,56.83%,200,1202,14.7%,3.77%,52.58%,Collin County,38.60%,55.20%,0.67%,12.89%,73.01%,10.31%,2.39%,Central Standard Time,96,56,40,41,83,1,N/A,65,596,5.6,4.11,TX-25488,33.1607055,-96.3604245,61%,71%,56%,54%,50%
Fate,Texas,14300,1207,Dallas-Fort Worth-Arlington,7694138,$109481,48.36%,33,$382000,2134,$179,11,91.92%,$2055,31.03%,39,474,0.53%,6.07%,76.3%,Rockwall County,24.00%,70.80%,2.1%,7.45%,59.12%,28.64%,7.93%,Central Standard Time,96,56,40,40,81,1,N/A,61,596,5.4,11.85,TX-25572,32.9428979,-96.3857943,61%,71%,56%,54%,50%
Ferris,Texas,2842,613,Dallas-Fort Worth-Arlington,7694138,$76563,18.12%,34,$323000,1665,$194,41,61.68%,$1004,36.63%,208,2294,11.08%,1.81%,71.63%,Ellis County,25.40%,70.10%,0.11%,23.29%,37.72%,39.66%,10.45%,Central Standard Time,96,57,39,40,68,1,N/A,62,596,5.5,4.64,TX-25752,32.5369411,-96.6737582,61%,71%,56%,54%,50%
Flower Mound,Texas,78854,1879,Dallas-Fort Worth-Arlington,7694138,$139703,62.08%,41,$548000,2404,$228,24,87.54%,$1787,32.74%,54,923,3.77%,3.64%,71.82%,Denton County,37.10%,57.10%,10.74%,3.94%,70.67%,11.54%,13.68%,Central Standard Time,96,56,40,39,77,0,N/A,47,596,5.6,41.96,TX-26232,33.0343231,-97.1146307,61%,71%,56%,54%,50%
Forest Hill,Texas,12964,3109,Dallas-Fort Worth-Arlington,7694138,$47308,12.57%,31,$241000,1452,$166,50,73.77%,$1135,58.61%,276,3168,19.35%,9.95%,58.28%,Tarrant County,43.10%,51.70%,0.02%,48.3%,5.95%,44.45%,22.72%,Central Standard Time,96,57,39,37,78,1,N/A,45,596,5.7,4.17,TX-26544,32.6619363,-97.2662356,61%,71%,56%,54%,50%
Forney,Texas,23871,1612,Dallas-Fort Worth-Arlington,7694138,$93792,27.32%,31,$358000,2094,$171,15,82.98%,$1229,43.82%,126,1190,5.37%,5.92%,74.73%,Kaufman County,24.90%,71.70%,2.51%,13.51%,65.78%,16.86%,3.88%,Central Standard Time,96,57,39,42,74,1,N/A,62,596,5.5,14.81,TX-26604,32.7440465,-96.4529301,61%,71%,56%,54%,50%
Fort Worth,Texas,892221,2569,Dallas-Fort Worth-Arlington,7694138,$64567,30.08%,33,$347000,1907,$182,32,60.99%,$1115,51.5%,444,2688,13.59%,5.68%,68.26%,Tarrant County,43.10%,51.70%,4.83%,18.54%,38.86%,35.09%,16.35%,Central Standard Time,96,57,39,37,79,1,N/A,40,596,5.7,347.27,TX-27000,32.7817769,-97.3473886,61%,71%,56%,54%,50%
Frisco,Texas,188387,2745,Dallas-Fort Worth-Arlington,7694138,$128761,64.43%,37,$630000,2813,$224,14,77.08%,$1508,36.48%,80,1198,4.03%,3.73%,71.15%,Collin County,38.60%,55.20%,22.4%,8.19%,53.9%,12.22%,23.16%,Central Standard Time,94,54,40,40,77,1,N/A,59,596,5.6,68.64,TX-27684,33.1559627,-96.8216311,61%,71%,56%,54%,50%
Garland,Texas,238622,4177,Dallas-Fort Worth-Arlington,7694138,$63192,23.09%,34,$305000,1667,$183,42,64.04%,$1182,48.53%,302,2583,12.14%,5.4%,69.56%,Dallas County,60.20%,34.30%,11.03%,14.23%,27.34%,44.3%,30.3%,Central Standard Time,96,56,40,40,86,1,N/A,57,596,5.7,57.13,TX-29000,32.9100616,-96.6303724,61%,71%,56%,54%,50%
Garrett,Texas,924,513,Dallas-Fort Worth-Arlington,7694138,$53750,5.84%,25,$260000,1667,$156,35,64.29%,$876,44.94%,N/A,N/A,22.19%,5.79%,62.91%,Ellis County,25.40%,70.10%,0.0%,0.0%,31.06%,68.18%,18.51%,Central Standard Time,96,57,39,40,74,1,N/A,61,596,5.5,1.8,TX-29036,32.3680591,-96.6543432,61%,71%,56%,54%,50%
Glen Rose,Texas,2653,679,Dallas-Fort Worth-Arlington,7694138,$57836,25.07%,42,N/A,N/A,N/A,45,73.26%,$712,45.26%,N/A,N/A,14.35%,2.6%,46.21%,Somervell County,13.90%,82.30%,0.0%,0.11%,76.33%,22.77%,2.56%,Central Standard Time,97,58,39,35,74,0,6.5,58,596,5.2,3.91,TX-29876,32.2461183,-97.7441692,61%,71%,56%,56%,50%
Glenn Heights,Texas,13228,1835,Dallas-Fort Worth-Arlington,7694138,$72695,25.26%,33,$335000,2055,$163,22,81.56%,$1177,55.36%,332,1841,12.43%,8.86%,73.66%,Dallas County,60.20%,34.30%,0.29%,44.69%,20.11%,33.38%,10.47%,Central Standard Time,95,57,38,40,76,0,N/A,57,596,5.7,7.21,TX-29840,32.5506425,-96.8547929,61%,71%,56%,54%,50%
Godley,Texas,1080,495,Dallas-Fort Worth-Arlington,7694138,$58590,13.77%,37,$388000,1950,$199,42,65.19%,$1201,34.89%,N/A,N/A,19.17%,4.63%,63.53%,Johnson County,19.10%,77.00%,0.0%,0.0%,80.0%,15.37%,0.46%,Central Standard Time,96,57,39,37,79,1,6.5,56,596,5.4,2.18,TX-29972,32.4549833,-97.5302389,61%,71%,56%,54%,50%
Granbury,Texas,10325,638,Dallas-Fort Worth-Arlington,7694138,$53481,29.42%,49,$350000,1786,$196,22,57.06%,$1062,44.7%,241,4129,11.57%,4.47%,50.32%,Hood County,15.30%,81.40%,1.51%,1.33%,87.76%,8.62%,2.09%,Central Standard Time,97,58,39,35,73,0,6.5,57,596,5.7,16.18,TX-30416,32.4057423,-97.7940713,61%,71%,56%,54%,50%
Grand Prairie,Texas,193835,2671,Dallas-Fort Worth-Arlington,7694138,$69171,23.91%,34,$340000,1889,$180,32,66.66%,$1142,47.89%,217,2101,11.49%,5.45%,69.46%,Dallas County,60.20%,34.30%,6.85%,21.28%,21.35%,48.69%,22.7%,Central Standard Time,96,56,40,39,78,1,N/A,49,596,5.7,72.57,TX-30464,32.6870477,-97.0208197,61%,71%,56%,54%,50%
Grandview,Texas,2051,1133,Dallas-Fort Worth-Arlington,7694138,$55556,15.53%,35,$370000,1568,$236,40,70.38%,$983,48.09%,N/A,N/A,9.98%,3.96%,59.57%,Johnson County,19.10%,77.00%,0.24%,0.0%,83.37%,15.46%,0.59%,Central Standard Time,96,58,38,39,66,1,6.5,61,596,5.4,1.81,TX-30512,32.2684954,-97.1774965,61%,71%,56%,54%,50%
Grapevine,Texas,54151,1685,Dallas-Fort Worth-Arlington,7694138,$94363,50.61%,40,$479000,1971,$243,30,59.84%,$1444,45.29%,N/A,N/A,5.48%,5.16%,76.87%,Tarrant County,43.10%,51.70%,6.53%,5.88%,63.11%,22.43%,17.99%,Central Standard Time,95,56,39,38,79,1,N/A,32,596,5.7,32.14,TX-30644,32.9343516,-97.0742534,61%,71%,56%,54%,50%
Grays Prairie,Texas,281,230,Dallas-Fort Worth-Arlington,7694138,$83750,19.0%,49,N/A,N/A,N/A,31,95.73%,$800,33.2%,N/A,N/A,3.91%,3.33%,63.83%,Kaufman County,24.90%,71.70%,0.0%,5.69%,82.56%,4.27%,0.36%,Central Standard Time,96,57,39,40,69,1,7.3,65,596,5.5,1.22,TX-30752,32.4734233,-96.350227,61%,71%,56%,54%,50%
Greenville,Texas,28088,870,Dallas-Fort Worth-Arlington,7694138,$48979,17.8%,36,$260000,1566,$166,43,53.37%,$967,50.86%,269,2219,16.97%,5.46%,62.89%,Hunt County,20.30%,75.80%,1.21%,13.25%,56.73%,25.08%,10.0%,Central Standard Time,96,56,40,45,73,1,7.3,59,596,5.6,32.29,TX-30920,33.1116068,-96.1098601,61%,71%,56%,54%,50%
Hackberry,Texas,2426,3568,Dallas-Fort Worth-Arlington,7694138,$105741,48.22%,33,$473000,2734,$173,10,77.08%,$1684,40.06%,N/A,N/A,6.83%,3.43%,78.94%,Denton County,37.10%,57.10%,12.78%,12.82%,39.94%,32.32%,24.15%,Central Standard Time,94,55,39,40,75,1,N/A,64,596,5.6,0.68,TX-31715,33.1501112,-96.9184067,61%,71%,56%,54%,50%
Haltom City,Texas,44300,3587,Dallas-Fort Worth-Arlington,7694138,$51067,11.52%,33,$242000,1415,$171,47,52.26%,$1050,51.38%,282,2626,16.92%,4.89%,67.78%,Tarrant County,43.10%,51.70%,8.54%,7.24%,35.28%,46.68%,25.55%,Central Standard Time,96,57,39,37,77,1,N/A,37,596,5.7,12.35,TX-31928,32.8175921,-97.2706897,61%,71%,56%,54%,50%
Haslet,Texas,2276,255,Dallas-Fort Worth-Arlington,7694138,$151458,38.3%,57,$412000,2251,$183,19,95.61%,$1396,32.09%,N/A,N/A,1.72%,0.5%,59.24%,Tarrant County,43.10%,51.70%,1.85%,11.78%,74.43%,3.51%,12.08%,Central Standard Time,96,57,39,37,76,2,N/A,36,596,5.7,8.93,TX-32720,32.9609938,-97.3387497,61%,71%,56%,54%,50%
Hawk Cove,Texas,427,1154,Dallas-Fort Worth-Arlington,7694138,$30469,5.86%,47,N/A,N/A,N/A,37,81.97%,$1083,58.5%,N/A,N/A,33.72%,8.18%,45.04%,Hunt County,20.30%,75.80%,0.0%,0.7%,68.85%,20.84%,8.9%,Central Standard Time,96,55,41,44,93,1,7.3,65,596,5.6,0.37,TX-32810,32.8839731,-96.0832735,61%,71%,56%,54%,50%
Heath,Texas,9069,734,Dallas-Fort Worth-Arlington,7694138,$174154,58.15%,46,$660000,3056,$216,24,92.84%,$1944,32.8%,130,501,1.76%,4.09%,58.93%,Rockwall County,24.00%,70.80%,5.43%,0.93%,84.58%,7.2%,5.65%,Central Standard Time,95,56,39,40,81,1,N/A,62,596,5.4,12.36,TX-32984,32.8438327,-96.4674248,61%,71%,56%,54%,50%
Hebron,Texas,304,921,Dallas-Fort Worth-Arlington,7694138,$158750,54.81%,46,$770000,3850,$200,19,92.76%,$1498,38.46%,N/A,N/A,12.5%,0.49%,75.0%,Denton County,37.10%,57.10%,23.36%,14.47%,57.89%,3.29%,18.75%,Central Standard Time,96,56,40,39,75,1,N/A,55,596,5.6,0.33,TX-33020,33.0277402,-96.8935072,61%,71%,56%,54%,50%
Hickory Creek,Texas,4716,987,Dallas-Fort Worth-Arlington,7694138,$121913,47.92%,47,$384000,2021,$190,17,75.64%,$1703,39.63%,101,1155,1.76%,4.07%,79.01%,Denton County,37.10%,57.10%,8.23%,3.6%,81.87%,5.26%,6.09%,Central Standard Time,96,56,40,38,74,1,N/A,54,596,5.6,4.78,TX-33476,33.1109422,-97.030812,61%,71%,56%,54%,50%
Highland Park,Texas,9143,4082,Dallas-Fort Worth-Arlington,7694138,$218611,85.42%,44,$1800000,2951,$610,61,86.05%,$2328,32.18%,97,2075,5.45%,3.94%,56.34%,Dallas County,60.20%,34.30%,5.99%,0.25%,88.3%,3.45%,6.75%,Central Standard Time,96,57,39,38,76,2,N/A,46,596,5.7,2.24,TX-33824,32.8310563,-96.8012344,61%,71%,56%,54%,50%
Highland Village,Texas,16701,3020,Dallas-Fort Worth-Arlington,7694138,$145536,55.67%,43,$573000,2502,$229,27,94.0%,$1955,37.62%,47,645,2.17%,4.18%,68.25%,Denton County,37.10%,57.10%,2.82%,3.8%,83.27%,7.42%,5.95%,Central Standard Time,96,56,40,38,81,1,N/A,51,596,5.6,5.53,TX-33848,33.0896452,-97.0614881,61%,71%,56%,54%,50%
Horseshoe Bend,Texas,621,376,Dallas-Fort Worth-Arlington,7694138,$38792,18.1%,62,$220000,1849,$119,33,60.87%,$1334,58.22%,N/A,N/A,40.1%,0.0%,29.49%,Parker County,14.70%,81.80%,0.0%,0.0%,66.34%,33.66%,21.26%,Central Standard Time,95,56,39,36,73,0,N/A,58,596,5.5,1.65,TX-34865,32.5752361,-97.8782381,61%,71%,56%,54%,50%
Hudson Oaks,Texas,2613,843,Dallas-Fort Worth-Arlington,7694138,$115938,34.8%,42,$458000,2573,$178,27,95.06%,$636,28.83%,238,2624,1.72%,6.32%,62.54%,Parker County,14.70%,81.80%,0.0%,0.0%,82.4%,16.49%,4.09%,Central Standard Time,95,56,39,36,73,0,N/A,56,596,5.5,3.1,TX-35254,32.7508691,-97.7000667,61%,71%,56%,54%,50%
Hurst,Texas,38783,3894,Dallas-Fort Worth-Arlington,7694138,$64441,32.47%,38,$324000,1679,$193,47,56.56%,$1120,47.09%,209,3576,10.63%,3.26%,66.56%,Tarrant County,43.10%,51.70%,3.9%,9.4%,58.28%,23.83%,12.8%,Central Standard Time,95,56,39,38,77,1,N/A,44,596,5.7,9.96,TX-35576,32.835246,-97.1808224,61%,71%,56%,54%,50%
Hutchins,Texas,5804,639,Dallas-Fort Worth-Arlington,7694138,$35000,4.66%,31,$237000,1339,$177,34,59.72%,$1125,69.14%,398,3670,31.32%,6.76%,32.09%,Dallas County,60.20%,34.30%,0.22%,37.11%,19.09%,39.7%,11.41%,Central Standard Time,96,57,39,40,68,1,N/A,54,596,5.7,9.09,TX-35612,32.6421259,-96.709289,61%,71%,56%,54%,50%
Irving,Texas,240475,3590,Dallas-Fort Worth-Arlington,7694138,$66567,38.59%,32,$349000,1772,$197,36,42.67%,$1192,48.05%,251,2437,11.19%,4.3%,73.36%,Dallas County,60.20%,34.30%,20.49%,13.92%,20.28%,43.15%,39.09%,Central Standard Time,96,56,40,37,79,1,N/A,49,596,5.7,66.98,TX-37000,32.858278,-96.9701973,61%,71%,56%,54%,50%
Italy,Texas,2264,1258,Dallas-Fort Worth-Arlington,7694138,$49572,9.91%,33,$499000,2546,$196,45,55.26%,$992,52.85%,N/A,N/A,5.74%,4.53%,62.51%,Ellis County,25.40%,70.10%,0.0%,10.56%,52.92%,30.17%,8.97%,Central Standard Time,96,57,39,39,79,0,6.5,66,596,5.5,1.8,TX-37072,32.1857479,-96.8866264,61%,71%,56%,54%,50%
Josephine,Texas,1488,822,Dallas-Fort Worth-Arlington,7694138,$58750,16.03%,35,$343000,1824,$188,19,89.05%,$1114,39.76%,N/A,N/A,7.12%,1.52%,68.96%,Collin County,38.60%,55.20%,1.28%,9.41%,69.76%,14.58%,7.06%,Central Standard Time,97,56,41,41,84,1,N/A,64,596,5.6,1.81,TX-38068,33.0617663,-96.3186553,61%,71%,56%,54%,50%
Joshua,Texas,7818,854,Dallas-Fort Worth-Arlington,7694138,$57883,21.06%,32,$407000,2153,$189,34,68.89%,$1049,48.3%,73,665,9.12%,1.82%,66.7%,Johnson County,19.10%,77.00%,0.29%,0.0%,84.96%,12.61%,1.97%,Central Standard Time,96,57,39,37,79,1,N/A,52,596,5.4,9.15,TX-38080,32.4579716,-97.3848661,61%,71%,56%,54%,50%
Justin,Texas,4125,1261,Dallas-Fort Worth-Arlington,7694138,$88594,27.73%,45,$362000,1895,$191,18,87.32%,$1557,42.49%,N/A,N/A,4.44%,9.03%,72.14%,Denton County,37.10%,57.10%,1.07%,0.61%,75.1%,18.69%,4.36%,Central Standard Time,96,56,40,39,75,2,N/A,42,596,5.6,3.27,TX-38332,33.0882318,-97.3041308,61%,71%,56%,54%,50%
Kaufman,Texas,7646,845,Dallas-Fort Worth-Arlington,7694138,$49827,11.9%,32,$281000,1552,$181,44,54.97%,$1049,53.23%,224,1965,23.18%,5.49%,66.95%,Kaufman County,24.90%,71.70%,0.0%,9.42%,53.88%,35.67%,13.13%,Central Standard Time,95,56,39,40,67,1,7.3,61,596,5.5,9.05,TX-38488,32.5766556,-96.3157517,61%,71%,56%,54%,50%
Keene,Texas,6456,1302,Dallas-Fort Worth-Arlington,7694138,$44105,24.05%,29,$317000,1945,$163,38,45.75%,$859,48.64%,151,698,8.69%,3.29%,58.72%,Johnson County,19.10%,77.00%,3.07%,3.25%,54.99%,30.79%,8.98%,Central Standard Time,96,57,39,38,75,1,6.5,56,596,5.4,4.96,TX-38548,32.3955434,-97.3224575,61%,71%,56%,54%,50%
Keller,Texas,46885,2554,Dallas-Fort Worth-Arlington,7694138,$149342,57.59%,42,$600000,2632,$228,23,84.75%,$1544,32.15%,51,721,3.21%,3.32%,68.18%,Tarrant County,43.10%,51.70%,5.37%,1.83%,77.96%,11.29%,9.7%,Central Standard Time,96,57,39,39,77,1,N/A,49,596,5.7,18.36,TX-38632,32.9334953,-97.2256542,61%,71%,56%,54%,50%
Kemp,Texas,1117,524,Dallas-Fort Worth-Arlington,7694138,$39688,8.23%,37,N/A,N/A,N/A,49,51.05%,$767,48.6%,N/A,N/A,15.12%,9.72%,54.66%,Kaufman County,24.90%,71.70%,0.54%,1.7%,84.06%,12.71%,4.12%,Central Standard Time,95,57,38,41,71,0,7.3,64,596,5.5,2.13,TX-38788,32.4228456,-96.2298352,61%,71%,56%,54%,50%
Kennedale,Texas,8393,1270,Dallas-Fort Worth-Arlington,7694138,$79928,29.21%,39,$470000,3154,$149,32,70.56%,$1001,47.27%,216,1512,4.88%,2.86%,70.13%,Tarrant County,43.10%,51.70%,4.91%,14.38%,59.84%,18.88%,8.04%,Central Standard Time,95,56,39,38,73,1,N/A,44,596,5.7,6.61,TX-38896,32.6434618,-97.2172017,61%,71%,56%,54%,50%
Krugerville,Texas,1447,1096,Dallas-Fort Worth-Arlington,7694138,$107679,31.65%,51,$462000,2026,$228,26,93.43%,$1603,31.97%,N/A,N/A,0.97%,3.05%,65.84%,Denton County,37.10%,57.10%,0.76%,0.28%,94.33%,2.76%,3.8%,Central Standard Time,96,55,41,40,75,1,N/A,60,596,5.6,1.32,TX-39916,33.278955,-96.9879584,61%,71%,56%,54%,50%
Krum,Texas,5088,1972,Dallas-Fort Worth-Arlington,7694138,$72405,41.5%,34,$380000,1845,$206,18,86.42%,$1307,44.91%,N/A,N/A,3.95%,1.21%,75.83%,Denton County,37.10%,57.10%,1.73%,3.87%,76.49%,14.15%,4.68%,Central Standard Time,96,55,41,39,70,0,N/A,50,596,5.6,2.58,TX-39928,33.2655313,-97.2251607,61%,71%,56%,54%,50%
Lake Bridgeport,Texas,305,649,Dallas-Fort Worth-Arlington,7694138,$63750,24.15%,45,N/A,N/A,N/A,34,57.7%,$889,46.27%,N/A,N/A,23.61%,0.6%,66.01%,Wise County,13.80%,83.40%,0.0%,0.0%,84.92%,13.77%,3.93%,Central Standard Time,94,55,39,36,71,2,N/A,50,596,5.6,0.47,TX-40450,33.2072789,-97.8309882,61%,71%,56%,50%,46%
Lake Dallas,Texas,8004,3294,Dallas-Fort Worth-Arlington,7694138,$64805,23.59%,35,$420000,2165,$194,25,67.36%,$1205,42.33%,273,1453,7.11%,3.79%,71.93%,Denton County,37.10%,57.10%,1.12%,2.86%,55.71%,36.99%,15.69%,Central Standard Time,96,56,40,38,74,1,N/A,54,596,5.6,2.43,TX-40516,33.1278579,-97.023371,61%,71%,56%,54%,50%
Lake Worth,Texas,4932,2005,Dallas-Fort Worth-Arlington,7694138,$74792,17.13%,41,$256000,1446,$177,56,78.46%,$1126,49.87%,N/A,N/A,8.91%,5.41%,68.57%,Tarrant County,43.10%,51.70%,0.0%,0.53%,66.22%,32.2%,10.54%,Central Standard Time,96,57,39,36,79,2,N/A,31,596,5.7,2.46,TX-41056,32.812972,-97.4305473,61%,71%,56%,54%,50%
Lakeside (Tarrant Cnty),Texas,1636,935,Dallas-Fort Worth-Arlington,7694138,$88529,24.91%,47,$393000,2058,$191,51,94.66%,$1307,34.97%,185,1610,7.15%,0.51%,60.46%,Tarrant County,43.10%,51.70%,0.18%,0.55%,82.09%,11.49%,2.87%,Central Standard Time,96,57,39,36,79,2,N/A,45,596,5.7,1.75,TX-40744,32.8222501,-97.4867064,61%,71%,56%,54%,50%
Lakewood Village,Texas,555,740,Dallas-Fort Worth-Arlington,7694138,$148839,36.83%,50,N/A,N/A,N/A,20,99.28%,$1566,29.69%,N/A,N/A,6.13%,2.13%,68.05%,Denton County,37.10%,57.10%,0.9%,0.0%,84.68%,11.89%,4.5%,Central Standard Time,96,55,41,39,75,1,N/A,63,596,5.6,0.75,TX-41050,33.1378766,-96.9750839,61%,71%,56%,54%,50%
Lancaster,Texas,39264,1188,Dallas-Fort Worth-Arlington,7694138,$57832,22.81%,33,$270000,1720,$157,31,63.02%,$1193,55.3%,N/A,N/A,16.71%,6.5%,71.14%,Dallas County,60.20%,34.30%,0.83%,72.09%,10.57%,14.78%,4.84%,Central Standard Time,96,57,39,40,71,1,N/A,45,596,5.7,33.06,TX-41212,32.5922596,-96.7739443,61%,71%,56%,54%,50%
Lantana,Texas,10152,4357,Dallas-Fort Worth-Arlington,7694138,$172731,68.63%,39,$727000,3709,$196,14,95.21%,$2715,24.13%,N/A,N/A,1.3%,2.77%,65.52%,Denton County,37.10%,57.10%,4.38%,1.97%,82.62%,9.73%,12.52%,Central Standard Time,96,56,40,39,75,0,N/A,54,596,5.6,2.33,TX-41404,33.09073,-97.12416,61%,71%,56%,54%,50%
Lavon,Texas,3504,1153,Dallas-Fort Worth-Arlington,7694138,$95286,35.72%,33,$440000,2292,$192,13,87.59%,$1768,36.29%,N/A,N/A,2.45%,1.77%,80.51%,Collin County,38.60%,55.20%,1.57%,13.18%,63.98%,19.75%,7.11%,Central Standard Time,95,54,41,40,82,1,N/A,64,596,5.6,3.04,TX-41800,33.0252795,-96.4380119,61%,71%,56%,54%,50%
Lewisville,Texas,107740,2911,Dallas-Fort Worth-Arlington,7694138,$67026,32.93%,33,$408000,1907,$214,27,48.68%,$1228,51.61%,N/A,N/A,9.95%,3.35%,76.38%,Denton County,37.10%,57.10%,10.61%,12.96%,41.1%,32.1%,21.59%,Central Standard Time,96,56,40,38,77,1,N/A,47,596,5.6,37.01,TX-42508,33.045433,-96.9815749,61%,71%,56%,54%,50%
Lincoln Park,Texas,145,906,Dallas-Fort Worth-Arlington,7694138,$39688,N/A,N/A,N/A,N/A,N/A,18,30.00%,$1452,46.80%,N/A,N/A,25%,3.10%,N/A,Denton County,37.10%,57.10%,0.0%,0.0%,85.5%,13.1%,0%,Central Standard Time,96,55,41,40,75,1,N/A,62,596,5.6,0.16,TX-42808,33.2240342,-96.9726727,61%,71%,56%,54%,50%
Lipan,Texas,488,460,Dallas-Fort Worth-Arlington,7694138,$54583,13.27%,35,$390000,1057,$369,49,86.89%,$775,41.62%,N/A,N/A,9.02%,9.57%,59.38%,Hood County,15.30%,81.40%,0.0%,0.0%,86.48%,11.89%,1.64%,Central Standard Time,96,57,39,32,64,1,N/A,64,596,5.7,1.06,TX-42940,32.5186509,-98.047055,61%,71%,56%,54%,50%
Little Elm,Texas,49792,2756,Dallas-Fort Worth-Arlington,7694138,$94446,38.77%,35,$458000,2313,$198,13,71.71%,$1660,44.72%,N/A,N/A,8.2%,6.34%,74.29%,Denton County,37.10%,57.10%,8.83%,20.25%,46.67%,18.22%,17.49%,Central Standard Time,96,55,41,39,75,1,N/A,63,596,5.6,18.07,TX-43012,33.1858233,-96.9294824,61%,71%,56%,54%,50%
Lone Oak,Texas,631,568,Dallas-Fort Worth-Arlington,7694138,$51938,20.76%,32,$184000,902,$204,41,80.03%,$820,60.08%,N/A,N/A,8.58%,4.4%,62.48%,Hunt County,20.30%,75.80%,0.32%,4.91%,86.21%,1.74%,0.0%,Central Standard Time,95,55,40,44,84,1,7.3,64,596,5.6,1.11,TX-43636,32.9961029,-95.9406577,61%,71%,56%,54%,50%
Lowry Crossing,Texas,1205,465,Dallas-Fort Worth-Arlington,7694138,$92500,26.36%,48,$453000,2147,$211,30,94.94%,$1150,34.68%,N/A,N/A,6.73%,3.25%,62.3%,Collin County,38.60%,55.20%,0.58%,0.0%,80.17%,18.01%,11.7%,Central Standard Time,95,54,41,41,82,1,N/A,64,596,5.6,2.59,TX-44308,33.1710028,-96.5443303,61%,71%,56%,54%,50%
Mansfield,Texas,71419,1950,Dallas-Fort Worth-Arlington,7694138,$102388,39.91%,36,$470000,2568,$183,18,79.26%,$1447,40.37%,N/A,N/A,5.26%,3.72%,70.62%,Tarrant County,43.10%,51.70%,4.23%,22.15%,52.96%,17.07%,10.32%,Central Standard Time,96,57,39,39,73,1,N/A,48,596,5.7,36.62,TX-46452,32.5690156,-97.1212642,61%,71%,56%,54%,50%
Maypearl,Texas,1034,1277,Dallas-Fort Worth-Arlington,7694138,$60972,8.25%,30,$478000,2298,$208,37,46.81%,$1216,34.38%,N/A,N/A,4.64%,5.33%,75.33%,Ellis County,25.40%,70.10%,4.64%,3.19%,70.21%,22.34%,6.0%,Central Standard Time,96,57,39,39,79,0,6.5,65,596,5.5,0.81,TX-47268,32.313892,-97.0054809,61%,71%,56%,54%,50%
McKinney,Texas,191197,2855,Dallas-Fort Worth-Arlington,7694138,$100775,49.28%,37,$495000,2281,$217,16,69.69%,$1442,39.14%,N/A,N/A,6.94%,3.47%,70.99%,Collin County,38.60%,55.20%,9.29%,11.15%,57.98%,17.91%,16.31%,Central Standard Time,94,54,40,41,80,2,N/A,61,596,5.6,66.96,TX-45744,33.201516,-96.6669419,61%,71%,56%,54%,50%
McLendon-Chisholm,Texas,3521,282,Dallas-Fort Worth-Arlington,7694138,$155667,48.03%,43,$525000,2679,$196,16,98.1%,$1034,30.18%,N/A,N/A,0.85%,1.1%,66.11%,Rockwall County,24.00%,70.80%,1.08%,4.46%,84.18%,8.41%,2.87%,Central Standard Time,95,56,39,40,81,1,N/A,61,596,5.4,12.5,TX-45804,32.8423476,-96.3805389,61%,71%,56%,54%,50%
Melissa,Texas,10774,941,Dallas-Fort Worth-Arlington,7694138,$117750,42.15%,31,$520000,2537,$205,9,82.55%,$1942,39.29%,N/A,N/A,1.39%,4.66%,70.56%,Collin County,38.60%,55.20%,3.02%,8.19%,77.06%,9.12%,5.87%,Central Standard Time,95,54,41,42,74,1,N/A,59,596,5.6,11.45,TX-47496,33.2890941,-96.5572485,61%,71%,56%,54%,50%
Mesquite,Texas,142429,2938,Dallas-Fort Worth-Arlington,7694138,$60715,17.71%,33,$289000,1642,$176,38,61.29%,$1157,51.68%,N/A,N/A,12.2%,4.65%,68.34%,Dallas County,60.20%,34.30%,3.02%,25.28%,26.6%,42.56%,19.9%,Central Standard Time,96,57,39,40,77,1,N/A,53,596,5.7,48.48,TX-47892,32.7602086,-96.5864698,61%,71%,56%,54%,50%
Midlothian,Texas,31533,497,Dallas-Fort Worth-Arlington,7694138,$95603,31.96%,36,$459000,2272,$202,17,81.56%,$1266,36.84%,N/A,N/A,6.1%,2.82%,71.82%,Ellis County,25.40%,70.10%,0.56%,6.56%,74.47%,13.52%,4.0%,Central Standard Time,95,57,38,39,80,0,N/A,61,596,5.5,63.5,TX-48096,32.4668552,-96.988994,61%,71%,56%,54%,50%
Milford,Texas,934,380,Dallas-Fort Worth-Arlington,7694138,$34531,7.0%,40,$400000,1569,$255,63,56.53%,$775,46.69%,N/A,N/A,16.27%,7.21%,55.83%,Ellis County,25.40%,70.10%,0.0%,18.63%,62.74%,12.31%,0.43%,Central Standard Time,96,58,38,39,73,0,6.5,66,596,5.5,2.46,TX-48408,32.1213867,-96.9497881,61%,71%,56%,56%,50%
Millsap,Texas,305,207,Dallas-Fort Worth-Arlington,7694138,$36000,16.06%,51,$640000,2215,$289,50,84.26%,$850,44.49%,N/A,N/A,22.95%,5.43%,50.78%,Parker County,14.70%,81.80%,0.98%,0.0%,72.79%,23.61%,4.59%,Central Standard Time,95,57,38,33,69,1,N/A,60,596,5.5,1.47,TX-48564,32.7492507,-98.0116525,61%,71%,56%,54%,50%
Mobile City,Texas,206,10300,Dallas-Fort Worth-Arlington,7694138,$38043,2.61%,26,N/A,N/A,N/A,34,19.42%,$940,92.37%,N/A,N/A,45.63%,0.0%,62.71%,Rockwall County,24.00%,70.80%,0.0%,0.0%,17.48%,82.52%,22.33%,Central Standard Time,96,55,41,40,82,1,N/A,61,596,5.4,0.02,TX-48858,32.9228316,-96.4111491,61%,71%,56%,54%,50%
Murphy,Texas,20711,3640,Dallas-Fort Worth-Arlington,7694138,$140828,54.63%,40,$524000,2848,$184,16,86.07%,$2150,33.62%,N/A,N/A,3.43%,5.15%,69.7%,Collin County,38.60%,55.20%,27.45%,13.73%,50.81%,4.85%,24.92%,Central Standard Time,96,55,41,40,87,1,N/A,63,596,5.6,5.69,TX-50100,33.0186276,-96.6105188,61%,71%,56%,54%,50%
Nevada,Texas,872,365,Dallas-Fort Worth-Arlington,7694138,$100250,29.56%,43,$460000,2514,$183,18,91.51%,$1083,31.13%,N/A,N/A,7.22%,4.02%,69.97%,Collin County,38.60%,55.20%,1.61%,2.06%,81.31%,12.27%,6.42%,Central Standard Time,96,56,40,40,85,1,N/A,64,596,5.6,2.39,TX-50760,33.0385804,-96.3693915,61%,71%,56%,54%,50%
New Hope,Texas,600,420,Dallas-Fort Worth-Arlington,7694138,$73750,32.2%,52,$370000,1652,$224,35,86.33%,$1468,38.82%,N/A,N/A,3.85%,3.09%,57.28%,Collin County,38.60%,55.20%,2.5%,0.5%,71.33%,13.83%,11.83%,Central Standard Time,95,54,41,41,78,2,N/A,63,596,5.6,1.43,TX-51036,33.2115302,-96.5634944,61%,71%,56%,54%,50%
Newark,Texas,1180,1311,Dallas-Fort Worth-Arlington,7694138,$50521,11.76%,32,$110000,1310,$84,30,61.44%,$876,41.22%,N/A,N/A,25.61%,5.02%,64.88%,Wise County,13.80%,83.40%,0.85%,0.25%,52.03%,43.14%,16.44%,Central Standard Time,97,57,40,38,76,2,N/A,39,596,5.6,0.9,TX-50772,32.9995153,-97.488418,61%,71%,56%,54%,50%
Neylandville,Texas,170,531,Dallas-Fort Worth-Arlington,7694138,$47750,0.0%,30,N/A,N/A,N/A,52,21.76%,$1138,33.68%,N/A,N/A,0.0%,0.0%,54.74%,Hunt County,20.30%,75.80%,0.0%,32.35%,7.65%,58.24%,7.65%,Central Standard Time,96,56,40,45,73,1,7.3,64,596,5.6,0.32,TX-51444,33.1967331,-96.0055665,61%,71%,56%,54%,50%
North Richland Hills,Texas,70585,3887,Dallas-Fort Worth-Arlington,7694138,$75563,35.39%,40,$385000,1878,$205,35,67.7%,$1209,45.13%,N/A,N/A,6.62%,3.78%,68.48%,Tarrant County,43.10%,51.70%,3.49%,6.03%,69.11%,17.74%,10.24%,Central Standard Time,95,56,39,38,78,1,N/A,43,596,5.7,18.16,TX-52356,32.8604816,-97.2179901,61%,71%,56%,54%,50%
Northlake,Texas,3182,180,Dallas-Fort Worth-Arlington,7694138,$92750,43.67%,38,$595000,2861,$208,11,56.19%,$1204,57.78%,N/A,N/A,4.78%,3.13%,81.15%,Denton County,37.10%,57.10%,4.75%,5.09%,74.32%,9.96%,3.87%,Central Standard Time,96,56,40,39,77,1,N/A,42,596,5.6,17.66,TX-52212,33.0810057,-97.2547506,61%,71%,56%,54%,50%
Oak Leaf,Texas,1793,760,Dallas-Fort Worth-Arlington,7694138,$125000,33.66%,52,$335000,2134,$157,35,89.71%,$1700,32.17%,N/A,N/A,0.73%,9.65%,59.56%,Ellis County,25.40%,70.10%,3.12%,12.49%,63.75%,18.91%,5.97%,Central Standard Time,95,57,38,40,76,0,N/A,59,596,5.5,2.36,TX-53115,32.5073519,-96.865219,61%,71%,56%,54%,50%
Oak Point,Texas,5077,866,Dallas-Fort Worth-Arlington,7694138,$102946,36.7%,35,$570000,2591,$220,18,85.76%,$2167,36.31%,N/A,N/A,1.27%,2.3%,64.97%,Denton County,37.10%,57.10%,2.6%,5.08%,70.67%,16.13%,11.48%,Central Standard Time,96,55,41,39,75,1,N/A,63,596,5.6,5.86,TX-53130,33.1795131,-96.9907522,61%,71%,56%,54%,50%
Oak Ridge (Kaufman Cnty),Texas,524,173,Dallas-Fort Worth-Arlington,7694138,$83750,14.75%,40,$449000,2128,$211,20,95.04%,$794,40.34%,N/A,N/A,11.48%,5.26%,60.39%,Kaufman County,24.90%,71.70%,0.0%,10.88%,72.14%,15.84%,6.3%,Central Standard Time,96,56,40,41,70,1,7.3,60,596,5.5,3.03,TX-53160,32.6347258,-96.252563,61%,71%,56%,54%,50%
Oak Trail Shores,Texas,2698,1062,Dallas-Fort Worth-Arlington,7694138,$29363,11.64%,37,$245000,1441,$170,38,82.21%,$897,44.16%,N/A,N/A,16.42%,8.12%,56.44%,Hood County,15.30%,81.40%,0.0%,0.0%,72.72%,27.28%,6.12%,Central Standard Time,97,58,39,35,73,0,N/A,59,596,5.7,2.54,TX-53212,32.4884789,-97.8356571,61%,71%,56%,54%,50%
Palmer,Texas,2540,817,Dallas-Fort Worth-Arlington,7694138,$65588,9.58%,31,$314000,1610,$195,38,65.67%,$1273,44.16%,N/A,N/A,12.5%,1.0%,70.79%,Ellis County,25.40%,70.10%,0.0%,1.61%,43.27%,50.98%,12.44%,Central Standard Time,96,57,39,40,74,1,N/A,63,596,5.5,3.11,TX-54744,32.4258929,-96.6723903,61%,71%,56%,54%,50%
Paloma Creek,Texas,3015,6554,Dallas-Fort Worth-Arlington,7694138,$92602,29.19%,33,$335000,2018,$166,15,79.04%,$1573,32.92%,N/A,N/A,4.54%,3.02%,80.85%,Denton County,37.10%,57.10%,2.89%,17.48%,54.63%,21.0%,2.82%,Central Standard Time,96,55,41,40,75,1,N/A,63,596,5.6,0.46,TX-54868,33.225336,-96.9369974,61%,71%,56%,54%,50%
Paloma Creek South,Texas,7299,5793,Dallas-Fort Worth-Arlington,7694138,$115822,49.34%,34,$395000,2090,$189,8,86.75%,$1772,46.44%,N/A,N/A,4.52%,2.25%,80.18%,Denton County,37.10%,57.10%,4.23%,23.52%,57.98%,7.04%,11.59%,Central Standard Time,96,55,41,39,75,1,N/A,63,596,5.6,1.26,TX-54872,33.2100196,-96.9326858,61%,71%,56%,54%,50%
Pantego,Texas,2479,2384,Dallas-Fort Worth-Arlington,7694138,$66250,42.01%,47,$313000,1692,$185,45,69.34%,$1309,46.33%,N/A,N/A,8.34%,8.86%,59.16%,Tarrant County,43.10%,51.70%,1.01%,4.56%,80.35%,10.33%,6.74%,Central Standard Time,95,57,38,40,77,1,N/A,44,596,5.7,1.04,TX-55020,32.7148839,-97.1538821,61%,71%,56%,54%,50%
Paradise,Texas,502,250,Dallas-Fort Worth-Arlington,7694138,$50000,10.53%,37,$395000,1771,$223,36,53.59%,$863,46.91%,N/A,N/A,12.95%,3.33%,55.56%,Wise County,13.80%,83.40%,0.0%,0.0%,72.31%,26.69%,7.97%,Central Standard Time,95,56,39,37,72,2,N/A,53,596,5.6,2.01,TX-55056,33.1503399,-97.6887282,61%,71%,56%,54%,50%
Parker,Texas,4920,577,Dallas-Fort Worth-Arlington,7694138,$168811,56.2%,40,$893000,3675,$243,18,98.39%,N/A,35.3%,N/A,N/A,2.36%,2.28%,61.8%,Collin County,38.60%,55.20%,14.21%,9.63%,60.43%,14.63%,16.32%,Central Standard Time,95,54,41,41,85,1,N/A,63,596,5.6,8.52,TX-55152,33.0570059,-96.6244721,61%,71%,56%,54%,50%
Pecan Acres,Texas,4245,225,Dallas-Fort Worth-Arlington,7694138,$104860,37.31%,44,$730000,3744,$195,16,93.52%,$842,37.31%,N/A,N/A,14.4%,8.9%,57.08%,Tarrant County,43.10%,51.70%,0.0%,0.0%,83.37%,15.12%,3.44%,Central Standard Time,96,56,40,38,78,2,N/A,33,596,5.6,18.88,TX-56462,32.9703804,-97.4724663,61%,71%,56%,54%,50%
Pecan Hill,Texas,570,268,Dallas-Fort Worth-Arlington,7694138,$86250,11.85%,49,N/A,N/A,N/A,36,87.89%,$1359,44.1%,N/A,N/A,4.92%,4.02%,67.57%,Ellis County,25.40%,70.10%,0.35%,3.16%,66.67%,29.3%,8.6%,Central Standard Time,96,57,39,40,74,1,N/A,58,596,5.5,2.13,TX-56485,32.490714,-96.7813326,61%,71%,56%,54%,50%
Pecan Plantation,Texas,6627,892,Dallas-Fort Worth-Arlington,7694138,$98152,41.5%,62,$425000,2157,$197,22,96.45%,$1409,27.15%,N/A,N/A,2.97%,21.29%,43.17%,Hood County,15.30%,81.40%,1.77%,0.0%,92.11%,1.39%,3.5%,Central Standard Time,97,58,39,34,70,0,6.5,48,596,5.7,7.43,TX-56498,32.3628087,-97.6553227,61%,71%,56%,54%,50%
Pelican Bay,Texas,1618,2415,Dallas-Fort Worth-Arlington,7694138,$39844,5.1%,31,$255000,1301,$196,29,48.21%,$1035,54.32%,N/A,N/A,21.5%,11.18%,52.83%,Tarrant County,43.10%,51.70%,0.37%,0.37%,73.49%,24.17%,1.36%,Central Standard Time,96,57,39,37,79,2,N/A,31,596,5.7,0.67,TX-56640,32.9227504,-97.5189215,61%,71%,56%,54%,50%
Pilot Point,Texas,4457,1025,Dallas-Fort Worth-Arlington,7694138,$61520,27.1%,36,$270000,1677,$161,32,57.74%,$1077,51.83%,N/A,N/A,13.54%,9.55%,70.03%,Denton County,37.10%,57.10%,0.0%,4.08%,60.8%,32.06%,14.18%,Central Standard Time,96,55,41,41,66,2,N/A,60,596,5.6,4.35,TX-57476,33.3950725,-96.9497033,61%,71%,56%,54%,50%
Plano,Texas,288870,4029,Dallas-Fort Worth-Arlington,7694138,$96348,57.65%,39,$486000,2271,$214,28,63.17%,$1447,41.99%,N/A,N/A,6.29%,4.01%,69.66%,Collin County,38.60%,55.20%,21.77%,8.64%,51.3%,14.99%,27.44%,Central Standard Time,95,55,40,41,80,2,N/A,55,596,5.6,71.69,TX-58016,33.0502359,-96.7486867,61%,71%,56%,54%,50%
Ponder,Texas,2394,708,Dallas-Fort Worth-Arlington,7694138,$73971,28.06%,33,$385000,2104,$183,15,86.88%,$1560,36.09%,N/A,N/A,3.06%,8.63%,73.26%,Denton County,37.10%,57.10%,1.25%,12.16%,66.29%,18.09%,3.97%,Central Standard Time,96,56,40,39,73,1,N/A,44,596,5.6,3.38,TX-58664,33.178129,-97.290976,61%,71%,56%,54%,50%
Post Oak Bend City,Texas,515,251,Dallas-Fort Worth-Arlington,7694138,$95500,19.23%,36,N/A,N/A,N/A,20,91.46%,$1115,24.21%,N/A,N/A,10.29%,4.11%,72.28%,Kaufman County,24.90%,71.70%,0.0%,6.41%,82.72%,10.1%,2.52%,Central Standard Time,95,56,39,40,67,1,7.3,63,596,5.5,2.05,TX-59066,32.6330231,-96.3185963,61%,71%,56%,54%,50%
Princeton,Texas,12208,1209,Dallas-Fort Worth-Arlington,7694138,$80323,23.46%,33,$350000,1832,$191,14,74.25%,$1426,42.27%,N/A,N/A,8.26%,3.08%,71.96%,Collin County,38.60%,55.20%,2.51%,15.94%,49.77%,29.81%,18.34%,Central Standard Time,95,54,41,41,83,1,N/A,64,596,5.6,10.1,TX-59576,33.1760836,-96.487484,61%,71%,56%,54%,50%
Prosper,Texas,25887,1027,Dallas-Fort Worth-Arlington,7694138,$153777,62.34%,36,$793000,3263,$243,8,90.68%,$1634,27.49%,N/A,N/A,2.46%,3.08%,69.67%,Collin County,38.60%,55.20%,6.12%,7.96%,73.37%,8.45%,9.61%,Central Standard Time,95,54,41,41,75,1,N/A,63,596,5.6,25.2,TX-59696,33.2394348,-96.8087281,61%,71%,56%,54%,50%
Providence Village,Texas,7345,3992,Dallas-Fort Worth-Arlington,7694138,$96563,37.63%,32,$352000,1913,$184,12,69.48%,$1840,37.89%,N/A,N/A,9.8%,2.33%,76.45%,Denton County,37.10%,57.10%,0.35%,7.07%,73.79%,17.07%,2.72%,Central Standard Time,96,55,41,40,75,1,N/A,63,596,4,1.84,TX-59748,33.2380029,-96.9581271,61%,71%,56%,54%,50%
Quinlan,Texas,1758,1363,Dallas-Fort Worth-Arlington,7694138,$41250,21.31%,40,$255000,1371,$186,40,63.31%,$737,47.44%,N/A,N/A,13.11%,7.5%,57.26%,Hunt County,20.30%,75.80%,1.82%,1.42%,84.41%,7.22%,1.19%,Central Standard Time,96,55,41,44,93,1,7.3,65,596,5.6,1.29,TX-60140,32.9089743,-96.1312971,61%,71%,56%,54%,50%
Red Oak,Texas,13010,846,Dallas-Fort Worth-Arlington,7694138,$78646,28.77%,34,$385000,2059,$187,19,72.16%,$1215,44.91%,N/A,N/A,7.2%,2.46%,73.56%,Ellis County,25.40%,70.10%,2.36%,31.25%,40.29%,21.79%,8.6%,Central Standard Time,96,57,39,40,76,0,N/A,57,596,5.5,15.37,TX-61196,32.517411,-96.8027474,61%,71%,56%,54%,50%
Rendon,Texas,13294,540,Dallas-Fort Worth-Arlington,7694138,$85307,26.9%,41,$520000,2453,$212,30,79.47%,$892,42.08%,N/A,N/A,7.22%,5.38%,57.71%,Tarrant County,43.10%,51.70%,0.17%,5.25%,75.38%,17.43%,3.16%,Central Standard Time,96,57,39,37,75,1,N/A,40,596,5.7,24.63,TX-61568,32.5788566,-97.2348893,61%,71%,56%,54%,50%
Reno (Parker Cnty),Texas,3106,235,Dallas-Fort Worth-Arlington,7694138,$61591,12.03%,40,$287000,1527,$188,32,67.51%,$846,55.33%,N/A,N/A,13.45%,8.21%,58.07%,Parker County,14.70%,81.80%,0.1%,1.29%,85.19%,10.91%,3.19%,Central Standard Time,96,56,40,37,77,2,N/A,47,596,5.5,13.2,TX-61604,32.9459828,-97.5765811,61%,71%,56%,54%,50%
Rhome,Texas,1748,381,Dallas-Fort Worth-Arlington,7694138,$70781,18.1%,33,$295000,1490,$198,22,80.78%,$950,42.88%,N/A,N/A,7.91%,3.75%,72.91%,Wise County,13.80%,83.40%,0.0%,0.51%,80.55%,18.36%,4.86%,Central Standard Time,96,56,40,39,75,1,N/A,40,596,5.6,4.59,TX-61700,33.0441774,-97.439131,61%,71%,56%,54%,50%
Richland Hills,Texas,7999,2547,Dallas-Fort Worth-Arlington,7694138,$64038,18.68%,44,$310000,1658,$187,62,72.1%,$1092,48.65%,N/A,N/A,2.78%,2.22%,68.83%,Tarrant County,43.10%,51.70%,2.4%,2.58%,62.08%,27.69%,9.73%,Central Standard Time,95,56,39,38,77,2,N/A,41,596,5.7,3.14,TX-61844,32.8094572,-97.2272773,61%,71%,56%,54%,50%
Rio Vista,Texas,1035,986,Dallas-Fort Worth-Arlington,7694138,$55769,10.57%,37,N/A,N/A,N/A,32,71.11%,$909,45.05%,N/A,N/A,5.04%,2.24%,72.32%,Johnson County,19.10%,77.00%,0.0%,0.0%,96.33%,1.93%,0.0%,Central Standard Time,96,57,39,37,73,1,6.5,61,596,5.4,1.05,TX-62240,32.235226,-97.3746534,61%,71%,56%,56%,50%
River Oaks,Texas,7653,3789,Dallas-Fort Worth-Arlington,7694138,$58696,13.64%,40,$266000,1454,$183,69,69.46%,$1108,53.17%,N/A,N/A,8.18%,2.61%,60.1%,Tarrant County,43.10%,51.70%,0.38%,0.5%,39.19%,59.49%,14.13%,Central Standard Time,96,57,39,36,79,2,N/A,32,596,5.7,2.02,TX-62384,32.7766769,-97.3984229,61%,71%,56%,54%,50%
Roanoke,Texas,8810,1279,Dallas-Fort Worth-Arlington,7694138,$100888,42.27%,37,$599000,3041,$197,16,69.28%,$1365,40.27%,N/A,N/A,2.35%,3.39%,75.69%,Denton County,37.10%,57.10%,5.64%,4.48%,65.54%,20.33%,13.17%,Central Standard Time,96,56,40,39,79,1,N/A,45,596,5.6,6.89,TX-62504,33.0144102,-97.2275903,61%,71%,56%,54%,50%
Rockwall,Texas,45168,1533,Dallas-Fort Worth-Arlington,7694138,$100894,45.85%,39,$475000,2399,$198,18,79.85%,$1338,37.07%,N/A,N/A,3.48%,3.36%,68.64%,Rockwall County,24.00%,70.80%,3.7%,7.14%,70.4%,15.9%,9.2%,Central Standard Time,96,56,40,40,81,1,N/A,55,596,5.4,29.47,TX-62828,32.9169231,-96.4374156,61%,71%,56%,54%,50%
Rosser,Texas,505,264,Dallas-Fort Worth-Arlington,7694138,$72778,1.93%,40,N/A,N/A,N/A,36,90.3%,$540,38.42%,N/A,N/A,8.73%,8.42%,75.4%,Kaufman County,24.90%,71.70%,0.0%,35.45%,34.65%,14.06%,1.39%,Central Standard Time,96,57,39,40,69,1,N/A,64,596,5.5,1.91,TX-63404,32.4604148,-96.4523975,61%,71%,56%,54%,50%
Rowlett,Texas,65426,3153,Dallas-Fort Worth-Arlington,7694138,$103627,35.68%,39,$400000,2139,$187,26,82.47%,$1602,38.58%,N/A,N/A,6.28%,4.33%,71.92%,Dallas County,60.20%,34.30%,6.7%,20.39%,49.87%,19.91%,15.57%,Central Standard Time,96,56,40,40,86,1,N/A,63,596,5.7,20.75,TX-63572,32.9155059,-96.5488954,61%,71%,56%,54%,50%
Royse City,Texas,13773,753,Dallas-Fort Worth-Arlington,7694138,$91550,26.44%,31,$373000,2027,$184,16,83.97%,$1679,37.23%,N/A,N/A,4.75%,2.0%,72.7%,Rockwall County,24.00%,70.80%,0.73%,8.26%,67.36%,20.67%,8.39%,Central Standard Time,96,56,40,41,81,1,N/A,62,596,5.4,18.3,TX-63668,32.9762253,-96.3174673,61%,71%,56%,54%,50%
Runaway Bay,Texas,1724,684,Dallas-Fort Worth-Arlington,7694138,$73947,31.82%,52,$350000,1955,$179,39,78.31%,$939,39.27%,N/A,N/A,7.58%,6.67%,56.61%,Wise County,13.80%,83.40%,0.23%,0.23%,92.11%,7.42%,1.86%,Central Standard Time,94,55,39,36,71,2,N/A,61,596,5.6,2.52,TX-63782,33.1773604,-97.8709567,61%,71%,56%,50%,46%
Sachse,Texas,25888,2650,Dallas-Fort Worth-Arlington,7694138,$109098,36.98%,40,$474000,2521,$188,17,90.07%,$1444,39.74%,N/A,N/A,3.74%,4.92%,70.99%,Dallas County,60.20%,34.30%,19.11%,9.43%,53.18%,15.04%,22.79%,Central Standard Time,96,55,41,40,87,1,N/A,62,596,5.7,9.77,TX-64064,32.972566,-96.5792715,61%,71%,56%,54%,50%
Saginaw,Texas,23835,3116,Dallas-Fort Worth-Arlington,7694138,$89533,24.14%,36,$342000,1954,$175,22,78.06%,$1378,46.17%,N/A,N/A,4.18%,3.22%,68.63%,Tarrant County,43.10%,51.70%,1.24%,4.6%,55.94%,35.68%,8.2%,Central Standard Time,96,56,40,37,79,2,N/A,29,596,5.7,7.65,TX-64112,32.8657491,-97.3654075,61%,71%,56%,54%,50%
Sanctuary,Texas,252,293,Dallas-Fort Worth-Arlington,7694138,$77917,12.37%,45,N/A,N/A,N/A,50,80.95%,$733,42.99%,N/A,N/A,7.54%,3.6%,63.47%,Parker County,14.70%,81.80%,0.0%,0.0%,90.08%,6.75%,2.38%,Central Standard Time,96,57,39,37,79,2,N/A,46,596,5.5,0.86,TX-65066,32.9131582,-97.58767,61%,71%,56%,54%,50%
Sanger,Texas,8535,726,Dallas-Fort Worth-Arlington,7694138,$71447,25.03%,34,$280000,1481,$189,22,69.07%,$1179,45.51%,N/A,N/A,10.16%,3.01%,70.51%,Denton County,37.10%,57.10%,0.46%,3.88%,71.31%,22.25%,6.83%,Central Standard Time,96,55,41,40,69,1,N/A,54,596,5.6,11.76,TX-65408,33.3715482,-97.1678353,61%,71%,56%,54%,50%
Sansom Park,Texas,5593,4510,Dallas-Fort Worth-Arlington,7694138,$55465,5.45%,31,$205000,1847,$111,62,56.05%,$961,60.76%,N/A,N/A,18.16%,5.94%,65.78%,Tarrant County,43.10%,51.70%,0.23%,3.45%,29.41%,63.95%,16.34%,Central Standard Time,96,57,39,36,79,2,N/A,34,596,5.7,1.24,TX-65660,32.8027381,-97.4020642,61%,71%,56%,54%,50%
Savannah,Texas,5708,5885,Dallas-Fort Worth-Arlington,7694138,$117326,50.54%,36,$380000,2111,$180,12,82.97%,$1859,35.08%,N/A,N/A,4.91%,4.63%,75.15%,Denton County,37.10%,57.10%,0.44%,13.45%,69.43%,14.24%,9.76%,Central Standard Time,96,55,41,40,75,1,N/A,63,596,5.6,0.97,TX-66000,33.2257382,-96.9081253,61%,71%,56%,54%,50%
Scurry,Texas,442,229,Dallas-Fort Worth-Arlington,7694138,$80833,31.23%,35,$479000,2617,$183,32,88.7%,$1167,37.72%,N/A,N/A,7.98%,0.93%,63.31%,Kaufman County,24.90%,71.70%,0.0%,9.05%,83.03%,4.75%,0.23%,Central Standard Time,96,57,39,40,69,1,N/A,64,596,5.5,1.93,TX-66368,32.51231,-96.3848506,61%,71%,56%,54%,50%
Seagoville,Texas,16726,890,Dallas-Fort Worth-Arlington,7694138,$62038,10.67%,34,$300000,1622,$185,31,77.82%,$1121,56.59%,N/A,N/A,14.42%,6.53%,51.56%,Dallas County,60.20%,34.30%,0.35%,15.17%,31.99%,50.43%,17.5%,Central Standard Time,96,57,39,41,70,1,N/A,60,596,5.7,18.79,TX-66428,32.6530429,-96.545573,61%,71%,56%,54%,50%
Shady Shores,Texas,2888,897,Dallas-Fort Worth-Arlington,7694138,$117083,46.21%,44,$375000,1777,$211,24,84.8%,$1679,36.26%,N/A,N/A,6.75%,3.92%,64.58%,Denton County,37.10%,57.10%,3.84%,0.76%,77.67%,15.1%,8.21%,Central Standard Time,96,55,41,38,75,1,N/A,55,596,5.6,3.22,TX-67100,33.1632251,-97.0401418,61%,71%,56%,54%,50%
Southlake,Texas,31684,1451,Dallas-Fort Worth-Arlington,7694138,$223621,68.89%,42,$1105000,3299,$335,24,95.24%,$1337,28.16%,N/A,N/A,1.92%,2.21%,62.49%,Tarrant County,43.10%,51.70%,17.62%,1.27%,71.25%,7.48%,15.17%,Central Standard Time,96,56,40,39,79,1,N/A,49,596,5.7,21.83,TX-69032,32.9544799,-97.1503154,61%,71%,56%,54%,50%
Springtown,Texas,3059,1006,Dallas-Fort Worth-Arlington,7694138,$58929,15.96%,32,$305000,1649,$185,37,60.25%,$1146,50.99%,N/A,N/A,11.54%,1.43%,70.89%,Parker County,14.70%,81.80%,0.1%,0.0%,89.6%,4.51%,1.11%,Central Standard Time,95,56,39,37,71,1,N/A,56,596,5.5,3.04,TX-69800,32.969301,-97.6804245,61%,71%,56%,54%,50%
St. Paul,Texas,725,507,Dallas-Fort Worth-Arlington,7694138,$115893,40.33%,42,N/A,N/A,N/A,25,92.69%,$1750,32.2%,N/A,N/A,8.0%,2.67%,68.17%,Collin County,38.60%,55.20%,0.83%,1.52%,72.83%,21.38%,9.24%,Central Standard Time,96,55,41,40,87,1,N/A,64,596,5.6,1.43,TX-64220,33.043798,-96.5505056,61%,71%,56%,54%,50%
Sunnyvale,Texas,6664,403,Dallas-Fort Worth-Arlington,7694138,$134080,49.71%,41,$685000,3892,$176,17,90.04%,$963,36.03%,N/A,N/A,7.34%,6.12%,70.21%,Dallas County,60.20%,34.30%,21.5%,11.51%,50.38%,12.47%,19.19%,Central Standard Time,96,56,40,40,75,1,N/A,58,596,5.7,16.52,TX-71156,32.7973937,-96.557661,61%,71%,56%,54%,50%
Talty,Texas,2597,766,Dallas-Fort Worth-Arlington,7694138,$125893,36.59%,38,$850000,3373,$252,18,97.23%,$2643,30.77%,N/A,N/A,1.24%,1.12%,68.83%,Kaufman County,24.90%,71.70%,0.0%,9.13%,67.81%,22.06%,3.85%,Central Standard Time,96,56,40,42,70,1,N/A,61,596,5.5,3.39,TX-71756,32.6944377,-96.400756,61%,71%,56%,54%,50%
Terrell,Texas,18513,687,Dallas-Fort Worth-Arlington,7694138,$53136,17.01%,36,$287000,1586,$181,38,55.55%,$1038,56.93%,N/A,N/A,18.0%,6.84%,64.06%,Kaufman County,24.90%,71.70%,0.19%,25.59%,43.18%,28.16%,7.03%,Central Standard Time,95,56,39,42,67,1,7.3,56,596,5.5,26.95,TX-72284,32.7341211,-96.2931425,61%,71%,56%,54%,50%
The Colony,Texas,43791,3126,Dallas-Fort Worth-Arlington,7694138,$87748,42.05%,35,$469000,2244,$209,23,66.27%,$1481,46.93%,N/A,N/A,5.66%,3.45%,78.88%,Denton County,37.10%,57.10%,6.42%,11.43%,56.28%,20.66%,11.71%,Central Standard Time,95,56,39,39,75,1,N/A,59,596,5.6,14.01,TX-72530,33.092543,-96.8976612,61%,71%,56%,54%,50%
Tolar,Texas,1201,1278,Dallas-Fort Worth-Arlington,7694138,$88000,27.33%,27,$1025000,1200,$854,20,83.3%,$1250,34.95%,N/A,N/A,8.54%,6.72%,67.11%,Hood County,15.30%,81.40%,1.5%,0.67%,93.34%,3.66%,0.0%,Central Standard Time,97,58,39,34,64,1,6.5,63,596,5.7,0.94,TX-73268,32.3894839,-97.9191392,61%,71%,56%,56%,50%
Travis Ranch,Texas,6164,5094,Dallas-Fort Worth-Arlington,7694138,$75870,28.01%,30,$342000,2036,$168,11,91.52%,$1953,41.44%,N/A,N/A,10.16%,2.27%,66.12%,Kaufman County,24.90%,71.70%,2.89%,24.29%,47.65%,23.2%,7.28%,Central Standard Time,96,57,39,42,74,1,N/A,63,596,5.5,1.21,TX-73562,32.8014392,-96.4774536,61%,71%,56%,54%,50%
Trophy Club,Texas,11904,2991,Dallas-Fort Worth-Arlington,7694138,$155635,62.57%,39,$850000,3571,$238,22,93.2%,$1454,31.01%,N/A,N/A,2.08%,4.14%,72.83%,Denton County,37.10%,57.10%,5.42%,2.05%,80.43%,10.15%,10.9%,Central Standard Time,96,56,40,39,79,1,N/A,52,596,5.6,3.98,TX-73710,32.9986502,-97.192251,61%,71%,56%,54%,50%
Union Valley,Texas,528,215,Dallas-Fort Worth-Arlington,7694138,$69750,30.15%,40,N/A,N/A,N/A,19,97.54%,$1440,16.57%,N/A,N/A,15.58%,2.71%,62.25%,Hunt County,20.30%,75.80%,0.0%,0.0%,67.99%,30.68%,9.28%,Central Standard Time,96,56,40,41,83,1,7.3,65,596,5.6,2.46,TX-74372,32.9199007,-96.244779,61%,71%,56%,54%,50%
University Park,Texas,25027,6782,Dallas-Fort Worth-Arlington,7694138,$247716,88.75%,35,$1275000,2591,$492,34,84.88%,$2095,41.0%,N/A,N/A,3.91%,4.44%,60.02%,Dallas County,60.20%,34.30%,5.65%,1.87%,84.04%,5.43%,7.0%,Central Standard Time,96,57,39,38,77,2,N/A,44,596,5.7,3.69,TX-74492,32.8506099,-96.7937556,61%,71%,56%,54%,50%
Venus,Texas,4027,1299,Dallas-Fort Worth-Arlington,7694138,$85938,13.41%,32,$304000,1652,$184,17,90.05%,$1029,51.04%,N/A,N/A,7.3%,1.96%,47.31%,Johnson County,19.10%,77.00%,0.32%,12.57%,52.59%,32.98%,3.13%,Central Standard Time,96,57,39,39,79,0,N/A,52,596,5.4,3.1,TX-75236,32.4319159,-97.1019714,61%,71%,56%,54%,50%
Watauga,Texas,24487,5886,Dallas-Fort Worth-Arlington,7694138,$75648,21.1%,35,$279000,1468,$190,36,72.33%,$1446,46.25%,N/A,N/A,12.29%,3.98%,71.39%,Tarrant County,43.10%,51.70%,8.6%,5.96%,60.22%,22.84%,11.62%,Central Standard Time,96,57,39,38,77,1,N/A,44,596,5.7,4.16,TX-76672,32.8718532,-97.251505,61%,71%,56%,54%,50%
Waxahachie,Texas,36735,742,Dallas-Fort Worth-Arlington,7694138,$68496,24.26%,32,$370000,2033,$182,25,61.45%,$1129,49.48%,N/A,N/A,9.11%,2.93%,66.11%,Ellis County,25.40%,70.10%,0.78%,12.72%,57.93%,27.28%,6.28%,Central Standard Time,96,57,39,39,73,1,N/A,52,596,5.5,49.5,TX-76816,32.4035295,-96.8446172,61%,71%,56%,54%,50%
Weatherford,Texas,32110,1184,Dallas-Fort Worth-Arlington,7694138,$68184,21.53%,37,$342000,1754,$195,28,63.95%,$1093,45.98%,N/A,N/A,8.74%,3.56%,60.68%,Parker County,14.70%,81.80%,0.57%,3.34%,76.22%,16.01%,7.03%,Central Standard Time,95,56,39,35,75,1,N/A,47,596,5.5,27.12,TX-76864,32.7538177,-97.7723974,61%,71%,56%,54%,50%
West Tawakoni,Texas,1985,704,Dallas-Fort Worth-Arlington,7694138,$46688,7.98%,46,$250000,1515,$165,32,66.6%,$997,55.26%,N/A,N/A,20.63%,10.81%,51.78%,Hunt County,20.30%,75.80%,1.56%,0.65%,82.07%,13.3%,5.19%,Central Standard Time,96,55,41,44,93,1,7.3,65,596,5.6,2.82,TX-77896,32.8897404,-96.0221955,61%,71%,56%,54%,50%
Western Lake,Texas,509,147,Dallas-Fort Worth-Arlington,7694138,$28544,4.81%,55,N/A,N/A,N/A,18,70.33%,$1334,72.85%,N/A,N/A,30.06%,50.8%,68.65%,Parker County,14.70%,81.80%,3.93%,0.0%,36.94%,55.4%,44.79%,Central Standard Time,95,56,39,36,73,0,N/A,58,596,5.5,3.47,TX-77490,32.6215142,-97.8160429,61%,71%,56%,54%,50%
Westlake,Texas,1511,220,Dallas-Fort Worth-Arlington,7694138,$244063,71.49%,44,$3900000,5972,$653,12,89.48%,N/A,28.32%,N/A,N/A,4.43%,1.75%,60.83%,Tarrant County,43.10%,51.70%,9.27%,0.4%,78.76%,8.14%,6.15%,Central Standard Time,96,56,40,39,79,1,N/A,51,596,5.7,6.88,TX-77620,32.9808553,-97.2040487,61%,71%,56%,54%,50%
Westminster,Texas,768,193,Dallas-Fort Worth-Arlington,7694138,$23423,12.72%,32,N/A,N/A,N/A,18,47.66%,$970,70.57%,N/A,N/A,46.88%,1.58%,70.09%,Collin County,38.60%,55.20%,0.65%,0.0%,39.32%,60.03%,50.91%,Central Standard Time,95,54,41,42,74,1,N/A,65,596,5.6,3.98,TX-77680,33.3649024,-96.4598175,61%,71%,56%,54%,50%
Weston,Texas,233,52,Dallas-Fort Worth-Arlington,7694138,$93125,19.65%,37,$877000,3565,$246,35,75.11%,$2099,41.71%,N/A,N/A,9.01%,2.36%,65.13%,Collin County,38.60%,55.20%,0.86%,0.0%,83.26%,13.3%,4.72%,Central Standard Time,95,54,41,41,75,1,N/A,64,596,5.6,4.49,TX-77740,33.3300798,-96.6675637,61%,71%,56%,54%,50%
Westover Hills,Texas,745,1049,Dallas-Fort Worth-Arlington,7694138,$232000,79.73%,59,N/A,N/A,N/A,45,89.8%,$1445,27.29%,N/A,N/A,4.83%,1.27%,35.53%,Tarrant County,43.10%,51.70%,6.31%,0.0%,92.21%,0.4%,8.32%,Central Standard Time,96,57,39,36,80,2,N/A,36,596,5.7,0.71,TX-77788,32.7436602,-97.4122662,61%,71%,56%,54%,50%
Westworth Village,Texas,2713,1311,Dallas-Fort Worth-Arlington,7694138,$58095,27.88%,34,N/A,N/A,N/A,29,47.0%,$1303,47.5%,N/A,N/A,17.32%,3.13%,67.88%,Tarrant County,43.10%,51.70%,0.88%,5.49%,58.75%,31.51%,5.27%,Central Standard Time,96,57,39,36,79,2,N/A,37,596,5.7,2.07,TX-78076,32.7598621,-97.4238249,61%,71%,56%,54%,50%
White Settlement,Texas,17716,3515,Dallas-Fort Worth-Arlington,7694138,$50203,17.1%,35,$240000,1348,$178,49,55.08%,$1028,52.34%,N/A,N/A,11.19%,5.0%,63.58%,Tarrant County,43.10%,51.70%,2.03%,6.54%,56.93%,32.85%,11.01%,Central Standard Time,96,57,39,37,79,2,N/A,36,596,5.7,5.04,TX-78544,32.755399,-97.4605201,61%,71%,56%,54%,50%
Willow Park,Texas,5585,869,Dallas-Fort Worth-Arlington,7694138,$101048,42.88%,43,$420000,1972,$213,24,86.36%,$2044,31.61%,N/A,N/A,9.28%,5.48%,66.28%,Parker County,14.70%,81.80%,1.79%,0.0%,87.93%,8.56%,4.78%,Central Standard Time,95,56,39,36,73,0,N/A,51,596,5.5,6.43,TX-79492,32.7548283,-97.649856,61%,71%,56%,54%,50%
Wilmer,Texas,4698,740,Dallas-Fort Worth-Arlington,7694138,$56012,7.72%,33,$185000,1581,$117,24,60.52%,$915,60.11%,N/A,N/A,19.5%,2.75%,69.83%,Dallas County,60.20%,34.30%,0.3%,34.29%,24.93%,38.02%,19.35%,Central Standard Time,96,57,39,40,68,1,N/A,59,596,5.7,6.35,TX-79576,32.59833,-96.6820009,61%,71%,56%,54%,50%
Wolfe City,Texas,1138,1016,Dallas-Fort Worth-Arlington,7694138,$52563,9.81%,41,$190000,2262,$84,47,71.88%,$831,50.05%,N/A,N/A,8.98%,7.6%,61.19%,Hunt County,20.30%,75.80%,0.0%,18.01%,76.8%,4.13%,1.14%,Central Standard Time,95,55,40,45,74,1,7.3,67,596,5.6,1.12,TX-79948,33.3685278,-96.071986,61%,71%,56%,54%,50%
Wylie,Texas,51251,2323,Dallas-Fort Worth-Arlington,7694138,$98484,36.77%,34,$405000,2088,$194,16,77.65%,$1585,43.66%,N/A,N/A,6.77%,4.39%,76.44%,Collin County,38.60%,55.20%,8.39%,12.34%,56.11%,18.41%,18.19%,Central Standard Time,95,55,40,40,87,1,N/A,63,596,5.6,22.06,TX-80356,33.0362269,-96.5160786,61%,71%,56%,54%,50%
