City,State,Population,People per sq mi,Metro Name,Metro population,Median household income,% with at least Bachelor's degree,Median age,Median home price,Median home sqft,Median home cost per sqft,Median home age,Homeownership Rate,Avg Apartment Monthly Rent,Single Population,Num Violent Crimes Per 100k residents,Num Property Crimes Per 100k residents,Poverty Rate,Unemployment rate,Labor Force Participation rate,County,% Democrat,% Republican,% Asian,% Black,% Non-Hispanic White,% Hispanic,Foreign Born %,Timezone,Hottest month's avg high (F),Coldest month's avg high (F),Hottest high minus coldest high,Annual rainfall (in),Annual days of precipitation,Annual snowfall (in),Average yearly windspeed (mph),Air quality Index,Elevation (ft),UV Index,Land Area (sq mi),Fips Code,Latitude,Longitude,Annual Sunshine - Percentage of Possible,Summer Sunshine - Percentage of Possible,Winter Sunshine - Percentage of Possible,Annual Relative Humidity (afternoon),Summer Relative Humidity (afternoon),Number of days with thunder per year
Altoona,Wisconsin,7769,1642,Eau Claire,169997,$63556,33.79%,38,$270000,1800,$150,33,64.25%,$795,48.72%,113,1372,12.41%,5.41%,58.82%,Eau Claire County,49.70%,42.40%,3.81%,0.51%,87.55%,5.33%,3.68%,Central Standard Time,83,24,59,33,122,47,8.5,70,838,3.1,4.73,WI-01550,44.8029012,-91.4385037,50%,60%,45%,60%,57%,38.4
Anson,Wisconsin,2162,58,Eau Claire,169997,$66563,27.34%,N/A,N/A,N/A,N/A,39,85.50%,N/A,27.40%,N/A,N/A,N/A,3.30%,N/A,Chippewa County,37.70%,56.80%,0.9%,0.0%,97.7%,1.2%,N/A,Central Standard Time,82,23,59,33,114,45,8.5,86,838,3.1,37.28,WI-02175,45.0110569,-91.2643227,50%,60%,45%,60%,57%,38.4
Arthur,Wisconsin,747,17,Eau Claire,169997,$58036,13.67%,N/A,N/A,N/A,N/A,46,84.20%,N/A,33.30%,N/A,N/A,N/A,3.30%,N/A,Chippewa County,37.70%,56.80%,1.7%,0.0%,89.4%,4.8%,N/A,Central Standard Time,81,22,59,32,109,47,8.5,87,838,3.1,43.94,WI-03075,45.0674213,-91.1516248,50%,60%,45%,60%,57%,38.4
Augusta,Wisconsin,1317,596,Eau Claire,169997,$41146,9.19%,43,$177000,1372,$129,71,76.44%,$703,59.08%,N/A,N/A,16.92%,4.95%,53.4%,Eau Claire County,49.70%,42.40%,0.0%,0.15%,88.08%,1.9%,0.23%,Central Standard Time,82,23,59,33,119,47,8.5,87,838,3.1,2.21,WI-03825,44.6784222,-91.1202966,52%,64%,45%,60%,57%,38.4
Birch Creek,Wisconsin,410,9,Eau Claire,169997,$49375,18.34%,N/A,N/A,N/A,N/A,33,39.40%,N/A,28.50%,N/A,N/A,N/A,3.30%,N/A,Chippewa County,37.70%,56.80%,0.0%,0.0%,99.8%,0.0%,N/A,Central Standard Time,81,23,58,31,90,48,8.5,88,838,3.1,45.56,WI-07525,45.2464153,-91.2261857,50%,60%,45%,60%,57%,38.4
Bloomer,Wisconsin,3523,1194,Eau Claire,169997,$45845,24.07%,N/A,$281000,1503,$187,54,63.10%,N/A,48.00%,314,828,0%,3.30%,N/A,Chippewa County,37.70%,56.80%,0.0%,0.0%,98.6%,0.0%,0.4%,Central Standard Time,82,23,59,32,105,45,8.5,85,838,3.1,2.95,WI-08250,45.1629769,-91.4604582,50%,60%,45%,60%,57%,39.7
Bloomer town,Wisconsin,1079,366,Eau Claire,169997,$61771,N/A,N/A,$281000,1503,$187,35,77.20%,N/A,35.30%,314,828,N/A,3.30%,N/A,Chippewa County,37.70%,56.80%,0.3%,0.0%,99.0%,0.4%,N/A,Central Standard Time,82,22,60,32,106,46,8.5,88,838,3.1,2.95,WI-08250,45.1629769,-91.4604582,50%,60%,45%,60%,57%,39.7
Boyd,Wisconsin,603,326,Eau Claire,169997,$58611,11.27%,37,$165000,1988,$83,73,66.9%,$844,41.59%,N/A,N/A,6.3%,1.12%,60.5%,Chippewa County,37.70%,56.80%,0.0%,0.83%,84.58%,13.93%,3.32%,Central Standard Time,81,23,58,32,96,48,8.5,87,838,3.1,1.85,WI-09075,44.9532806,-91.0397658,50%,60%,45%,60%,57%,38.4
Bridge Creek,Wisconsin,1902,19,Eau Claire,169997,$41831,10.73%,N/A,N/A,N/A,N/A,32,64.20%,N/A,35.80%,N/A,N/A,N/A,3.30%,N/A,Eau Claire County,49.70%,42.40%,0.0%,0.0%,97.9%,0.6%,N/A,Central Standard Time,82,23,59,33,117,46,8.5,87,838,3.1,100.11,WI-09500,44.6975041,-91.0609352,52%,64%,45%,60%,57%,38.4
Brunswick,Wisconsin,1713,47,Eau Claire,169997,$62083,27.35%,N/A,N/A,N/A,N/A,37,85.80%,N/A,29.80%,N/A,N/A,N/A,3.30%,N/A,Eau Claire County,49.70%,42.40%,1.8%,2.0%,93.8%,1.1%,N/A,Central Standard Time,83,24,59,33,121,46,8.5,83,838,3.1,36.45,WI-10625,44.729008,-91.588125,50%,60%,45%,60%,57%,38.4
Cadott,Wisconsin,1358,399,Eau Claire,169997,$44211,11.75%,40,N/A,N/A,N/A,46,66.12%,$693,53.25%,N/A,N/A,20.15%,1.86%,62.5%,Chippewa County,37.70%,56.80%,1.4%,0.66%,91.09%,4.64%,5.23%,Central Standard Time,81,22,59,33,116,47,8.5,87,838,3.1,3.4,WI-11750,44.9501776,-91.1532172,50%,60%,45%,60%,57%,38.4
Chippewa Falls,Wisconsin,14197,1254,Eau Claire,169997,$54917,21.61%,36,$255000,1771,$144,50,54.42%,$835,54.83%,351,1264,14.99%,4.19%,62.4%,Chippewa County,37.70%,56.80%,1.99%,2.98%,89.48%,2.08%,2.21%,Central Standard Time,82,23,59,33,118,44,8.5,69,838,3.1,11.32,WI-14575,44.935819,-91.3902115,50%,60%,45%,60%,57%,38.4
Clear Creek,Wisconsin,817,23,Eau Claire,169997,$64063,21.93%,N/A,N/A,N/A,N/A,54,89.60%,N/A,29.90%,N/A,N/A,N/A,3.30%,N/A,Eau Claire County,49.70%,42.40%,0.0%,0.0%,99.6%,0.0%,N/A,Central Standard Time,82,24,58,34,115,45,8.5,85,838,3.1,35.52,WI-15200,44.6397218,-91.3467589,52%,64%,45%,60%,57%,38.4
Cleveland (Chippewa Cnty),Wisconsin,913,461,Eau Claire,169997,$46176,N/A,N/A,$357000,1803,$198,35,65.20%,N/A,47.40%,0,137,N/A,3.30%,N/A,Chippewa County,37.70%,56.80%,0.0%,1.0%,98.4%,0.0%,N/A,Central Standard Time,81,23,58,32,94,46,8.5,87,838,3.1,1.98,WI-15350,45.165014,-91.2787216,50%,60%,45%,60%,57%,38.4
Colburn (Chippewa Cnty),Wisconsin,873,13,Eau Claire,169997,$47321,N/A,N/A,N/A,N/A,N/A,37,65.60%,N/A,36.10%,N/A,N/A,N/A,3.30%,N/A,Chippewa County,37.70%,56.80%,0.8%,0.0%,98.4%,0.0%,N/A,Central Standard Time,80,22,58,32,96,48,8.5,88,838,3.1,67.15,WI-16125,45.093207,-90.9999049,50%,60%,45%,60%,57%,38.4
Cooks Valley,Wisconsin,833,24,Eau Claire,169997,$70000,N/A,N/A,N/A,N/A,N/A,37,87.50%,N/A,41.80%,N/A,N/A,N/A,3.30%,N/A,Chippewa County,37.70%,56.80%,0.0%,0.0%,100.0%,0.0%,N/A,Central Standard Time,82,23,59,32,105,45,8.5,85,838,3.1,34.71,WI-16800,45.0718785,-91.5905215,50%,60%,45%,64%,60%,39.7
Cornell,Wisconsin,1597,421,Eau Claire,169997,$45700,9.94%,39,$110000,1447,$76,64,74.21%,$617,55.48%,0,1647,17.39%,2.24%,60.41%,Chippewa County,37.70%,56.80%,0.81%,0.56%,92.55%,3.82%,1.5%,Central Standard Time,81,23,58,31,91,47,8.5,87,838,3.1,3.79,WI-17100,45.1632014,-91.1497262,50%,60%,45%,60%,57%,38.4
Delmar,Wisconsin,1153,27,Eau Claire,169997,$54444,17.39%,N/A,N/A,N/A,N/A,51,80.40%,N/A,33.70%,N/A,N/A,N/A,3.30%,N/A,Chippewa County,37.70%,56.80%,0.3%,0.0%,96.4%,0.0%,N/A,Central Standard Time,81,22,59,32,98,48,8.5,88,838,3.1,42.7,WI-19625,44.9898588,-91.0096093,50%,60%,45%,60%,57%,38.4
Drammen,Wisconsin,745,21,Eau Claire,169997,$59750,24.40%,N/A,N/A,N/A,N/A,37,75.10%,N/A,34.60%,N/A,N/A,N/A,3.30%,N/A,Eau Claire County,49.70%,42.40%,0.0%,0.7%,94.1%,0.0%,N/A,Central Standard Time,83,25,58,34,119,46,8.5,83,838,3.1,35.48,WI-20800,44.6400225,-91.5896543,50%,60%,45%,60%,57%,38.4
Eagle Point,Wisconsin,3109,51,Eau Claire,169997,$53393,26.24%,N/A,N/A,N/A,N/A,42,80.20%,N/A,36.60%,N/A,N/A,N/A,3.30%,N/A,Chippewa County,37.70%,56.80%,0.5%,0.0%,98.6%,0.0%,N/A,Central Standard Time,82,23,59,32,114,44,8.5,84,838,3.1,60.96,WI-21600,45.0535365,-91.3343782,50%,60%,45%,60%,57%,38.4
Eau Claire,Wisconsin,68720,2091,Eau Claire,169997,$59705,33.89%,32,$274000,1827,$150,46,59.14%,$834,59.85%,276,2361,15.54%,4.21%,70.79%,Eau Claire County,49.70%,42.40%,5.21%,1.43%,87.58%,2.75%,4.67%,Central Standard Time,83,24,59,33,122,46,8.5,61,838,3.1,32.86,WI-22300,44.8197238,-91.4948628,50%,60%,45%,60%,57%,38.4
Edson,Wisconsin,1111,21,Eau Claire,169997,$41912,9.57%,N/A,N/A,N/A,N/A,60,77.40%,N/A,38.70%,N/A,N/A,N/A,3.30%,N/A,Chippewa County,37.70%,56.80%,0.0%,0.0%,99.3%,0.5%,N/A,Central Standard Time,81,22,59,32,101,47,8.5,87,838,3.1,52.9,WI-22750,44.9007828,-91.0140341,50%,60%,45%,60%,57%,38.4
Estella,Wisconsin,394,13,Eau Claire,169997,$53333,15.25%,N/A,N/A,N/A,N/A,50,63.30%,N/A,40.10%,N/A,N/A,N/A,3.30%,N/A,Chippewa County,37.70%,56.80%,0.0%,0.0%,99.2%,0.0%,N/A,Central Standard Time,81,23,58,31,91,47,8.5,87,838,3.1,30.31,WI-24375,45.1561849,-91.1117085,50%,60%,45%,60%,57%,38.4
Fairchild,Wisconsin,384,263,Eau Claire,169997,$47250,4.41%,N/A,$193000,2121,$91,43,50.50%,N/A,42.60%,N/A,N/A,33.3%,3.30%,N/A,Eau Claire County,49.70%,42.40%,0.0%,0.0%,96.6%,0.3%,0.4%,Central Standard Time,81,23,58,33,104,45,8.5,87,838,3.1,1.46,WI-24850,44.641572,-90.983982,52%,64%,45%,60%,57%,38.4
Fall Creek,Wisconsin,1610,785,Eau Claire,169997,$47500,27.59%,36,$230000,1503,$153,48,67.4%,$704,47.82%,76,688,7.12%,3.27%,66.54%,Eau Claire County,49.70%,42.40%,0.0%,0.31%,95.16%,1.93%,2.36%,Central Standard Time,82,22,60,32,119,47,8.5,85,838,3.1,2.05,WI-25125,44.7639008,-91.2782953,50%,60%,45%,60%,57%,38.4
Goetz,Wisconsin,730,25,Eau Claire,169997,$63750,20.28%,N/A,N/A,N/A,N/A,35,73.00%,N/A,38.20%,N/A,N/A,N/A,3.30%,N/A,Chippewa County,37.70%,56.80%,0.8%,1.6%,96.8%,0.0%,N/A,Central Standard Time,81,22,59,33,116,47,8.5,87,838,3.1,29.2,WI-29700,44.9866951,-91.1491517,50%,60%,45%,60%,57%,38.4
Hallie,Wisconsin,192,26,Eau Claire,169997,$51250,N/A,N/A,N/A,N/A,N/A,55,87.30%,N/A,28.50%,N/A,N/A,N/A,3.30%,N/A,Chippewa County,37.70%,56.80%,4.7%,0.0%,95.3%,0.0%,N/A,Central Standard Time,82,23,59,33,118,44,8.5,81,838,3.1,7.38,WI-32125,44.8769782,-91.3737582,50%,60%,45%,60%,57%,38.4
Holcombe,Wisconsin,222,229,Eau Claire,169997,$60357,16.76%,57,$615000,2957,$208,43,74.77%,$655,40.1%,N/A,N/A,4.5%,5.63%,68.6%,Chippewa County,37.70%,56.80%,0.0%,0.0%,100.0%,0.0%,0.0%,Central Standard Time,81,23,58,31,90,48,8.5,87,838,3.1,0.97,WI-35225,45.2260497,-91.1216404,50%,60%,45%,60%,57%,38.4
Howard,Wisconsin,782,42,Eau Claire,169997,$64231,29.70%,N/A,$352000,2083,$169,42,79.70%,N/A,33.80%,N/A,N/A,6.8%,3.30%,N/A,Chippewa County,37.70%,56.80%,0.3%,1.0%,98.3%,0.4%,4.2%,Central Standard Time,82,22,60,33,111,43,8.5,83,838,3.1,18.45,WI-36000,44.9870629,-91.5900153,50%,60%,45%,64%,60%,40.7
Howard,Wisconsin,782,42,Eau Claire,169997,$64231,29.70%,N/A,$352000,2083,$169,42,79.70%,N/A,33.80%,N/A,N/A,6.8%,3.30%,N/A,Chippewa County,37.70%,56.80%,0.3%,1.0%,98.3%,0.4%,4.2%,Central Standard Time,82,22,60,33,111,43,8.5,83,838,3.1,18.45,WI-36000,44.9870629,-91.5900153,50%,60%,45%,64%,60%,40.7
Jim Falls,Wisconsin,138,226,Eau Claire,169997,$37917,24.62%,53,$980000,5833,$168,72,79.71%,$840,35.38%,N/A,N/A,15.94%,12.33%,56.15%,Chippewa County,37.70%,56.80%,0.0%,0.0%,100.0%,0.0%,0.0%,Central Standard Time,82,23,59,32,104,46,8.5,87,838,3.1,0.61,WI-38225,45.0471956,-91.2712694,50%,60%,45%,60%,57%,38.4
Lafayette (Chippewa Cnty),Wisconsin,5884,170,Eau Claire,169997,$66563,N/A,N/A,N/A,N/A,N/A,31,81.70%,N/A,33.30%,N/A,N/A,N/A,3.30%,N/A,Chippewa County,37.70%,56.80%,0.6%,0.7%,97.7%,0.0%,N/A,Central Standard Time,82,23,59,33,118,44,8.5,83,838,3.1,34.61,WI-40900,44.9048942,-91.2874131,50%,60%,45%,60%,57%,38.4
Lake Hallie,Wisconsin,6710,475,Eau Claire,169997,$68016,22.13%,38,$373000,2784,$134,27,70.32%,$1038,44.66%,178,2364,6.85%,1.61%,77.44%,Chippewa County,37.70%,56.80%,2.3%,0.0%,92.86%,2.83%,1.22%,Central Standard Time,82,23,59,33,119,44,8.5,74,838,3.1,14.14,WI-41525,44.8921349,-91.4199751,50%,60%,45%,60%,57%,38.4
Lake Holcombe,Wisconsin,865,32,Eau Claire,169997,$49135,15.51%,N/A,N/A,N/A,N/A,39,51.90%,N/A,29.90%,N/A,N/A,N/A,3.30%,N/A,Chippewa County,37.70%,56.80%,0.3%,0.0%,99.7%,0.0%,N/A,Central Standard Time,81,23,58,31,90,48,8.5,88,838,3.1,27.03,WI-41550,45.2468609,-91.1003737,50%,60%,45%,60%,57%,38.4
Lake Wissota,Wisconsin,2896,766,Eau Claire,169997,$96065,42.3%,54,$400000,1606,$249,37,78.69%,$1050,34.81%,N/A,N/A,5.54%,6.83%,60.7%,Chippewa County,37.70%,56.80%,0.0%,0.0%,98.31%,0.45%,0.59%,Central Standard Time,82,23,59,33,118,44,8.5,82,838,3.1,3.78,WI-42025,44.9219662,-91.3014399,50%,60%,45%,60%,57%,38.4
Lincoln (Eau Claire Cnty),Wisconsin,1186,20,Eau Claire,169997,$65417,N/A,N/A,N/A,N/A,N/A,30,85.10%,N/A,30.50%,N/A,N/A,N/A,3.30%,N/A,Eau Claire County,49.70%,42.40%,0.0%,0.3%,99.4%,0.3%,N/A,Central Standard Time,82,22,60,33,119,47,8.5,85,838,3.1,59.3,WI-44350,44.7396976,-91.2527573,50%,60%,45%,60%,57%,38.4
Ludington,Wisconsin,1092,24,Eau Claire,169997,$70625,16.07%,N/A,N/A,N/A,N/A,41,80.90%,N/A,33.30%,N/A,N/A,N/A,3.30%,N/A,Eau Claire County,49.70%,42.40%,0.4%,0.0%,99.0%,0.4%,N/A,Central Standard Time,82,22,60,33,118,47,8.5,85,838,3.1,45.5,WI-46275,44.8108986,-91.1593759,50%,60%,45%,60%,57%,38.4
Otter Creek (Eau Claire Cnty),Wisconsin,513,14,Eau Claire,169997,$64688,N/A,N/A,N/A,N/A,N/A,78,68.60%,N/A,39.50%,N/A,N/A,N/A,3.30%,N/A,Eau Claire County,49.70%,42.40%,0.0%,0.0%,95.1%,1.4%,N/A,Central Standard Time,81,23,58,33,116,45,8.5,85,838,3.1,36.64,WI-60750,44.6402074,-91.2256834,52%,64%,45%,60%,57%,38.4
Pleasant Valley (Eau Claire Cnty),Wisconsin,3181,59,Eau Claire,169997,$87176,N/A,N/A,N/A,N/A,N/A,27,89.60%,N/A,33.90%,N/A,N/A,N/A,3.30%,N/A,Eau Claire County,49.70%,42.40%,2.5%,0.2%,92.9%,2.1%,N/A,Central Standard Time,83,24,59,33,122,46,8.5,83,838,3.1,53.92,WI-63400,44.6616194,-91.4681292,50%,60%,45%,60%,57%,38.4
Ruby,Wisconsin,386,7,Eau Claire,169997,$45000,9.21%,N/A,N/A,N/A,N/A,37,71.30%,N/A,42.00%,N/A,N/A,N/A,3.30%,N/A,Chippewa County,37.70%,56.80%,0.0%,0.0%,100.0%,0.0%,N/A,Central Standard Time,80,23,57,32,92,50,8.5,88,838,3.1,55.14,WI-69975,45.227351,-90.9872811,50%,60%,45%,60%,57%,38.4
Sampson,Wisconsin,955,15,Eau Claire,169997,$53042,28.74%,N/A,N/A,N/A,N/A,35,53.20%,N/A,34.00%,N/A,N/A,N/A,3.30%,N/A,Chippewa County,37.70%,56.80%,0.2%,0.0%,99.4%,0.0%,N/A,Central Standard Time,80,21,59,32,109,49,8.5,88,838,3.1,63.67,WI-71275,45.2496432,-91.423267,50%,60%,45%,60%,57%,39.7
Seymour (Eau Claire Cnty),Wisconsin,1392,517,Eau Claire,169997,$81167,37.94%,46,$283000,2036,$139,55,92.17%,$539,32.93%,345,1036,7.26%,0.0%,73.45%,Eau Claire County,49.70%,42.40%,0.0%,0.0%,100.0%,0.0%,1.36%,Central Standard Time,83,24,59,33,122,46,8.5,77,838,3.1,2.69,WI-72670,44.8233618,-91.4292372,50%,60%,45%,60%,57%,38.4
Sigel (Chippewa Cnty),Wisconsin,1084,30,Eau Claire,169997,$48542,N/A,N/A,N/A,N/A,N/A,35,82.10%,N/A,39.80%,N/A,N/A,N/A,3.30%,N/A,Chippewa County,37.70%,56.80%,0.0%,0.2%,97.6%,1.8%,N/A,Central Standard Time,81,22,59,33,116,47,8.5,87,838,3.1,36.13,WI-73875,44.9008658,-91.1659664,50%,60%,45%,60%,57%,38.4
Stanley,Wisconsin,3678,863,Eau Claire,169997,$46442,9.98%,39,$78000,780,$100,67,60.44%,$787,68.11%,134,808,12.71%,2.31%,28.95%,Chippewa County,37.70%,56.80%,0.95%,12.02%,72.89%,7.99%,3.86%,Central Standard Time,80,22,58,32,96,48,8.5,88,838,3.1,4.26,WI-76625,44.9597072,-90.942346,50%,60%,45%,60%,57%,38.4
Tilden,Wisconsin,1662,47,Eau Claire,169997,$71333,24.66%,N/A,N/A,N/A,N/A,26,92.30%,N/A,28.00%,N/A,N/A,N/A,3.30%,N/A,Chippewa County,37.70%,56.80%,0.0%,0.3%,95.8%,2.2%,N/A,Central Standard Time,82,23,59,33,116,44,8.5,83,838,3.1,35.36,WI-79875,44.988032,-91.467673,50%,60%,45%,60%,57%,38.4
Union (Eau Claire Cnty),Wisconsin,2736,101,Eau Claire,169997,$66635,N/A,N/A,N/A,N/A,N/A,40,76.10%,N/A,41.60%,N/A,N/A,N/A,3.30%,N/A,Eau Claire County,49.70%,42.40%,3.0%,0.7%,95.2%,0.6%,N/A,Central Standard Time,83,24,59,33,122,46,8.5,76,838,3.1,27.09,WI-81550,44.8125405,-91.6011771,50%,60%,45%,64%,60%,40.7
Washington (Eau Claire Cnty),Wisconsin,7379,135,Eau Claire,169997,$65848,N/A,N/A,N/A,N/A,N/A,34,74.80%,N/A,35.80%,N/A,N/A,N/A,3.30%,N/A,Eau Claire County,49.70%,42.40%,2.7%,0.1%,88.3%,3.9%,N/A,Central Standard Time,83,24,59,33,121,46,8.5,70,838,3.1,54.66,WI-83612,44.7496987,-91.4016518,50%,60%,45%,60%,57%,38.4
Wheaton,Wisconsin,2768,51,Eau Claire,169997,$73583,22.83%,N/A,N/A,N/A,N/A,40,85.40%,N/A,32.90%,N/A,N/A,N/A,3.30%,N/A,Chippewa County,37.70%,56.80%,7.1%,1.1%,90.3%,0.6%,N/A,Central Standard Time,82,23,59,33,117,44,8.5,81,838,3.1,54.27,WI-86537,44.9043727,-91.5547652,50%,60%,45%,60%,57%,38.4
Wilson (Eau Claire Cnty),Wisconsin,465,272,Eau Claire,169997,$47857,N/A,N/A,$180000,1667,$108,40,47.50%,N/A,39.10%,N/A,N/A,N/A,3.30%,N/A,Eau Claire County,49.70%,42.40%,1.5%,0.0%,97.6%,0.0%,N/A,Central Standard Time,81,23,58,32,99,48,8.5,87,838,3.1,1.71,WI-87400,44.8140475,-91.002921,50%,60%,45%,60%,57%,38.4
Woodmohr,Wisconsin,1067,30,Eau Claire,169997,$64375,15.13%,N/A,N/A,N/A,N/A,39,88.00%,N/A,39.70%,N/A,N/A,N/A,3.30%,N/A,Chippewa County,37.70%,56.80%,0.2%,0.4%,98.5%,0.2%,N/A,Central Standard Time,82,23,59,32,105,45,8.5,85,838,3.1,35.57,WI-88875,45.0754688,-91.463597,50%,60%,45%,60%,57%,38.4
