City,State,Population,People per sq mi,Metro Name,Metro population,Median household income,% with at least Bachelor's degree,Median age,Median home price,Median home sqft,Median home cost per sqft,Median home age,Homeownership Rate,Avg Apartment Monthly Rent,Single Population,Num Violent Crimes Per 100k residents,Num Property Crimes Per 100k residents,Poverty Rate,Unemployment rate,Labor Force Participation rate,County,% Democrat,% Republican,% Asian,% Black,% Non-Hispanic White,% Hispanic,Foreign Born %,Timezone,Hottest month's avg high (F),Coldest month's avg high (F),Hottest high minus coldest high,Annual rainfall (in),Annual days of precipitation,Annual snowfall (in),Average yearly windspeed (mph),Air quality Index,Elevation (ft),UV Index,Land Area (sq mi),Fips Code,Latitude,Longitude,Annual Sunshine - Percentage of Possible,Summer Sunshine - Percentage of Possible,Winter Sunshine - Percentage of Possible,Annual Relative Humidity (afternoon),Summer Relative Humidity (afternoon),Number of days with thunder per year,Annual dew point (F),Average summer dew point (F),Hottest month's avg low (F),Coldest month's avg low (F),Summer rainfall (in),Winter rainfall (in)
Albion,Pennsylvania,1342,1243,Erie,268426,$41750,15.6%,47,$127000,1033,$123,64,69.86%,$580,43.58%,N/A,N/A,11.7%,5.25%,57.17%,Erie County,46.40%,48.00%,0.97%,1.27%,94.41%,2.38%,3.28%,Eastern Standard Time,N/A,N/A,N/A,N/A,173,106.4,8.5,69,731,3.5,1.08,PA-00628,41.8904182,-80.3640636,47%,64%,31%,65%,63%,37.2,39,58,N/A,N/A,N/A,N/A
Amity township (Erie Cnty),Pennsylvania,943,34,Erie,268426,$58068,N/A,N/A,N/A,N/A,N/A,46,87.70%,N/A,39.00%,N/A,N/A,N/A,4.70%,N/A,Erie County,46.40%,48.00%,0.6%,0.0%,96.5%,1.2%,N/A,Eastern Standard Time,N/A,N/A,N/A,N/A,171,101.6,8.5,86,731,3.5,27.74,PA-02336,41.9684534,-79.8249106,47%,64%,30%,65%,63%,37.2,39,58,N/A,N/A,N/A,N/A
Avonia,Pennsylvania,1496,569,Erie,268426,$82375,33.96%,39,$463000,2858,$162,53,99.06%,N/A,42.72%,N/A,N/A,0.4%,2.61%,67.52%,Erie County,46.40%,48.00%,1.2%,0.33%,95.59%,2.87%,1.74%,Eastern Standard Time,N/A,N/A,N/A,N/A,165,101.6,8.5,80,731,3.5,2.63,PA-03676,42.0470422,-80.2765167,47%,64%,31%,65%,63%,37.2,39,58,N/A,N/A,N/A,N/A
Concord township (Erie Cnty),Pennsylvania,1187,36,Erie,268426,$54375,N/A,N/A,N/A,N/A,N/A,46,68.20%,N/A,36.40%,N/A,N/A,N/A,4.70%,N/A,Erie County,46.40%,48.00%,0.5%,0.1%,97.5%,0.3%,N/A,Eastern Standard Time,N/A,N/A,N/A,N/A,170,88.7,8.5,86,731,3.5,32.97,PA-15504,41.882799,-79.6862186,47%,64%,30%,65%,63%,37.2,39,58,N/A,N/A,N/A,N/A
Conneaut township (Erie Cnty),Pennsylvania,4371,101,Erie,268426,$50714,N/A,N/A,N/A,N/A,N/A,41,72.50%,N/A,69.00%,N/A,N/A,N/A,4.70%,N/A,Erie County,46.40%,48.00%,0.0%,24.8%,68.9%,5.4%,N/A,Eastern Standard Time,N/A,N/A,N/A,N/A,173,106.4,8.5,82,731,3.5,43.28,PA-15736,41.8871492,-80.4301932,47%,64%,31%,65%,63%,37.2,39,58,N/A,N/A,N/A,N/A
Corry,Pennsylvania,6285,1049,Erie,268426,$34126,17.81%,43,$101000,1485,$68,69,61.06%,$694,46.43%,N/A,N/A,22.75%,8.84%,48.31%,Erie County,46.40%,48.00%,0.0%,3.99%,87.56%,1.88%,1.07%,Eastern Standard Time,N/A,N/A,N/A,N/A,170,88.7,8.5,67,731,3.5,5.99,PA-16296,41.9260085,-79.6358113,47%,64%,30%,65%,63%,37.2,39,58,N/A,N/A,N/A,N/A
Cranesville,Pennsylvania,799,850,Erie,268426,$65000,27.37%,35,N/A,N/A,N/A,77,90.99%,$688,43.94%,N/A,N/A,7.51%,0.29%,56.84%,Erie County,46.40%,48.00%,0.25%,2.38%,96.75%,0.0%,0.25%,Eastern Standard Time,N/A,N/A,N/A,N/A,172,106.4,8.5,84,731,3.5,0.94,PA-16960,41.9040016,-80.3418078,47%,64%,31%,65%,63%,37.2,39,58,N/A,N/A,N/A,N/A
Edinboro,Pennsylvania,5599,2445,Erie,268426,$33942,54.2%,24,$200000,1333,$150,47,43.76%,$830,66.47%,N/A,N/A,21.12%,2.01%,51.49%,Erie County,46.40%,48.00%,1.38%,2.23%,93.53%,1.89%,3.46%,Eastern Standard Time,N/A,N/A,N/A,N/A,176,101.6,8.5,76,731,3.5,2.29,PA-22608,41.87617,-80.1245967,47%,64%,31%,65%,63%,37.2,39,58,N/A,N/A,N/A,N/A
Elgin,Pennsylvania,229,156,Erie,268426,$48819,8.11%,54,N/A,N/A,N/A,75,91.27%,$925,28.64%,N/A,N/A,3.93%,2.97%,50.75%,Erie County,46.40%,48.00%,0.0%,0.44%,98.25%,1.31%,0.0%,Eastern Standard Time,N/A,N/A,N/A,N/A,170,88.7,8.5,86,731,3.5,1.47,PA-22960,41.9070132,-79.746508,47%,64%,30%,65%,63%,37.2,39,58,N/A,N/A,N/A,N/A
Elk Creek,Pennsylvania,1780,51,Erie,268426,$58103,16.20%,N/A,N/A,N/A,N/A,45,76.90%,N/A,37.80%,N/A,N/A,N/A,4.70%,N/A,Erie County,46.40%,48.00%,0.1%,2.1%,93.9%,2.6%,N/A,Eastern Standard Time,N/A,N/A,N/A,N/A,173,106.4,8.5,84,731,3.5,34.9,PA-23088,41.8881854,-80.2889908,47%,64%,31%,65%,63%,37.2,39,58,N/A,N/A,N/A,N/A
Erie,Pennsylvania,96616,5048,Erie,268426,$38655,21.98%,35,$111000,1500,$74,70,53.72%,$725,64.0%,N/A,N/A,25.13%,8.07%,59.95%,Erie County,46.40%,48.00%,2.84%,15.64%,68.87%,8.17%,7.14%,Eastern Standard Time,N/A,N/A,N/A,N/A,171,101.6,8.5,57,731,3.5,19.14,PA-24000,42.1167569,-80.0732793,47%,64%,30%,65%,63%,37.2,39,58,N/A,N/A,N/A,N/A
Fairview,Pennsylvania,2786,785,Erie,268426,$95978,33.4%,39,$279000,1722,$162,46,95.66%,$818,43.17%,N/A,N/A,1.78%,9.7%,52.43%,Erie County,46.40%,48.00%,0.43%,1.83%,91.13%,6.17%,1.04%,Eastern Standard Time,N/A,N/A,N/A,N/A,165,101.6,8.5,82,731,3.5,3.55,PA-24856,42.0288259,-80.2572559,47%,64%,31%,65%,63%,37.2,39,58,N/A,N/A,N/A,N/A
Fairview township (Erie Cnty),Pennsylvania,2786,785,Erie,268426,$95978,33.4%,39,$279000,1722,$162,46,95.66%,$818,43.17%,N/A,N/A,1.78%,9.7%,52.43%,Erie County,46.40%,48.00%,0.43%,1.83%,91.13%,6.17%,1.04%,Eastern Standard Time,N/A,N/A,N/A,N/A,167,101.6,8.5,81,731,3.5,3.55,PA-24856,42.0288259,-80.2572559,47%,64%,31%,65%,63%,37.2,39,58,N/A,N/A,N/A,N/A
Franklin township (Erie Cnty),Pennsylvania,1616,345,Erie,268426,$60208,N/A,N/A,$93000,1755,$53,39,87.00%,N/A,36.10%,N/A,N/A,N/A,4.70%,N/A,Erie County,46.40%,48.00%,2.4%,0.2%,94.0%,1.5%,N/A,Eastern Standard Time,N/A,N/A,N/A,N/A,174,101.6,8.5,84,731,3.5,4.68,PA-27392,41.9299331,-80.2149509,47%,64%,31%,65%,63%,37.2,39,58,N/A,N/A,N/A,N/A
Girard borough,Pennsylvania,3018,1290,Erie,268426,$50216,N/A,N/A,$165000,1435,$115,50,57.40%,N/A,43.70%,N/A,N/A,N/A,4.70%,N/A,Erie County,46.40%,48.00%,0.9%,1.9%,95.8%,0.4%,N/A,Eastern Standard Time,N/A,N/A,N/A,N/A,164,101.6,8.5,77,731,3.5,2.34,PA-29240,41.9860307,-80.3253712,47%,64%,31%,65%,63%,37.2,39,58,N/A,N/A,N/A,N/A
Girard township (Erie Cnty),Pennsylvania,5010,2141,Erie,268426,$51056,N/A,N/A,$165000,1435,$115,33,76.00%,N/A,40.20%,N/A,N/A,N/A,4.70%,N/A,Erie County,46.40%,48.00%,0.0%,0.0%,96.5%,1.7%,N/A,Eastern Standard Time,N/A,N/A,N/A,N/A,164,101.6,8.5,82,731,3.5,2.34,PA-29240,41.9860307,-80.3253712,47%,64%,31%,65%,63%,37.2,39,58,N/A,N/A,N/A,N/A
Greene township (Erie Cnty),Pennsylvania,4634,124,Erie,268426,$65197,N/A,N/A,N/A,N/A,N/A,49,87.60%,N/A,38.00%,N/A,N/A,N/A,4.70%,N/A,Erie County,46.40%,48.00%,0.5%,0.2%,96.0%,1.8%,N/A,Eastern Standard Time,N/A,N/A,N/A,N/A,173,101.6,8.5,83,731,3.5,37.37,PA-30936,42.0516352,-79.9545305,47%,64%,30%,65%,63%,37.2,39,58,N/A,N/A,N/A,N/A
Harborcreek,Pennsylvania,17521,514,Erie,268426,$62236,28.15%,N/A,N/A,N/A,N/A,45,73.40%,N/A,47.80%,N/A,N/A,N/A,4.70%,N/A,Erie County,46.40%,48.00%,1.3%,0.7%,95.1%,1.5%,N/A,Eastern Standard Time,N/A,N/A,N/A,N/A,168,101.6,8.5,77,731,3.5,34.09,PA-32520,42.149787,-79.9501046,47%,64%,30%,65%,63%,37.2,39,58,N/A,N/A,N/A,N/A
Lake City,Pennsylvania,2890,1606,Erie,268426,$62057,28.13%,37,$245000,1531,$160,50,85.83%,$800,54.08%,N/A,N/A,13.01%,2.82%,69.01%,Erie County,46.40%,48.00%,0.0%,0.83%,86.99%,7.61%,3.46%,Eastern Standard Time,N/A,N/A,N/A,N/A,163,101.6,8.5,77,731,3.5,1.8,PA-40960,42.0179956,-80.3464759,47%,64%,31%,65%,63%,37.2,39,58,N/A,N/A,N/A,N/A
Lawrence Park,Pennsylvania,3780,2054,Erie,268426,$58105,26.79%,36,$185000,1285,$144,76,67.54%,$986,49.8%,N/A,N/A,16.34%,3.89%,67.09%,Erie County,46.40%,48.00%,0.58%,9.05%,89.13%,1.01%,1.8%,Eastern Standard Time,N/A,N/A,N/A,N/A,170,101.6,8.5,68,731,3.5,1.84,PA-41992,42.1506059,-80.0229989,47%,64%,30%,65%,63%,37.2,39,58,N/A,N/A,N/A,N/A
Lawrence Park township,Pennsylvania,3780,2054,Erie,268426,$58105,26.79%,36,$185000,1285,$144,76,67.54%,$986,49.8%,N/A,N/A,16.34%,3.89%,67.09%,Erie County,46.40%,48.00%,0.58%,9.05%,89.13%,1.01%,1.8%,Eastern Standard Time,N/A,N/A,N/A,N/A,170,101.6,8.5,68,731,3.5,1.84,PA-41992,42.1506059,-80.0229989,47%,64%,30%,65%,63%,37.2,39,58,N/A,N/A,N/A,N/A
LeBoeuf,Pennsylvania,1675,50,Erie,268426,$60781,22.56%,N/A,N/A,N/A,N/A,46,79.90%,N/A,37.00%,N/A,N/A,N/A,4.70%,N/A,Erie County,46.40%,48.00%,1.0%,0.6%,96.8%,0.0%,N/A,Eastern Standard Time,N/A,N/A,N/A,N/A,170,101.6,8.5,85,731,3.5,33.5,PA-42208,41.8835126,-79.9592832,47%,64%,30%,65%,63%,37.2,39,58,N/A,N/A,N/A,N/A
McKean,Pennsylvania,4410,7737,Erie,268426,$53689,30.83%,N/A,N/A,N/A,N/A,39,87.20%,N/A,40.40%,N/A,N/A,3.5%,4.70%,N/A,Erie County,46.40%,48.00%,0.0%,0.0%,96.3%,0.5%,1.8%,Eastern Standard Time,N/A,N/A,N/A,N/A,173,101.6,8.5,84,731,3.5,0.57,PA-46224,41.9924367,-80.1292996,47%,64%,31%,65%,63%,37.2,39,58,N/A,N/A,N/A,N/A
McKean borough,Pennsylvania,453,795,Erie,268426,$47321,N/A,N/A,N/A,N/A,N/A,47,45.40%,N/A,51.50%,N/A,N/A,N/A,4.70%,N/A,Erie County,46.40%,48.00%,0.0%,5.1%,92.7%,0.7%,N/A,Eastern Standard Time,N/A,N/A,N/A,N/A,174,101.6,8.5,84,731,3.5,0.57,PA-46224,41.9924367,-80.1292996,47%,64%,31%,65%,63%,37.2,39,58,N/A,N/A,N/A,N/A
Mill Village,Pennsylvania,337,366,Erie,268426,$46797,17.95%,44,N/A,N/A,N/A,55,77.45%,$700,52.84%,N/A,N/A,18.21%,4.92%,65.36%,Erie County,46.40%,48.00%,0.89%,0.89%,94.36%,1.19%,0.59%,Eastern Standard Time,N/A,N/A,N/A,N/A,170,101.6,8.5,85,731,3.5,0.92,PA-49936,41.8775113,-79.9726255,47%,64%,30%,65%,63%,37.2,39,58,N/A,N/A,N/A,N/A
Millcreek township (Erie Cnty),Pennsylvania,53948,1682,Erie,268426,$55547,N/A,N/A,N/A,N/A,N/A,42,64.50%,N/A,47.10%,N/A,N/A,N/A,3.90%,N/A,Erie County,46.40%,48.00%,1.6%,2.4%,91.1%,2.2%,N/A,Eastern Standard Time,N/A,N/A,N/A,N/A,173,101.6,8.5,70,731,3.5,32.07,PA-49548,42.0865159,-80.1190225,47%,64%,30%,65%,63%,37.2,39,58,N/A,N/A,N/A,N/A
North East,Pennsylvania,6349,4884,Erie,268426,$59043,18.61%,N/A,$200000,1299,$154,49,73.00%,N/A,42.30%,N/A,N/A,14.5%,4.70%,N/A,Erie County,46.40%,48.00%,0.3%,1.0%,93.9%,1.9%,2.8%,Eastern Standard Time,N/A,N/A,N/A,N/A,155,101.6,8.5,84,731,3.5,1.3,PA-54960,42.2000044,-79.824932,47%,64%,30%,65%,63%,37.2,39,58,N/A,N/A,N/A,N/A
North East borough,Pennsylvania,4201,3232,Erie,268426,$45747,N/A,N/A,$200000,1299,$154,70,47.70%,N/A,55.50%,N/A,N/A,N/A,4.70%,N/A,Erie County,46.40%,48.00%,0.0%,2.4%,88.2%,6.2%,N/A,Eastern Standard Time,N/A,N/A,N/A,N/A,155,101.6,8.5,75,731,3.5,1.3,PA-54960,42.2000044,-79.824932,47%,64%,30%,65%,63%,37.2,39,58,N/A,N/A,N/A,N/A
Northwest Harborcreek,Pennsylvania,9321,1864,Erie,268426,$62791,34.68%,50,$213000,1449,$147,46,87.06%,$847,37.26%,N/A,N/A,6.19%,3.62%,54.04%,Erie County,46.40%,48.00%,3.89%,0.79%,93.32%,0.46%,4.76%,Eastern Standard Time,N/A,N/A,N/A,N/A,171,101.6,8.5,76,731,3.5,5.0,PA-55572,42.1494759,-79.9946007,47%,64%,30%,65%,63%,37.2,39,58,N/A,N/A,N/A,N/A
Platea,Pennsylvania,443,133,Erie,268426,$56964,5.76%,57,$210000,1346,$156,42,89.62%,$900,32.53%,N/A,N/A,7.73%,3.14%,50.93%,Erie County,46.40%,48.00%,0.0%,0.0%,96.61%,2.48%,1.81%,Eastern Standard Time,N/A,N/A,N/A,N/A,166,106.4,8.5,82,731,3.5,3.34,PA-61168,41.9509859,-80.3304503,47%,64%,31%,65%,63%,37.2,39,58,N/A,N/A,N/A,N/A
Springfield township (Erie Cnty),Pennsylvania,3380,90,Erie,268426,$44702,N/A,N/A,$377000,1770,$213,42,74.50%,N/A,44.40%,N/A,N/A,N/A,4.70%,N/A,Erie County,46.40%,48.00%,0.2%,0.0%,94.5%,0.5%,N/A,Eastern Standard Time,N/A,N/A,N/A,N/A,163,106.4,8.5,86,731,3.5,37.56,PA-73048,41.9595643,-80.4499731,47%,64%,31%,65%,63%,37.2,39,58,N/A,N/A,N/A,N/A
Summit township (Erie Cnty),Pennsylvania,6910,287,Erie,268426,$56267,N/A,N/A,N/A,N/A,N/A,22,82.50%,N/A,38.00%,N/A,N/A,N/A,4.70%,N/A,Erie County,46.40%,48.00%,0.0%,0.8%,95.2%,0.5%,N/A,Eastern Standard Time,N/A,N/A,N/A,N/A,175,101.6,8.5,80,731,3.5,24.08,PA-75208,42.0375423,-80.0512737,47%,64%,30%,65%,63%,37.2,39,58,N/A,N/A,N/A,N/A
Union City,Pennsylvania,3148,1720,Erie,268426,$42281,10.84%,N/A,$52000,2167,$24,73,69.0%,N/A,46.40%,N/A,N/A,25.99%,5.44%,54.17%,Erie County,46.40%,48.00%,0.0%,0.0%,95.49%,3.11%,1.37%,Eastern Standard Time,N/A,N/A,N/A,N/A,171,88.7,8.5,74,731,3.5,1.83,PA-78312,41.894064,-79.8228534,47%,64%,30%,65%,63%,37.2,39,58,N/A,N/A,N/A,N/A
Union township (Erie Cnty),Pennsylvania,1729,945,Erie,268426,$52857,N/A,N/A,$52000,2167,$24,50,74.00%,N/A,42.20%,N/A,N/A,N/A,4.70%,N/A,Erie County,46.40%,48.00%,0.2%,0.1%,97.5%,1.8%,N/A,Eastern Standard Time,N/A,N/A,N/A,N/A,171,88.7,8.5,86,731,3.5,1.83,PA-78312,41.894064,-79.8228534,47%,64%,30%,65%,63%,37.2,39,58,N/A,N/A,N/A,N/A
Venango township (Erie Cnty),Pennsylvania,2220,8222,Erie,268426,$70139,N/A,N/A,N/A,N/A,N/A,38,82.80%,N/A,34.70%,N/A,N/A,N/A,4.70%,N/A,Erie County,46.40%,48.00%,0.0%,0.5%,98.2%,0.0%,N/A,Eastern Standard Time,N/A,N/A,N/A,N/A,170,101.6,8.5,85,731,3.5,0.27,PA-79928,42.0429702,-79.8329064,47%,64%,30%,65%,63%,37.2,39,58,N/A,N/A,N/A,N/A
Washington township (Erie Cnty),Pennsylvania,4509,1544,Erie,268426,$72601,N/A,N/A,$190000,1242,$153,33,73.90%,N/A,37.00%,N/A,N/A,N/A,4.70%,N/A,Erie County,46.40%,48.00%,0.0%,0.0%,94.0%,4.5%,N/A,Eastern Standard Time,N/A,N/A,N/A,N/A,176,101.6,8.5,84,731,3.5,2.92,PA-81224,41.8937994,-80.1144254,47%,64%,31%,65%,63%,37.2,39,58,N/A,N/A,N/A,N/A
Waterford,Pennsylvania,3939,3202,Erie,268426,$54628,19.14%,N/A,N/A,N/A,N/A,26,75.10%,N/A,43.90%,N/A,N/A,4.1%,4.70%,N/A,Erie County,46.40%,48.00%,0.0%,0.0%,98.2%,0.4%,1%,Eastern Standard Time,N/A,N/A,N/A,N/A,171,101.6,8.5,85,731,3.5,1.23,PA-81472,41.9564468,-79.9770727,47%,64%,30%,65%,63%,37.2,39,58,N/A,N/A,N/A,N/A
Waterford borough,Pennsylvania,1393,1133,Erie,268426,$46136,N/A,N/A,N/A,N/A,N/A,57,49.00%,N/A,45.20%,N/A,N/A,N/A,4.70%,N/A,Erie County,46.40%,48.00%,0.4%,0.2%,94.5%,4.7%,N/A,Eastern Standard Time,N/A,N/A,N/A,N/A,171,101.6,8.5,85,731,3.5,1.23,PA-81472,41.9564468,-79.9770727,47%,64%,30%,65%,63%,37.2,39,58,N/A,N/A,N/A,N/A
Wattsburg,Pennsylvania,430,1433,Erie,268426,$40714,13.4%,39,N/A,N/A,N/A,66,69.3%,$717,45.06%,N/A,N/A,17.42%,4.65%,63.61%,Erie County,46.40%,48.00%,0.93%,0.0%,93.02%,1.86%,1.63%,Eastern Standard Time,N/A,N/A,N/A,N/A,170,101.6,8.5,85,731,3.5,0.3,PA-81648,42.0029605,-79.8070773,47%,64%,30%,65%,63%,37.2,39,58,N/A,N/A,N/A,N/A
Wayne township (Erie Cnty),Pennsylvania,1808,853,Erie,268426,$43482,N/A,N/A,$1650000,3700,$446,50,83.80%,N/A,35.00%,N/A,N/A,N/A,4.70%,N/A,Erie County,46.40%,48.00%,0.7%,0.0%,98.6%,0.2%,N/A,Eastern Standard Time,N/A,N/A,N/A,N/A,170,88.7,8.5,86,731,3.5,2.12,PA-81760,41.9620073,-79.6914725,47%,64%,30%,65%,63%,37.2,39,58,N/A,N/A,N/A,N/A
Wesleyville,Pennsylvania,3147,5938,Erie,268426,$41910,18.76%,36,$102000,1041,$98,68,79.73%,$788,51.68%,N/A,N/A,21.64%,4.38%,65.8%,Erie County,46.40%,48.00%,4.26%,1.72%,80.46%,7.44%,4.96%,Eastern Standard Time,N/A,N/A,N/A,N/A,172,101.6,8.5,64,731,3.5,0.53,PA-82344,42.1369216,-80.0122707,47%,64%,30%,65%,63%,37.2,39,58,N/A,N/A,N/A,N/A
