City,State,Population,People per sq mi,Metro Name,Metro population,Median household income,% with at least Bachelor's degree,Median age,Median home price,Median home sqft,Median home cost per sqft,Median home age,Homeownership Rate,Avg Apartment Monthly Rent,Single Population,Num Violent Crimes Per 100k residents,Num Property Crimes Per 100k residents,Poverty Rate,Unemployment rate,Labor Force Participation rate,County,% Democrat,% Republican,% Asian,% Black,% Non-Hispanic White,% Hispanic,Foreign Born %,Timezone,Hottest month's avg high (F),Coldest month's avg high (F),Hottest high minus coldest high,Hottest month's avg low (F),Coldest month's avg low (F),Annual Relative Humidity (afternoon),Summer Relative Humidity (afternoon),Annual dew point (F),Average summer dew point (F),Hottest month's avg heat index high (F),Annual Sunshine - Percentage of Possible,Summer Sunshine - Percentage of Possible,Winter Sunshine - Percentage of Possible,Annual rainfall (in),Summer rainfall (in),Winter rainfall (in),Percent of days that include precipitation,Percent of Summer days that include precipitation,Percent of Winter days that include precipitation,Annual snowfall (in),Days of snow per year,Average yearly windspeed (mph),Number of days with thunder per year,Air quality Index,Elevation (ft),UV Index,Land Area (sq mi),Fips Code,Latitude,Longitude
Albright,West Virginia,294,1278,Morgantown,139961,$55714,2.9%,29,N/A,N/A,N/A,72,53.79%,$1018,47.45%,N/A,N/A,21.09%,7.69%,66.27%,Preston County,19.40%,74.70%,0.0%,0.0%,98.98%,0.68%,0.68%,Eastern Standard Time,77,34,43,59,18,58%,59%,40,59,77,42%,52%,29%,53.09,14.6,12.97,49.04%,46.59%,55.67%,128.1,48,4.9,34.4,88,2406,3.5,0.23,WV-00748,39.4937015,-79.6399583
Blacksville,West Virginia,59,197,Morgantown,139961,$35833,2.04%,63,N/A,N/A,N/A,46,47.95%,N/A,50.91%,N/A,N/A,23.73%,0.0%,23.64%,Monongalia County,40.00%,50.10%,0.0%,0.0%,100.0%,0.0%,0.0%,Eastern Standard Time,85,39,46,60,19,57%,54%,39,58,87,42%,52%,29%,51.49,14.4,12.58,42.9%,40.55%,49.33%,30.5,14,7.8,34.4,80,1134,3.4,0.3,WV-08092,39.717421,-80.2147712
Brandonville,West Virginia,122,313,Morgantown,139961,$87083,32.58%,39,N/A,N/A,N/A,47,74.44%,N/A,34.07%,N/A,N/A,10.66%,7.81%,70.33%,Preston County,19.40%,74.70%,0.82%,0.0%,98.36%,0.0%,0.0%,Eastern Standard Time,85,38,47,63,22,58%,59%,40,59,89,42%,52%,29%,47.5,14.32,10.18,44.47%,41.76%,50.33%,62.0,32,4.9,34.4,86,822,3.5,0.39,WV-09844,39.6670622,-79.6276662
Brookhaven,West Virginia,6465,700,Morgantown,139961,$84962,40.26%,37,N/A,N/A,N/A,29,81.87%,$1077,45.63%,N/A,N/A,10.15%,7.4%,65.76%,Monongalia County,40.00%,50.10%,0.46%,0.9%,86.59%,8.72%,0.0%,Eastern Standard Time,85,40,45,64,24,58%,59%,40,59,89,42%,52%,29%,44.46,13.3,9.84,44.47%,41.76%,50.33%,30.5,14,4.9,34.4,78,1134,3.4,9.24,WV-10420,39.6061575,-79.881145
Bruceton Mills,West Virginia,79,1317,Morgantown,139961,$56667,8.7%,45,N/A,N/A,N/A,53,41.3%,$792,48.1%,N/A,N/A,2.53%,0.0%,82.28%,Preston County,19.40%,74.70%,0.0%,0.0%,100.0%,0.0%,0.0%,Eastern Standard Time,85,38,47,63,22,58%,59%,40,59,89,42%,52%,29%,47.5,14.32,10.18,44.47%,41.76%,50.33%,62.0,32,4.9,34.4,86,822,3.5,0.06,WV-10852,39.6593958,-79.6406064
Cassville,West Virginia,900,254,Morgantown,139961,$117643,40.21%,41,N/A,N/A,N/A,12,91.46%,N/A,28.48%,N/A,N/A,0.0%,0.0%,68.4%,Monongalia County,40.00%,50.10%,0.0%,0.0%,99.0%,0.0%,0.0%,Eastern Standard Time,84,39,45,63,20,57%,54%,39,58,86,42%,52%,29%,47.34,14.12,10.75,44.47%,41.76%,50.33%,30.5,14,7.8,34.4,77,756,3.4,3.55,WV-13756,39.6749759,-80.0677774
Cheat Lake,West Virginia,10485,731,Morgantown,139961,$111379,58.66%,42,N/A,N/A,N/A,27,80.62%,$1113,33.25%,N/A,N/A,5.43%,1.96%,70.5%,Monongalia County,40.00%,50.10%,1.83%,3.9%,89.87%,1.52%,4.37%,Eastern Standard Time,85,40,45,64,24,58%,59%,40,59,89,42%,52%,29%,44.46,13.3,9.84,44.47%,41.76%,50.33%,30.5,14,4.9,34.4,79,1134,3.4,14.34,WV-14775,39.6670384,-79.8564314
Granville,West Virginia,1215,935,Morgantown,139961,$32015,13.04%,27,N/A,N/A,N/A,30,39.18%,$789,85.71%,N/A,N/A,40.99%,10.67%,61.22%,Monongalia County,40.00%,50.10%,0.25%,2.47%,86.91%,1.23%,3.7%,Eastern Standard Time,84,39,45,63,20,58%,59%,40,59,88,42%,52%,29%,47.34,14.12,10.75,44.47%,41.76%,50.33%,30.5,14,4.9,34.4,68,756,3.4,1.3,WV-32932,39.647114,-79.9974482
Kingwood,West Virginia,2980,1226,Morgantown,139961,$67411,31.73%,43,N/A,N/A,N/A,50,65.25%,$636,44.55%,N/A,N/A,15.41%,4.68%,59.31%,Preston County,19.40%,74.70%,1.41%,2.48%,95.1%,0.37%,1.81%,Eastern Standard Time,77,34,43,59,18,58%,59%,40,59,77,42%,52%,29%,53.09,14.6,12.97,49.04%,46.59%,55.67%,128.1,48,4.9,34.4,84,2406,3.5,2.43,WV-44044,39.471953,-79.6822503
Masontown,West Virginia,490,1750,Morgantown,139961,$50938,15.11%,40,N/A,N/A,N/A,62,68.92%,$806,45.27%,N/A,N/A,5.1%,10.14%,55.5%,Preston County,19.40%,74.70%,0.0%,0.0%,98.37%,0.0%,0.0%,Eastern Standard Time,85,40,45,64,24,58%,59%,40,59,89,42%,52%,29%,44.46,13.3,9.84,44.47%,41.76%,50.33%,30.5,14,4.9,34.4,85,1134,3.5,0.28,WV-52228,39.5511674,-79.8002842
Morgantown,West Virginia,30273,2971,Morgantown,139961,$42245,58.12%,24,N/A,N/A,N/A,54,41.79%,$888,72.17%,214,1563,33.62%,7.58%,55.74%,Monongalia County,40.00%,50.10%,3.87%,4.23%,84.18%,3.97%,6.19%,Eastern Standard Time,85,40,45,64,24,58%,59%,40,59,89,42%,52%,29%,44.46,13.3,9.84,44.47%,41.76%,50.33%,30.5,14,4.9,34.4,61,1134,3.4,10.19,WV-55756,39.6381682,-79.9463892
Newburg,West Virginia,225,285,Morgantown,139961,$49559,10.53%,59,N/A,N/A,N/A,82,67.97%,$875,34.65%,N/A,N/A,12.89%,3.06%,49.49%,Preston County,19.40%,74.70%,3.11%,0.0%,93.33%,0.44%,3.11%,Eastern Standard Time,82,39,43,62,21,58%,59%,40,59,84,42%,52%,29%,50.57,15.01,11.74,44.47%,41.76%,50.33%,128.1,48,4.9,34.4,85,1128,3.5,0.79,WV-58300,39.388852,-79.8536007
Pentress,West Virginia,21,34,Morgantown,139961,N/A,N/A,N/A,N/A,N/A,N/A,N/A,20.88%,N/A,0.0%,N/A,N/A,0.0%,0.0%,0.0%,Monongalia County,40.00%,50.10%,0.0%,0.0%,0.0%,0.0%,0.0%,Eastern Standard Time,84,39,45,63,20,57%,54%,39,58,86,42%,52%,29%,47.34,14.12,10.75,42.9%,40.55%,49.33%,30.5,14,7.8,34.4,80,756,3.4,0.61,WV-62788,39.7100763,-80.168369
Reedsville,West Virginia,652,1003,Morgantown,139961,$59000,12.59%,52,N/A,N/A,N/A,37,74.29%,$1045,55.46%,N/A,N/A,12.54%,28.93%,62.26%,Preston County,19.40%,74.70%,0.0%,1.07%,96.93%,0.0%,0.77%,Eastern Standard Time,85,40,45,64,24,58%,59%,40,59,89,42%,52%,29%,44.46,13.3,9.84,44.47%,41.76%,50.33%,30.5,14,4.9,34.4,85,1134,3.5,0.65,WV-67636,39.5102881,-79.8005593
Rowlesburg,West Virginia,640,634,Morgantown,139961,$52813,11.72%,54,N/A,N/A,N/A,72,79.27%,$673,47.44%,N/A,N/A,24.38%,19.22%,52.33%,Preston County,19.40%,74.70%,0.0%,0.0%,97.34%,0.0%,0.0%,Eastern Standard Time,77,34,43,59,18,58%,59%,40,59,77,42%,52%,29%,53.09,14.6,12.97,49.04%,46.59%,55.67%,128.1,48,4.9,34.4,87,2406,3.5,1.01,WV-70588,39.3482004,-79.6763294
Star City,West Virginia,1894,3865,Morgantown,139961,$62031,53.61%,33,N/A,N/A,N/A,32,46.3%,$989,66.59%,N/A,N/A,15.73%,1.84%,72.44%,Monongalia County,40.00%,50.10%,7.71%,4.38%,83.47%,2.16%,6.92%,Eastern Standard Time,84,39,45,63,20,58%,59%,40,59,88,42%,52%,29%,47.34,14.12,10.75,44.47%,41.76%,50.33%,30.5,14,4.9,34.4,68,756,3.4,0.49,WV-76516,39.6587167,-79.9868483
Terra Alta,West Virginia,1992,1674,Morgantown,139961,$50035,6.86%,30,N/A,N/A,N/A,55,79.89%,$744,61.79%,N/A,N/A,33.08%,8.87%,58.5%,Preston County,19.40%,74.70%,0.0%,0.9%,86.09%,1.41%,0.2%,Eastern Standard Time,77,34,43,59,18,58%,59%,40,59,77,42%,52%,29%,53.09,14.6,12.97,49.04%,46.59%,55.67%,128.1,48,4.9,34.4,88,2406,3.5,1.19,WV-79708,39.4442781,-79.5436411
Tunnelton,West Virginia,333,979,Morgantown,139961,$56875,3.67%,43,N/A,N/A,N/A,29,72.43%,N/A,40.29%,N/A,N/A,20.72%,3.28%,66.79%,Preston County,19.40%,74.70%,0.0%,0.0%,97.3%,0.0%,0.3%,Eastern Standard Time,77,34,43,59,18,58%,59%,40,59,77,42%,52%,29%,50.57,15.01,11.74,49.04%,46.59%,55.67%,128.1,48,4.9,34.4,86,2406,3.5,0.34,WV-81268,39.392886,-79.7465783
Westover,West Virginia,4007,1457,Morgantown,139961,$58333,30.38%,41,N/A,N/A,N/A,63,55.64%,$895,56.88%,N/A,N/A,12.4%,1.12%,67.53%,Monongalia County,40.00%,50.10%,0.0%,5.37%,86.65%,4.07%,2.2%,Eastern Standard Time,84,39,45,63,20,58%,59%,40,59,88,42%,52%,29%,47.34,14.12,10.75,44.47%,41.76%,50.33%,30.5,14,4.9,34.4,70,756,3.4,2.75,WV-85996,39.6329673,-79.9882164
