City,State,Population,People per sq mi,Metro Name,Metro population,Median household income,% with at least Bachelor's degree,Median age,Median home price,Median home sqft,Median home cost per sqft,Median home age,Homeownership Rate,Avg Apartment Monthly Rent,Single Population,Num Violent Crimes Per 100k residents,Num Property Crimes Per 100k residents,Poverty Rate,Unemployment rate,Labor Force Participation rate,County,% Democrat,% Republican,% Asian,% Black,% Non-Hispanic White,% Hispanic,Foreign Born %,Timezone,Hottest month's avg high (F),Coldest month's avg high (F),Hottest high minus coldest high,Annual rainfall (in),Annual days of precipitation,Annual snowfall (in),Average yearly windspeed (mph),Air quality Index,Elevation (ft),UV Index,Land Area (sq mi),Fips Code,Latitude,Longitude,Annual Sunshine - Percentage of Possible,Summer Sunshine - Percentage of Possible,Winter Sunshine - Percentage of Possible,Annual Relative Humidity (afternoon),Summer Relative Humidity (afternoon),Number of days with thunder per year,Annual dew point (F),Average summer dew point (F),Hottest month's avg low (F),Coldest month's avg low (F),Summer rainfall (in),Winter rainfall (in)
Adams,Massachusetts,5689,2322,Pittsfield,124571,$43932,24.13%,45,$194000,1748,$111,78,60.1%,$766,51.01%,323,1170,14.21%,6.63%,60.51%,Berkshire County,66.60%,25.70%,1.39%,0.91%,93.5%,2.67%,2.57%,Eastern Standard Time,N/A,N/A,N/A,N/A,135,73.1,7.9,85,1158,3.3,2.45,MA-00590,42.62853,-73.1185343,50%,58%,45%,57%,55%,22.7,37,58,N/A,N/A,N/A,N/A
Alford,Massachusetts,411,36,Pittsfield,124571,$91250,N/A,N/A,$475000,2328,$204,42,48.60%,N/A,25.30%,N/A,N/A,N/A,3.00%,N/A,Berkshire County,66.60%,25.70%,1.7%,1.2%,92.5%,2.4%,N/A,Eastern Standard Time,N/A,N/A,N/A,N/A,137,73.3,7.9,86,1158,3.3,11.42,MA-00975,42.2486176,-73.4259176,50%,58%,45%,57%,55%,22.7,37,58,N/A,N/A,N/A,N/A
Becket,Massachusetts,1852,40,Pittsfield,124571,$64152,31.01%,N/A,$549000,1961,$280,40,41.80%,N/A,43.60%,N/A,N/A,N/A,3.00%,N/A,Berkshire County,66.60%,25.70%,0.0%,1.5%,92.7%,4.2%,N/A,Eastern Standard Time,N/A,N/A,N/A,N/A,139,73.1,7.8,89,1158,3.3,46.3,MA-04545,42.2849753,-73.0832624,58%,63%,57%,53%,52%,19.9,38,59,N/A,N/A,N/A,N/A
Cheshire,Massachusetts,683,1797,Pittsfield,124571,$94167,36.25%,52,N/A,N/A,N/A,48,79.21%,$545,55.64%,N/A,N/A,0.0%,0.0%,48.32%,Berkshire County,66.60%,25.70%,0.0%,0.0%,98.54%,0.0%,0.0%,Eastern Standard Time,N/A,N/A,N/A,N/A,129,73.1,7.9,89,1158,3.3,0.38,MA-13310,42.5611388,-73.1623438,50%,58%,45%,57%,55%,22.7,37,58,N/A,N/A,N/A,N/A
Clarksburg,Massachusetts,1722,136,Pittsfield,124571,$57375,27.73%,N/A,$325000,2289,$142,63,84.10%,N/A,34.80%,N/A,N/A,N/A,3.00%,N/A,Berkshire County,66.60%,25.70%,0.0%,0.1%,98.8%,0.7%,N/A,Eastern Standard Time,N/A,N/A,N/A,N/A,137,73.1,7.9,88,1158,3.3,12.66,MA-14010,42.7266654,-73.1089366,50%,58%,45%,57%,55%,22.7,37,58,N/A,N/A,N/A,N/A
Dalton,Massachusetts,6657,306,Pittsfield,124571,$47500,35.36%,N/A,$268000,1426,$188,70,72.20%,N/A,52.00%,N/A,N/A,N/A,3.00%,N/A,Berkshire County,66.60%,25.70%,1.6%,0.4%,95.0%,2.0%,N/A,Eastern Standard Time,N/A,N/A,N/A,N/A,137,73.1,7.9,85,1158,3.3,21.75,MA-16180,42.4795284,-73.1533099,50%,58%,45%,57%,55%,22.7,37,58,N/A,N/A,N/A,N/A
Egremont,Massachusetts,1255,67,Pittsfield,124571,$54556,52.48%,N/A,$950000,2154,$441,51,52.60%,N/A,43.00%,N/A,N/A,N/A,3.00%,N/A,Berkshire County,66.60%,25.70%,1.2%,2.3%,90.0%,5.6%,N/A,Eastern Standard Time,N/A,N/A,N/A,N/A,138,73.3,7.9,86,1158,3.3,18.73,MA-21360,42.1702705,-73.4394273,50%,58%,45%,57%,55%,22.7,37,58,N/A,N/A,N/A,N/A
Florida,Massachusetts,816,33,Pittsfield,124571,$52313,18.71%,N/A,$100000,1250,$80,45,72.20%,N/A,42.50%,N/A,N/A,N/A,3.00%,N/A,Berkshire County,66.60%,25.70%,0.0%,1.2%,94.5%,0.4%,N/A,Eastern Standard Time,N/A,N/A,N/A,N/A,137,73.1,7.9,90,1158,3.3,24.73,MA-24120,42.6803476,-73.014491,50%,58%,45%,57%,55%,22.7,37,58,N/A,N/A,N/A,N/A
Great Barrington,Massachusetts,2213,1537,Pittsfield,124571,$43870,41.28%,51,$926000,1941,$477,78,51.1%,$924,59.59%,N/A,N/A,5.87%,1.47%,65.42%,Berkshire County,66.60%,25.70%,0.0%,1.04%,93.94%,3.89%,5.51%,Eastern Standard Time,N/A,N/A,N/A,N/A,137,73.3,7.9,85,1158,3.3,1.44,MA-26780,42.1937841,-73.3617052,50%,58%,45%,57%,55%,22.7,37,58,N/A,N/A,N/A,N/A
Hancock,Massachusetts,639,18,Pittsfield,124571,$80395,35.21%,N/A,$585000,2112,$277,30,27.90%,N/A,33.90%,N/A,N/A,N/A,3.00%,N/A,Berkshire County,66.60%,25.70%,0.8%,1.3%,95.9%,0.9%,N/A,Eastern Standard Time,N/A,N/A,N/A,N/A,134,73.1,7.9,86,1158,3.3,35.5,MA-28180,42.5313142,-73.3198181,50%,58%,45%,57%,55%,22.7,37,58,N/A,N/A,N/A,N/A
Hinsdale,Massachusetts,1970,95,Pittsfield,124571,$63953,33.80%,N/A,N/A,N/A,N/A,47,54.50%,N/A,47.90%,N/A,N/A,N/A,3.00%,N/A,Berkshire County,66.60%,25.70%,0.0%,0.0%,98.2%,0.3%,N/A,Eastern Standard Time,N/A,N/A,N/A,N/A,138,73.1,7.9,88,1158,3.3,20.74,MA-30315,42.4348264,-73.1133756,50%,58%,45%,57%,55%,22.7,37,58,N/A,N/A,N/A,N/A
Housatonic,Massachusetts,682,766,Pittsfield,124571,$49435,39.89%,54,N/A,N/A,N/A,78,56.51%,$979,63.55%,N/A,N/A,3.37%,0.0%,83.33%,Berkshire County,66.60%,25.70%,0.0%,0.0%,83.72%,13.78%,10.12%,Eastern Standard Time,N/A,N/A,N/A,N/A,137,73.3,7.9,85,1158,3.3,0.89,MA-31295,42.248788,-73.3626556,50%,58%,45%,57%,55%,22.7,37,58,N/A,N/A,N/A,N/A
Lanesborough,Massachusetts,3004,104,Pittsfield,124571,$72708,41.81%,N/A,$430000,1830,$235,54,71.60%,N/A,38.10%,N/A,N/A,N/A,3.00%,N/A,Berkshire County,66.60%,25.70%,1.3%,1.9%,95.6%,0.0%,N/A,Eastern Standard Time,N/A,N/A,N/A,N/A,136,73.1,7.9,87,1158,3.3,28.88,MA-34340,42.531735,-73.239398,50%,58%,45%,57%,55%,22.7,37,58,N/A,N/A,N/A,N/A
Lee,Massachusetts,1508,1134,Pittsfield,124571,$63250,26.53%,46,$490000,1639,$299,62,57.28%,$843,56.6%,N/A,N/A,2.85%,5.6%,61.99%,Berkshire County,66.60%,25.70%,0.33%,1.26%,86.14%,2.85%,13.73%,Eastern Standard Time,N/A,N/A,N/A,N/A,136,73.1,7.9,79,1158,3.3,1.33,MA-34620,42.3068503,-73.2503981,50%,58%,45%,57%,55%,22.7,37,58,N/A,N/A,N/A,N/A
Lenox,Massachusetts,1984,992,Pittsfield,124571,$40294,56.45%,62,$373000,1309,$285,48,51.9%,$967,71.24%,N/A,N/A,8.67%,4.8%,40.05%,Berkshire County,66.60%,25.70%,0.0%,2.67%,91.78%,4.74%,15.27%,Eastern Standard Time,N/A,N/A,N/A,N/A,130,73.1,7.9,84,1158,3.3,2.0,MA-34935,42.3596091,-73.2854038,50%,58%,45%,57%,55%,22.7,37,58,N/A,N/A,N/A,N/A
Monterey,Massachusetts,729,28,Pittsfield,124571,$48750,54.61%,N/A,$1325000,1830,$724,44,36.00%,N/A,43.70%,N/A,N/A,N/A,3.00%,N/A,Berkshire County,66.60%,25.70%,0.7%,0.7%,96.8%,0.5%,N/A,Eastern Standard Time,N/A,N/A,N/A,N/A,139,73.3,7.8,88,1158,3.3,26.04,MA-42460,42.1905711,-73.2273693,58%,63%,57%,53%,52%,19.9,38,59,N/A,N/A,N/A,N/A
Mount Washington,Massachusetts,140,6,Pittsfield,124571,$65417,N/A,N/A,N/A,N/A,N/A,50,54.50%,N/A,50.70%,N/A,N/A,N/A,3.00%,N/A,Berkshire County,66.60%,25.70%,0.7%,0.0%,89.3%,0.0%,N/A,Eastern Standard Time,N/A,N/A,N/A,N/A,141,73.3,7.9,86,1158,3.3,23.33,MA-43300,42.0939761,-73.466231,50%,58%,45%,57%,55%,22.7,37,58,N/A,N/A,N/A,N/A
New Ashford,Massachusetts,334,25,Pittsfield,124571,$73750,31.88%,N/A,N/A,N/A,N/A,53,71.00%,N/A,37.00%,N/A,N/A,N/A,3.00%,N/A,Berkshire County,66.60%,25.70%,0.6%,2.1%,91.9%,4.8%,N/A,Eastern Standard Time,N/A,N/A,N/A,N/A,136,73.1,7.9,86,1158,3.3,13.36,MA-44350,42.605082,-73.2395502,50%,58%,45%,57%,55%,22.7,37,58,N/A,N/A,N/A,N/A
New Marlborough,Massachusetts,1370,29,Pittsfield,124571,$64559,41.55%,N/A,$882000,2579,$342,61,57.60%,N/A,37.70%,N/A,N/A,N/A,3.00%,N/A,Berkshire County,66.60%,25.70%,0.6%,1.2%,95.0%,2.5%,N/A,Eastern Standard Time,N/A,N/A,N/A,N/A,139,73.3,7.8,87,1158,3.3,47.24,MA-45420,42.100878,-73.2400051,58%,63%,57%,53%,52%,19.9,38,59,N/A,N/A,N/A,N/A
North Adams,Massachusetts,12897,634,Pittsfield,124571,$49123,22.63%,45,$200000,2151,$93,78,59.64%,$782,61.1%,N/A,N/A,14.2%,4.46%,59.54%,Berkshire County,66.60%,25.70%,3.21%,1.82%,84.97%,7.14%,5.74%,Eastern Standard Time,N/A,N/A,N/A,N/A,137,73.1,7.9,84,1158,3.3,20.35,MA-46225,42.6844007,-73.1166037,50%,58%,45%,57%,55%,22.7,37,58,N/A,N/A,N/A,N/A
Otis,Massachusetts,1577,44,Pittsfield,124571,$55833,37.73%,N/A,N/A,N/A,N/A,49,34.90%,N/A,42.90%,N/A,N/A,N/A,3.00%,N/A,Berkshire County,66.60%,25.70%,0.0%,0.6%,98.1%,0.5%,N/A,Eastern Standard Time,N/A,N/A,N/A,N/A,140,73.1,7.8,88,1158,3.3,35.84,MA-51580,42.2037718,-73.0856376,58%,63%,57%,53%,52%,19.9,38,59,N/A,N/A,N/A,N/A
Peru,Massachusetts,811,31,Pittsfield,124571,$68971,N/A,N/A,N/A,N/A,N/A,39,76.30%,N/A,36.70%,N/A,N/A,N/A,3.00%,N/A,Berkshire County,66.60%,25.70%,0.0%,0.2%,97.4%,1.7%,N/A,Eastern Standard Time,N/A,N/A,N/A,N/A,138,73.1,7.9,90,1158,3.3,26.16,MA-53050,42.4293037,-73.0400041,50%,58%,45%,57%,55%,22.7,37,58,N/A,N/A,N/A,N/A
Pittsfield,Massachusetts,42514,1051,Pittsfield,124571,$56620,31.18%,44,$244000,1605,$152,73,67.42%,$907,56.94%,N/A,N/A,12.63%,7.21%,63.18%,Berkshire County,66.60%,25.70%,1.69%,4.62%,81.96%,7.2%,5.71%,Eastern Standard Time,N/A,N/A,N/A,N/A,136,73.1,7.9,74,1158,3.3,40.47,MA-53960,42.4517085,-73.2605219,50%,58%,45%,57%,55%,22.7,37,58,N/A,N/A,N/A,N/A
Richmond,Massachusetts,1521,81,Pittsfield,124571,$77396,49.75%,N/A,N/A,N/A,N/A,50,71.30%,N/A,33.10%,N/A,N/A,N/A,3.00%,N/A,Berkshire County,66.60%,25.70%,1.5%,0.7%,95.8%,0.1%,N/A,Eastern Standard Time,N/A,N/A,N/A,N/A,132,73.1,7.9,86,1158,3.3,18.78,MA-56795,42.3868056,-73.3591156,50%,58%,45%,57%,55%,22.7,37,58,N/A,N/A,N/A,N/A
Sandisfield,Massachusetts,859,17,Pittsfield,124571,$56250,N/A,N/A,$272000,1629,$167,42,49.20%,N/A,48.20%,N/A,N/A,N/A,3.00%,N/A,Berkshire County,66.60%,25.70%,1.0%,0.3%,94.1%,2.1%,N/A,Eastern Standard Time,N/A,N/A,N/A,N/A,139,73.3,7.8,88,1158,3.3,50.53,MA-59665,42.1083887,-73.1228874,58%,63%,57%,53%,52%,19.9,38,59,N/A,N/A,N/A,N/A
Savoy,Massachusetts,764,21,Pittsfield,124571,$57222,19.54%,N/A,$253000,1552,$163,42,73.90%,N/A,50.90%,N/A,N/A,N/A,3.00%,N/A,Berkshire County,66.60%,25.70%,0.0%,4.7%,87.0%,2.1%,N/A,Eastern Standard Time,N/A,N/A,N/A,N/A,132,73.1,7.9,90,1158,3.3,36.38,MA-60225,42.5962708,-73.0195811,50%,58%,45%,57%,55%,22.7,37,58,N/A,N/A,N/A,N/A
Sheffield,Massachusetts,3190,67,Pittsfield,124571,$50530,30.53%,N/A,N/A,N/A,N/A,55,62.70%,N/A,54.30%,N/A,N/A,N/A,3.00%,N/A,Berkshire County,66.60%,25.70%,0.0%,0.0%,98.4%,0.5%,N/A,Eastern Standard Time,N/A,N/A,N/A,N/A,137,73.3,7.8,86,1158,3.3,47.61,MA-61065,42.1020578,-73.3599674,58%,63%,57%,53%,52%,19.9,38,59,N/A,N/A,N/A,N/A
Stockbridge,Massachusetts,1980,87,Pittsfield,124571,$57981,46.37%,N/A,$558000,1771,$315,63,32.90%,N/A,56.70%,N/A,N/A,N/A,3.00%,N/A,Berkshire County,66.60%,25.70%,1.5%,1.3%,92.1%,4.1%,N/A,Eastern Standard Time,N/A,N/A,N/A,N/A,136,73.1,7.9,85,1158,3.3,22.76,MA-67595,42.302581,-73.3245041,50%,58%,45%,57%,55%,22.7,37,58,N/A,N/A,N/A,N/A
Tyringham,Massachusetts,439,24,Pittsfield,124571,$77750,50.53%,N/A,$485000,1702,$285,50,51.10%,N/A,35.80%,N/A,N/A,N/A,3.00%,N/A,Berkshire County,66.60%,25.70%,1.1%,0.5%,94.8%,3.2%,N/A,Eastern Standard Time,N/A,N/A,N/A,N/A,140,73.1,7.9,88,1158,3.3,18.29,MA-71095,42.2473447,-73.1975911,50%,58%,45%,57%,55%,22.7,37,58,N/A,N/A,N/A,N/A
Washington,Massachusetts,499,13,Pittsfield,124571,$69583,N/A,N/A,N/A,N/A,N/A,37,83.10%,N/A,37.60%,N/A,N/A,N/A,3.00%,N/A,Berkshire County,66.60%,25.70%,0.8%,0.0%,95.8%,1.0%,N/A,Eastern Standard Time,N/A,N/A,N/A,N/A,139,73.1,7.9,89,1158,3.3,38.38,MA-73335,42.3656778,-73.1551215,50%,58%,45%,57%,55%,22.7,37,58,N/A,N/A,N/A,N/A
West Stockbridge,Massachusetts,1095,59,Pittsfield,124571,$65455,58.00%,N/A,$490000,1782,$275,44,46.40%,N/A,44.90%,N/A,N/A,N/A,3.00%,N/A,Berkshire County,66.60%,25.70%,0.5%,4.9%,87.1%,2.9%,N/A,Eastern Standard Time,N/A,N/A,N/A,N/A,135,73.1,7.9,85,1158,3.3,18.56,MA-77990,42.3102524,-73.3882351,50%,58%,45%,57%,55%,22.7,37,58,N/A,N/A,N/A,N/A
Williamstown,Massachusetts,4565,1343,Pittsfield,124571,$80000,74.95%,21,$354000,1356,$261,62,70.03%,$975,78.5%,N/A,N/A,6.22%,2.59%,61.78%,Berkshire County,66.60%,25.70%,6.77%,6.18%,76.87%,6.31%,9.86%,Eastern Standard Time,N/A,N/A,N/A,N/A,130,73.1,7.9,88,1158,3.3,3.4,MA-79950,42.7087114,-73.2012134,50%,58%,45%,57%,55%,22.7,37,58,N/A,N/A,N/A,N/A
Windsor,Massachusetts,909,26,Pittsfield,124571,$71731,N/A,N/A,$470000,2386,$197,38,71.50%,N/A,35.50%,N/A,N/A,N/A,3.00%,N/A,Berkshire County,66.60%,25.70%,1.1%,0.0%,94.8%,1.4%,N/A,Eastern Standard Time,N/A,N/A,N/A,N/A,133,73.1,7.9,90,1158,3.3,34.96,MA-80685,42.5136156,-73.0433859,50%,58%,45%,57%,55%,22.7,37,58,N/A,N/A,N/A,N/A
