City,State,Population,People per sq mi,Metro Name,Metro population,Median household income,% with at least Bachelor's degree,Median age,Median home price,Median home sqft,Median home cost per sqft,Median home age,Homeownership Rate,Avg Apartment Monthly Rent,Single Population,Num Violent Crimes Per 100k residents,Num Property Crimes Per 100k residents,Poverty Rate,Unemployment rate,Labor Force Participation rate,County,% Democrat,% Republican,% Asian,% Black,% Non-Hispanic White,% Hispanic,Foreign Born %,Timezone,Hottest month's avg high (F),Coldest month's avg high (F),Hottest high minus coldest high,Hottest month's avg low (F),Coldest month's avg low (F),Annual Relative Humidity (afternoon),Summer Relative Humidity (afternoon),Annual dew point (F),Average summer dew point (F),Hottest month's avg heat index high (F),Annual Sunshine - Percentage of Possible,Summer Sunshine - Percentage of Possible,Winter Sunshine - Percentage of Possible,Annual rainfall (in),Summer rainfall (in),Winter rainfall (in),Percent of days that include precipitation,Percent of Summer days that include precipitation,Percent of Winter days that include precipitation,Annual snowfall (in),Days of snow per year,Average yearly windspeed (mph),Number of days with thunder per year,Air quality Index,Elevation (ft),UV Index,Land Area (sq mi),Fips Code,Latitude,Longitude
Albion (Orleans Cnty),New York,5281,1809,Rochester,1088373,$41708,8.56%,45,$90000,1765,$51,76,66.5%,$789,60.65%,293,2533,16.54%,11.83%,52.79%,Orleans County,27.30%,66.80%,0.0%,8.84%,82.75%,2.78%,1.99%,Eastern Standard Time,83,34,49,63,18,61%,55%,39,58,85,48%,64%,33%,37.43,10.67,8.0,46.19%,36.59%,60.22%,96.2,60,8.3,27.4,85,432,3.2,2.92,NY-01033,43.2460242,-78.1901997
Arcadia,New York,13822,266,Rochester,1088373,N/A,N/A,N/A,$150000,1705,$88,N/A,N/A,N/A,N/A,N/A,N/A,N/A,N/A,N/A,Wayne County,33.90%,58.90%,N/A,N/A,N/A,N/A,N/A,Eastern Standard Time,80,32,48,59,16,61%,55%,39,58,81,48%,64%,33%,40.61,12.24,9.3,44.16%,43.96%,45.44%,48.3,32,8.3,27.4,81,393,3.3,51.96,NY-02440,43.0870465,-77.0857634
Avon,New York,3360,1067,Rochester,1088373,$77438,39.37%,42,N/A,N/A,N/A,59,72.37%,$914,44.24%,N/A,N/A,9.26%,1.66%,63.8%,Livingston County,35.60%,57.60%,0.0%,0.42%,94.2%,3.3%,1.49%,Eastern Standard Time,82,33,49,60,17,61%,55%,39,58,83,48%,64%,33%,35.12,11.87,6.12,40.9%,38.24%,45.33%,45.5,24,8.3,27.4,85,498,3.2,3.15,NY-03353,42.9128427,-77.7464897
Barre,New York,1866,34,Rochester,1088373,N/A,N/A,N/A,N/A,N/A,N/A,N/A,N/A,N/A,N/A,N/A,N/A,N/A,N/A,N/A,Orleans County,27.30%,66.80%,N/A,N/A,N/A,N/A,N/A,Eastern Standard Time,83,34,49,63,18,61%,55%,39,58,85,48%,64%,33%,37.43,10.67,8.0,46.19%,36.59%,60.22%,96.2,60,8.3,27.4,88,432,3.2,54.88,NY-04572,43.172234,-78.2129028
Barrington,New York,1545,43,Rochester,1088373,N/A,N/A,N/A,N/A,N/A,N/A,N/A,N/A,N/A,N/A,N/A,N/A,N/A,N/A,N/A,Yates County,36.40%,56.20%,N/A,N/A,N/A,N/A,N/A,Eastern Standard Time,82,34,48,62,18,61%,55%,39,58,83,48%,64%,33%,29.15,8.99,4.7,36.49%,40.22%,31.33%,48.3,32,8.3,27.4,88,825,3.4,35.93,NY-04594,42.529776,-77.0487339
Benton,New York,2792,67,Rochester,1088373,N/A,N/A,N/A,$250000,1969,$127,N/A,N/A,N/A,N/A,N/A,N/A,N/A,N/A,N/A,Yates County,36.40%,56.20%,N/A,N/A,N/A,N/A,N/A,Eastern Standard Time,82,34,48,62,18,61%,55%,39,58,83,48%,64%,33%,35.52,11.96,6.45,36.49%,40.22%,31.33%,48.3,32,8.3,27.4,89,996,3.4,41.67,NY-06002,42.7224025,-77.0518427
Bloomfield,New York,1435,1025,Rochester,1088373,$79056,35.19%,49,$508000,7155,$71,59,74.95%,$857,41.63%,N/A,N/A,7.11%,3.24%,69.85%,Ontario County,42.30%,49.60%,0.0%,1.95%,94.91%,0.0%,0.56%,Eastern Standard Time,82,36,46,61,17,61%,55%,39,58,83,48%,64%,33%,37.82,12.62,6.83,44.25%,39.34%,49.89%,49.4,25,8.3,27.4,88,906,3.3,1.4,NY-06945,42.8991199,-77.424133
Brighton (Monroe Cnty),New York,36986,2400,Rochester,1088373,$75852,67.35%,39,$465000,1615,$288,61,62.18%,$1133,51.45%,69,1695,8.64%,4.48%,62.57%,Monroe County,54.20%,39.30%,9.17%,7.37%,75.37%,4.6%,15.72%,Eastern Standard Time,83,34,49,63,20,61%,55%,39,58,85,48%,64%,33%,35.76,10.48,7.88,46.19%,36.59%,60.22%,96.2,60,8.3,27.4,68,489,3.4,15.41,NY-08257,43.1174935,-77.5835656
Bristol,New York,2172,59,Rochester,1088373,N/A,N/A,N/A,$220000,961,$229,N/A,N/A,N/A,N/A,N/A,N/A,N/A,N/A,N/A,Ontario County,42.30%,49.60%,N/A,N/A,N/A,N/A,N/A,Eastern Standard Time,81,34,47,59,17,61%,55%,39,58,82,48%,64%,33%,39.58,13.87,7.35,44.82%,40.11%,50.89%,49.4,25,8.3,27.4,91,732,3.3,36.81,NY-08378,42.8064518,-77.4237673
Brockport,New York,7246,3339,Rochester,1088373,$50316,32.0%,22,$149000,1252,$119,61,53.73%,$877,81.71%,121,715,22.04%,6.97%,57.57%,Monroe County,54.20%,39.30%,3.26%,7.88%,81.81%,5.96%,4.25%,Eastern Standard Time,81,34,47,63,19,61%,55%,39,58,82,48%,64%,33%,34.09,10.46,6.41,46.19%,36.59%,60.22%,96.2,60,8.3,27.4,79,354,3.4,2.17,NY-08466,43.2136437,-77.9404332
Butler,New York,1891,51,Rochester,1088373,N/A,N/A,N/A,N/A,N/A,N/A,N/A,N/A,N/A,N/A,N/A,N/A,N/A,N/A,N/A,Wayne County,33.90%,58.90%,N/A,N/A,N/A,N/A,N/A,Eastern Standard Time,80,32,48,59,16,60%,55%,38,58,81,44%,57%,32%,39.41,12.17,8.07,49.21%,41.76%,59.56%,106.3,48,8.3,26.8,87,360,3.3,37.08,NY-11473,43.1743949,-76.7682932
Byersville,New York,33,65,Rochester,1088373,$73125,27.27%,54,N/A,N/A,N/A,47,100.0%,N/A,63.64%,N/A,N/A,12.12%,0.0%,78.79%,Livingston County,35.60%,57.60%,0.0%,0.0%,100.0%,0.0%,0.0%,Eastern Standard Time,84,35,49,61,17,61%,55%,39,58,86,48%,64%,33%,32.17,10.92,5.43,40.3%,39.01%,42.78%,34.3,14,8.3,27.4,90,603,3.2,0.51,NY-11550,42.5838823,-77.7915234
Caledonia,New York,2139,1019,Rochester,1088373,$68021,26.47%,44,$150000,1630,$92,66,79.62%,$775,53.61%,N/A,N/A,7.67%,1.38%,63.45%,Livingston County,35.60%,57.60%,1.08%,3.27%,90.74%,0.47%,2.01%,Eastern Standard Time,82,33,49,60,17,61%,55%,39,58,83,48%,64%,33%,38.24,11.68,7.81,40.9%,38.24%,45.33%,45.5,24,8.3,27.4,87,819,3.2,2.1,NY-11704,42.9754673,-77.8570799
Canadice,New York,1736,58,Rochester,1088373,N/A,N/A,N/A,$164000,1533,$107,N/A,N/A,N/A,N/A,N/A,N/A,N/A,N/A,N/A,Ontario County,42.30%,49.60%,N/A,N/A,N/A,N/A,N/A,Eastern Standard Time,81,34,47,61,17,61%,55%,39,58,82,48%,64%,33%,39.21,13.54,7.04,48.16%,43.3%,56.11%,49.4,25,8.3,27.4,91,825,3.3,29.93,NY-12100,42.7159696,-77.5543936
Canandaigua,New York,10402,2281,Rochester,1088373,N/A,N/A,N/A,$482000,918,$525,N/A,N/A,N/A,N/A,440,1742,N/A,N/A,N/A,Ontario County,42.30%,49.60%,N/A,N/A,N/A,N/A,N/A,Eastern Standard Time,82,34,48,63,19,61%,55%,39,58,83,48%,64%,33%,36.68,11.99,6.73,44.25%,39.34%,49.89%,49.4,25,8.3,27.4,76,660,3.3,4.56,NY-12155,42.8607459,-77.3182384
Canandaigua town,New York,10733,2354,Rochester,1088373,N/A,N/A,N/A,$482000,918,$525,N/A,N/A,N/A,N/A,440,1742,N/A,N/A,N/A,Ontario County,42.30%,49.60%,N/A,N/A,N/A,N/A,N/A,Eastern Standard Time,82,34,48,63,19,61%,55%,39,58,83,48%,64%,33%,36.68,11.99,6.73,44.25%,39.34%,49.89%,49.4,25,8.3,27.4,87,660,3.3,4.56,NY-12155,42.8607459,-77.3182384
Carlton,New York,2901,67,Rochester,1088373,N/A,N/A,N/A,$142000,1193,$119,N/A,N/A,N/A,N/A,N/A,N/A,N/A,N/A,N/A,Orleans County,27.30%,66.80%,N/A,N/A,N/A,N/A,N/A,Eastern Standard Time,83,34,49,63,18,61%,55%,39,58,85,48%,64%,33%,37.43,10.67,8.0,46.19%,36.59%,60.22%,96.2,60,8.3,27.4,88,432,3.2,43.3,NY-12496,43.3392914,-78.2118494
Chili,New York,28742,728,Rochester,1088373,N/A,N/A,N/A,$230000,1484,$155,N/A,N/A,N/A,N/A,N/A,N/A,N/A,N/A,N/A,Monroe County,54.20%,39.30%,N/A,N/A,N/A,N/A,N/A,Eastern Standard Time,83,34,49,63,20,61%,55%,39,58,85,48%,64%,33%,35.76,10.48,7.88,46.19%,36.59%,60.22%,96.2,60,8.3,27.4,78,489,3.4,39.48,NY-15462,43.0845231,-77.754136
Churchville,New York,2077,1745,Rochester,1088373,$69857,43.62%,48,$193000,1270,$152,43,81.72%,$1073,43.11%,N/A,N/A,4.81%,5.56%,66.05%,Monroe County,54.20%,39.30%,1.25%,1.4%,92.78%,2.07%,2.55%,Eastern Standard Time,81,34,47,63,19,61%,55%,39,58,82,48%,64%,33%,34.09,10.46,6.41,46.19%,36.59%,60.22%,96.2,60,8.3,27.4,85,354,3.4,1.19,NY-15638,43.1034468,-77.8824946
Clarendon,New York,3562,101,Rochester,1088373,N/A,N/A,N/A,$263000,1826,$144,N/A,N/A,N/A,N/A,N/A,N/A,N/A,N/A,N/A,Orleans County,27.30%,66.80%,N/A,N/A,N/A,N/A,N/A,Eastern Standard Time,81,34,47,63,19,61%,55%,39,58,82,48%,64%,33%,35.39,10.72,7.39,46.19%,36.59%,60.22%,96.2,60,8.3,27.4,88,456,3.2,35.27,NY-15880,43.1744064,-78.0563378
Clarkson,New York,4800,527,Rochester,1088373,$64645,41.36%,42,$226000,1537,$147,30,77.12%,$928,49.99%,N/A,N/A,12.32%,1.46%,56.28%,Monroe County,54.20%,39.30%,2.56%,3.31%,74.4%,19.73%,8.35%,Eastern Standard Time,81,34,47,63,19,61%,55%,39,58,82,48%,64%,33%,34.09,10.46,6.41,46.19%,36.59%,60.22%,96.2,60,8.3,27.4,86,354,3.4,9.11,NY-15946,43.2398182,-77.9161981
Clifton Springs,New York,1954,1320,Rochester,1088373,$57266,22.66%,43,$266000,1090,$244,N/A,76.49%,$653,49.21%,N/A,N/A,11.33%,5.1%,57.01%,Ontario County,42.30%,49.60%,0.2%,1.18%,88.28%,9.37%,0.97%,Eastern Standard Time,80,31,49,61,17,61%,55%,39,58,81,48%,64%,33%,40.61,12.24,9.3,44.16%,43.96%,45.44%,48.3,32,8.3,27.4,86,393,3.3,1.48,NY-16375,42.9608317,-77.1347886
Clyde,New York,2033,924,Rochester,1088373,$53125,16.94%,43,$55000,2895,$19,76,77.28%,$586,52.93%,154,1187,13.48%,12.14%,60.46%,Wayne County,33.90%,58.90%,0.0%,4.28%,90.9%,2.51%,0.79%,Eastern Standard Time,80,32,48,59,16,60%,55%,38,58,81,44%,57%,32%,39.41,12.17,8.07,44.16%,43.96%,45.44%,48.3,32,8.3,26.8,77,360,3.3,2.2,NY-16573,43.083946,-76.8707148
Conesus,New York,171,161,Rochester,1088373,$78250,41.38%,55,$252000,720,$350,70,82.28%,N/A,46.06%,N/A,N/A,7.02%,5.32%,59.49%,Livingston County,35.60%,57.60%,0.0%,0.0%,100.0%,0.0%,0.0%,Eastern Standard Time,81,34,47,61,17,61%,55%,39,58,82,48%,64%,33%,39.21,13.54,7.04,48.16%,43.3%,56.11%,49.4,25,8.3,27.4,90,825,3.2,1.06,NY-17607,42.7263329,-77.6696766
Conesus Hamlet,New York,450,425,Rochester,1088373,N/A,N/A,N/A,N/A,N/A,N/A,N/A,N/A,N/A,N/A,N/A,N/A,N/A,N/A,N/A,Livingston County,35.60%,57.60%,N/A,N/A,N/A,N/A,N/A,Eastern Standard Time,N/A,N/A,N/A,N/A,N/A,N/A,N/A,N/A,N/A,N/A,N/A,N/A,N/A,N/A,N/A,N/A,N/A,N/A,N/A,N/A,N/A,N/A,N/A,90,N/A,3.2,1.06,N/A,N/A,N/A
Conesus Lake,New York,2028,465,Rochester,1088373,$87083,39.22%,59,$359000,1260,$285,56,93.44%,$1250,30.53%,N/A,N/A,3.35%,5.06%,55.69%,Livingston County,35.60%,57.60%,0.0%,0.0%,87.03%,4.73%,6.16%,Eastern Standard Time,81,34,47,61,17,61%,55%,39,58,82,48%,64%,33%,39.21,13.54,7.04,48.16%,43.3%,56.11%,49.4,25,8.3,27.4,88,825,3.2,4.36,NY-17622,42.7756477,-77.7135072
Crystal Beach,New York,804,1182,Rochester,1088373,$54722,23.35%,55,$485000,919,$528,65,96.79%,$910,49.74%,N/A,N/A,2.49%,7.25%,59.87%,Ontario County,42.30%,49.60%,8.96%,0.12%,88.18%,1.37%,9.95%,Eastern Standard Time,82,34,48,63,19,61%,55%,39,58,83,48%,64%,33%,36.68,11.99,6.73,44.25%,39.34%,49.89%,48.3,32,8.3,27.4,90,660,3.3,0.68,NY-19308,42.8095452,-77.2581529
Cumminsville,New York,107,823,Rochester,1088373,N/A,0.0%,72,N/A,N/A,N/A,36,64.71%,$824,54.21%,N/A,N/A,25.23%,0.0%,14.95%,Livingston County,35.60%,57.60%,0.0%,0.0%,100.0%,0.0%,0.0%,Eastern Standard Time,84,35,49,61,19,61%,55%,39,58,86,48%,64%,33%,29.03,10.3,4.35,41.42%,43.19%,37.22%,34.3,14,8.3,27.4,90,627,3.2,0.13,NY-19411,42.5705392,-77.7189357
Cuylerville,New York,250,595,Rochester,1088373,$82083,33.51%,38,N/A,N/A,N/A,N/A,80.73%,$844,49.24%,N/A,N/A,6.0%,0.0%,70.16%,Livingston County,35.60%,57.60%,0.0%,0.0%,100.0%,0.0%,1.2%,Eastern Standard Time,81,32,49,61,16,61%,55%,39,58,82,48%,64%,33%,35.73,12.54,6.13,40.9%,38.24%,45.33%,45.5,24,8.3,27.4,89,804,3.2,0.42,NY-19510,42.7776923,-77.8737577
Dalton,New York,406,534,Rochester,1088373,$63791,37.54%,37,$150000,1724,$87,70,90.58%,N/A,48.58%,N/A,N/A,6.9%,15.84%,63.92%,Livingston County,35.60%,57.60%,0.0%,0.0%,89.41%,0.0%,0.0%,Eastern Standard Time,84,35,49,61,17,61%,55%,39,58,86,48%,64%,33%,32.17,10.92,5.43,40.3%,39.01%,42.78%,34.3,14,8.3,27.4,91,603,3.2,0.76,NY-19587,42.5422275,-77.9519377
Dundee,New York,2140,1945,Rochester,1088373,$42019,12.7%,34,$133000,1583,$84,69,65.58%,$653,52.54%,N/A,N/A,23.03%,2.29%,61.19%,Yates County,36.40%,56.20%,0.14%,0.65%,95.93%,1.12%,0.19%,Eastern Standard Time,82,34,48,62,18,61%,55%,39,58,83,48%,64%,33%,29.15,8.99,4.7,36.49%,40.22%,31.33%,48.3,32,8.3,27.4,88,825,3.4,1.1,NY-21050,42.5236125,-76.977422
East Avon,New York,464,354,Rochester,1088373,N/A,10.41%,33,N/A,N/A,N/A,13,75.41%,$880,30.11%,N/A,N/A,6.9%,0.0%,71.75%,Livingston County,35.60%,57.60%,0.0%,0.0%,100.0%,0.0%,0.0%,Eastern Standard Time,82,33,49,60,17,61%,55%,39,58,83,48%,64%,33%,35.12,11.87,6.12,40.9%,38.24%,45.33%,45.5,24,8.3,27.4,87,498,3.2,1.31,NY-21600,42.9127856,-77.707306
East Bloomfield,New York,3602,109,Rochester,1088373,N/A,N/A,N/A,$190000,2676,$71,N/A,N/A,N/A,N/A,N/A,N/A,N/A,N/A,N/A,Ontario County,42.30%,49.60%,N/A,N/A,N/A,N/A,N/A,Eastern Standard Time,82,36,46,61,17,61%,55%,39,58,83,48%,64%,33%,37.82,12.62,6.83,44.25%,39.34%,49.89%,49.4,25,8.3,27.4,88,906,3.3,33.05,NY-21699,42.899488,-77.4235666
East Rochester,New York,6348,4809,Rochester,1088373,$60260,33.67%,40,$192000,1263,$152,74,62.23%,$958,56.76%,91,1057,9.07%,5.46%,69.67%,Monroe County,54.20%,39.30%,1.04%,3.56%,87.81%,5.01%,3.95%,Eastern Standard Time,82,36,46,61,17,61%,55%,39,58,83,48%,64%,33%,40.26,12.15,9.02,46.19%,36.59%,60.22%,96.2,60,8.3,27.4,60,537,3.4,1.32,NY-22865,43.1121572,-77.4868686
Fairport,New York,5452,3451,Rochester,1088373,$79637,61.53%,48,$265000,1402,$189,67,73.2%,$978,44.01%,37,449,11.79%,4.57%,60.47%,Monroe County,54.20%,39.30%,0.11%,0.09%,94.59%,2.42%,4.18%,Eastern Standard Time,82,36,46,61,17,61%,55%,39,58,83,48%,64%,33%,37.31,12.28,6.64,48.38%,37.91%,61.67%,85.9,57,8.3,27.4,69,537,3.4,1.58,NY-25076,43.0988357,-77.4425956
Farmington,New York,12891,327,Rochester,1088373,N/A,N/A,N/A,N/A,N/A,N/A,N/A,N/A,N/A,N/A,N/A,N/A,N/A,N/A,N/A,Ontario County,42.30%,49.60%,N/A,N/A,N/A,N/A,N/A,Eastern Standard Time,82,36,46,61,17,61%,55%,39,58,83,48%,64%,33%,37.31,12.28,6.64,44.25%,39.34%,49.89%,48.3,32,8.3,27.4,85,426,3.3,39.42,NY-25406,42.9894602,-77.3086788
Fowlerville,New York,269,299,Rochester,1088373,$96103,25.0%,29,N/A,N/A,N/A,N/A,100.0%,N/A,33.89%,N/A,N/A,0.0%,0.0%,74.34%,Livingston County,35.60%,57.60%,0.0%,0.0%,98.88%,1.12%,0.0%,Eastern Standard Time,82,33,49,60,17,61%,55%,39,58,83,48%,64%,33%,35.12,11.87,6.12,40.9%,38.24%,45.33%,45.5,24,8.3,27.4,88,498,3.2,0.9,NY-27133,42.8939575,-77.8480567
Gaines,New York,3258,95,Rochester,1088373,N/A,N/A,N/A,$60000,1500,$40,N/A,N/A,N/A,N/A,N/A,N/A,N/A,N/A,N/A,Orleans County,27.30%,66.80%,N/A,N/A,N/A,N/A,N/A,Eastern Standard Time,83,34,49,63,18,61%,55%,39,58,85,48%,64%,33%,37.43,10.67,8.0,46.19%,36.59%,60.22%,96.2,60,8.3,27.4,86,432,3.2,34.29,NY-27958,43.2792355,-78.20666
Galen,New York,4176,70,Rochester,1088373,N/A,N/A,N/A,$55000,2200,$25,N/A,N/A,N/A,N/A,N/A,N/A,N/A,N/A,N/A,Wayne County,33.90%,58.90%,N/A,N/A,N/A,N/A,N/A,Eastern Standard Time,80,32,48,59,16,60%,55%,38,58,81,44%,57%,32%,39.41,12.17,8.07,44.16%,43.96%,45.44%,48.3,32,8.3,26.8,82,360,3.3,59.66,NY-28013,43.0704699,-76.8847253
Gates,New York,5220,2636,Rochester,1088373,$69157,19.17%,43,$169000,1142,$148,55,82.83%,$1530,48.45%,193,2735,10.73%,3.05%,70.23%,Monroe County,54.20%,39.30%,0.46%,1.36%,92.3%,5.75%,8.51%,Eastern Standard Time,83,34,49,63,20,61%,55%,39,58,85,48%,64%,33%,35.76,10.48,7.88,46.19%,36.59%,60.22%,96.2,60,8.3,27.4,70,489,3.4,1.98,NY-28453,43.1569314,-77.6930082
Geneseo,New York,8140,2856,Rochester,1088373,$34223,49.08%,21,$218000,1677,$130,47,33.45%,$840,80.62%,36,1017,40.54%,7.31%,42.92%,Livingston County,35.60%,57.60%,1.79%,3.88%,87.32%,4.88%,9.57%,Eastern Standard Time,81,32,49,61,16,61%,55%,39,58,82,48%,64%,33%,35.73,12.54,6.13,40.9%,38.24%,45.33%,45.5,24,8.3,27.4,86,804,3.2,2.85,NY-28618,42.7990201,-77.8095477
Geneva,New York,13048,3099,Rochester,1088373,N/A,N/A,N/A,$192000,2400,$80,N/A,N/A,N/A,N/A,157,1841,N/A,N/A,N/A,Ontario County,42.30%,49.60%,N/A,N/A,N/A,N/A,N/A,Eastern Standard Time,80,31,49,61,17,61%,55%,39,58,81,48%,64%,33%,35.61,11.59,6.24,44.16%,43.96%,45.44%,48.3,32,8.3,27.4,75,657,3.3,4.21,NY-28651,42.8310857,-76.9995999
Geneva town,New York,3260,774,Rochester,1088373,N/A,N/A,N/A,$192000,2400,$80,N/A,N/A,N/A,N/A,157,1841,N/A,N/A,N/A,Ontario County,42.30%,49.60%,N/A,N/A,N/A,N/A,N/A,Eastern Standard Time,80,31,49,61,17,61%,55%,39,58,81,48%,64%,33%,35.61,11.59,6.24,44.16%,43.96%,45.44%,48.3,32,8.3,27.4,86,657,3.3,4.21,NY-28651,42.8310857,-76.9995999
Gorham,New York,587,292,Rochester,1088373,$82083,18.31%,41,N/A,N/A,N/A,N/A,79.66%,N/A,40.04%,N/A,N/A,18.57%,3.24%,69.13%,Ontario County,42.30%,49.60%,0.0%,0.0%,97.44%,0.0%,0.0%,Eastern Standard Time,80,31,49,61,17,61%,55%,39,58,81,48%,64%,33%,35.52,11.96,6.45,44.16%,43.96%,45.44%,48.3,32,8.3,27.4,90,996,3.3,2.01,NY-29520,42.8002599,-77.1357778
Greece,New York,14628,3347,Rochester,1088373,$68821,26.91%,45,$220000,1630,$135,53,76.41%,$876,55.68%,174,1928,7.14%,3.48%,65.24%,Monroe County,54.20%,39.30%,1.38%,5.52%,77.56%,12.11%,9.39%,Eastern Standard Time,83,34,49,63,20,61%,55%,39,58,85,48%,64%,33%,35.76,10.48,7.88,46.19%,36.59%,60.22%,96.2,60,8.3,27.4,76,489,3.4,4.37,NY-30279,43.2095167,-77.7026413
Greece CDP,New York,14628,3347,Rochester,1088373,$68821,26.91%,45,$220000,1630,$135,53,76.41%,$876,55.68%,174,1928,7.14%,3.48%,65.24%,Monroe County,54.20%,39.30%,1.38%,5.52%,77.56%,12.11%,9.39%,Eastern Standard Time,83,34,49,63,20,61%,55%,39,58,85,48%,64%,33%,35.76,10.48,7.88,46.19%,36.59%,60.22%,96.2,60,8.3,27.4,74,489,3.4,4.37,NY-30279,43.2095167,-77.7026413
Greigsville,New York,186,262,Rochester,1088373,$51429,24.55%,48,N/A,N/A,N/A,63,93.75%,N/A,68.32%,N/A,N/A,11.29%,0.0%,42.24%,Livingston County,35.60%,57.60%,0.0%,0.0%,100.0%,0.0%,0.0%,Eastern Standard Time,81,32,49,61,16,61%,55%,39,58,82,48%,64%,33%,36.5,12.69,6.97,40.9%,38.24%,45.33%,45.5,24,8.3,27.4,88,1062,3.2,0.71,NY-30807,42.8307185,-77.9014285
Groveland,New York,3344,85,Rochester,1088373,N/A,N/A,N/A,$129000,725,$178,N/A,N/A,N/A,N/A,N/A,N/A,N/A,N/A,N/A,Livingston County,35.60%,57.60%,N/A,N/A,N/A,N/A,N/A,Eastern Standard Time,81,32,49,61,16,61%,55%,39,58,82,48%,64%,33%,35.73,12.54,6.13,48.16%,43.3%,56.11%,34.3,14,8.3,27.4,90,804,3.2,39.34,NY-31016,42.7067098,-77.7793408
Groveland Station,New York,403,683,Rochester,1088373,$79554,29.77%,35,N/A,N/A,N/A,N/A,90.88%,N/A,44.92%,N/A,N/A,2.73%,5.33%,64.66%,Livingston County,35.60%,57.60%,0.0%,0.0%,98.01%,1.99%,0.0%,Eastern Standard Time,84,35,49,61,19,61%,55%,39,58,86,48%,64%,33%,29.03,10.3,4.35,41.42%,43.19%,37.22%,34.3,14,8.3,27.4,89,627,3.2,0.59,NY-31022,42.6633791,-77.7666708
Hall,New York,287,281,Rochester,1088373,$56250,5.63%,36,N/A,N/A,N/A,N/A,100.0%,N/A,61.97%,N/A,N/A,7.32%,5.37%,87.61%,Ontario County,42.30%,49.60%,0.0%,0.0%,98.26%,0.0%,0.0%,Eastern Standard Time,80,31,49,61,17,61%,55%,39,58,81,48%,64%,33%,35.52,11.96,6.45,44.16%,43.96%,45.44%,48.3,32,8.3,27.4,89,996,3.3,1.02,NY-31533,42.7965059,-77.0679634
Hamlin,New York,5299,690,Rochester,1088373,$55719,23.87%,35,$225000,1552,$145,41,92.0%,$813,47.8%,N/A,N/A,11.28%,4.62%,59.81%,Monroe County,54.20%,39.30%,0.08%,0.6%,95.6%,1.13%,1.59%,Eastern Standard Time,81,34,47,63,19,61%,55%,39,58,82,48%,64%,33%,34.09,10.46,6.41,46.19%,36.59%,60.22%,96.2,60,8.3,27.4,86,354,3.4,7.68,NY-31786,43.3022947,-77.921682
Hemlock,New York,640,344,Rochester,1088373,$78456,22.05%,57,N/A,N/A,N/A,N/A,100.0%,N/A,23.02%,N/A,N/A,0.0%,4.6%,56.01%,Livingston County,35.60%,57.60%,0.0%,0.0%,100.0%,0.0%,0.0%,Eastern Standard Time,81,34,47,61,17,61%,55%,39,58,82,48%,64%,33%,39.21,13.54,7.04,48.16%,43.3%,56.11%,49.4,25,8.3,27.4,88,825,3.2,1.86,NY-33128,42.7937893,-77.60744
Henrietta,New York,43609,1234,Rochester,1088373,N/A,N/A,N/A,$235000,1516,$155,N/A,N/A,N/A,N/A,N/A,N/A,N/A,N/A,N/A,Monroe County,54.20%,39.30%,N/A,N/A,N/A,N/A,N/A,Eastern Standard Time,83,34,49,63,20,61%,55%,39,58,85,48%,64%,33%,35.76,10.48,7.88,46.19%,36.59%,60.22%,96.2,60,8.3,27.4,75,489,3.4,35.34,NY-34099,43.0555403,-77.6413363
Hilton,New York,6015,3360,Rochester,1088373,$69289,30.69%,38,$272000,1629,$167,42,66.51%,$1026,47.97%,N/A,N/A,9.6%,11.81%,63.15%,Monroe County,54.20%,39.30%,0.0%,3.11%,91.87%,3.64%,0.75%,Eastern Standard Time,81,34,47,63,19,61%,55%,39,58,82,48%,64%,33%,34.09,10.46,6.41,46.19%,36.59%,60.22%,96.2,60,8.3,27.4,83,354,3.4,1.79,NY-34847,43.289972,-77.7925585
Holley,New York,1960,1543,Rochester,1088373,$53889,20.17%,35,$159000,2149,$74,N/A,69.7%,$667,49.48%,59,536,11.06%,4.25%,76.54%,Orleans County,27.30%,66.80%,0.82%,5.46%,75.46%,17.3%,5.2%,Eastern Standard Time,81,34,47,63,19,61%,55%,39,58,82,48%,64%,33%,35.39,10.72,7.39,46.19%,36.59%,60.22%,96.2,60,8.3,27.4,88,456,3.2,1.27,NY-35155,43.2246567,-78.0291936
Honeoye,New York,638,510,Rochester,1088373,$65225,14.96%,56,$54000,1080,$50,40,53.65%,$1028,58.73%,N/A,N/A,0.0%,0.0%,73.17%,Ontario County,42.30%,49.60%,0.0%,25.39%,74.61%,0.0%,19.75%,Eastern Standard Time,81,34,47,59,17,61%,55%,39,58,82,48%,64%,33%,39.58,13.87,7.35,44.82%,40.11%,50.89%,49.4,25,8.3,27.4,91,732,3.3,1.25,NY-35353,42.7885815,-77.5124694
Honeoye Falls,New York,2779,1094,Rochester,1088373,$77104,54.59%,42,$340000,1619,$210,61,66.64%,$943,51.87%,N/A,N/A,9.56%,8.92%,65.58%,Monroe County,54.20%,39.30%,0.68%,0.83%,95.11%,0.07%,0.97%,Eastern Standard Time,82,36,46,61,17,61%,55%,39,58,83,48%,64%,33%,37.82,12.62,6.83,40.9%,38.24%,45.33%,45.5,24,8.3,27.4,85,906,3.4,2.54,NY-35364,42.9557215,-77.5902293
Hopewell,New York,3736,105,Rochester,1088373,N/A,N/A,N/A,N/A,N/A,N/A,N/A,N/A,N/A,N/A,N/A,N/A,N/A,N/A,N/A,Ontario County,42.30%,49.60%,N/A,N/A,N/A,N/A,N/A,Eastern Standard Time,82,34,48,63,19,61%,55%,39,58,83,48%,64%,33%,36.68,11.99,6.73,44.25%,39.34%,49.89%,48.3,32,8.3,27.4,87,660,3.3,35.58,NY-35551,42.90018,-77.1885073
Hunt,New York,51,425,Rochester,1088373,$23750,25.58%,57,N/A,N/A,N/A,75,100.0%,N/A,51.16%,N/A,N/A,19.15%,0.0%,34.88%,Livingston County,35.60%,57.60%,0.0%,0.0%,100.0%,0.0%,0.0%,Eastern Standard Time,81,32,49,61,16,61%,55%,39,58,82,48%,64%,33%,38.87,12.61,7.38,40.3%,39.01%,42.78%,34.3,14,8.3,27.4,91,1524,3.2,0.12,NY-36156,42.5475663,-77.9912036
Huron,New York,2257,57,Rochester,1088373,N/A,N/A,N/A,$127000,962,$132,N/A,N/A,N/A,N/A,N/A,N/A,N/A,N/A,N/A,Wayne County,33.90%,58.90%,N/A,N/A,N/A,N/A,N/A,Eastern Standard Time,80,32,48,59,16,61%,55%,39,58,81,48%,64%,33%,39.65,11.6,8.57,46.38%,37.58%,61.11%,128.7,56,8.3,27.4,88,405,3.3,39.6,NY-37165,43.2438037,-76.8928488
Irondequoit,New York,51054,3401,Rochester,1088373,$68969,37.74%,46,$187000,1299,$144,66,82.05%,$982,48.97%,N/A,N/A,8.48%,4.94%,64.81%,Monroe County,54.20%,39.30%,2.04%,7.39%,78.12%,10.02%,6.17%,Eastern Standard Time,83,34,49,63,20,61%,55%,39,58,85,48%,64%,33%,35.76,10.48,7.88,46.19%,36.59%,60.22%,96.2,60,8.3,27.4,72,489,3.4,15.01,NY-37737,43.2103874,-77.5706949
Italy,New York,1036,26,Rochester,1088373,N/A,N/A,N/A,N/A,N/A,N/A,N/A,N/A,N/A,N/A,N/A,N/A,N/A,N/A,N/A,Yates County,36.40%,56.20%,N/A,N/A,N/A,N/A,N/A,Eastern Standard Time,82,34,48,62,18,61%,55%,39,58,83,48%,64%,33%,35.57,11.12,6.68,36.49%,40.22%,31.33%,49.4,25,8.3,27.4,91,861,3.4,39.85,NY-38044,42.6225564,-77.3049893
Jerusalem,New York,4455,76,Rochester,1088373,N/A,N/A,N/A,$195000,1893,$103,N/A,N/A,N/A,N/A,N/A,N/A,N/A,N/A,N/A,Yates County,36.40%,56.20%,N/A,N/A,N/A,N/A,N/A,Eastern Standard Time,82,34,48,62,18,61%,55%,39,58,83,48%,64%,33%,29.15,8.99,4.7,36.49%,40.22%,31.33%,48.3,32,8.3,27.4,89,825,3.4,58.62,NY-38583,42.6090306,-77.1548114
Kendall,New York,2659,81,Rochester,1088373,N/A,N/A,N/A,N/A,N/A,N/A,N/A,N/A,N/A,N/A,N/A,N/A,N/A,N/A,N/A,Orleans County,27.30%,66.80%,N/A,N/A,N/A,N/A,N/A,Eastern Standard Time,83,34,49,63,18,61%,55%,39,58,85,48%,64%,33%,37.43,10.67,8.0,46.19%,36.59%,60.22%,96.2,60,8.3,27.4,88,432,3.2,32.83,NY-39188,43.3311777,-78.0545996
Keuka Park,New York,1153,1389,Rochester,1088373,$69583,73.31%,20,N/A,N/A,N/A,64,67.81%,$887,81.64%,N/A,N/A,3.13%,5.37%,51.57%,Yates County,36.40%,56.20%,0.0%,1.65%,96.79%,0.78%,2.34%,Eastern Standard Time,82,34,48,62,18,61%,55%,39,58,83,48%,64%,33%,29.15,8.99,4.7,36.49%,40.22%,31.33%,48.3,32,8.3,27.4,89,825,3.4,0.83,NY-39463,42.6130771,-77.0921763
Kysorville,New York,58,71,Rochester,1088373,$66667,15.91%,59,N/A,N/A,N/A,30,100.0%,N/A,44.83%,N/A,N/A,12.07%,0.0%,36.21%,Livingston County,35.60%,57.60%,0.0%,0.0%,100.0%,0.0%,0.0%,Eastern Standard Time,84,35,49,61,19,61%,55%,39,58,86,48%,64%,33%,29.03,10.3,4.35,41.42%,43.19%,37.22%,34.3,14,8.3,27.4,90,627,3.2,0.82,NY-40175,42.6528451,-77.7948817
Lakeville,New York,773,1154,Rochester,1088373,N/A,25.1%,43,$25000,1042,$24,51,78.16%,$843,55.89%,N/A,N/A,15.39%,40.68%,83.31%,Livingston County,35.60%,57.60%,0.0%,7.63%,90.56%,0.52%,0.0%,Eastern Standard Time,82,33,49,60,17,61%,55%,39,58,83,48%,64%,33%,35.12,11.87,6.12,40.9%,38.24%,45.33%,45.5,24,8.3,27.4,88,498,3.2,0.67,NY-41036,42.8367611,-77.7031544
Leicester,New York,520,1444,Rochester,1088373,$85000,22.73%,36,N/A,N/A,N/A,53,78.81%,$913,44.58%,N/A,N/A,10.25%,5.02%,71.72%,Livingston County,35.60%,57.60%,1.73%,0.38%,90.0%,1.15%,2.5%,Eastern Standard Time,81,32,49,61,16,61%,55%,39,58,82,48%,64%,33%,35.73,12.54,6.13,40.9%,38.24%,45.33%,45.5,24,8.3,27.4,89,804,3.2,0.36,NY-41872,42.7709393,-77.8969041
Lima,New York,2257,1672,Rochester,1088373,$60563,35.01%,34,N/A,N/A,N/A,42,75.39%,$685,54.38%,N/A,N/A,8.26%,2.23%,64.83%,Livingston County,35.60%,57.60%,1.91%,1.24%,85.69%,6.82%,4.92%,Eastern Standard Time,82,33,49,60,17,61%,55%,39,58,83,48%,64%,33%,37.82,12.62,6.83,40.9%,38.24%,45.33%,45.5,24,8.3,27.4,88,906,3.2,1.35,NY-42323,42.9069459,-77.6122652
Linwood,New York,14,15,Rochester,1088373,N/A,0.0%,N/A,N/A,N/A,N/A,N/A,31.67%,N/A,0.0%,N/A,N/A,0.0%,0.0%,100.0%,Livingston County,35.60%,57.60%,0.0%,0.0%,100.0%,0.0%,0.0%,Eastern Standard Time,82,33,49,60,17,61%,55%,39,58,83,48%,64%,33%,36.5,12.69,6.97,40.9%,38.24%,45.33%,45.5,24,8.3,27.4,88,1062,3.2,0.93,NY-42609,42.8967051,-77.9476017
Livonia,New York,1480,1465,Rochester,1088373,$62224,28.12%,35,$260000,1520,$171,48,77.04%,$825,48.97%,N/A,N/A,4.32%,1.84%,66.81%,Livingston County,35.60%,57.60%,4.59%,0.0%,89.8%,2.97%,5.68%,Eastern Standard Time,81,34,47,61,17,61%,55%,39,58,82,48%,64%,33%,39.21,13.54,7.04,48.16%,43.3%,56.11%,45.5,24,8.3,27.4,88,825,3.2,1.01,NY-42950,42.8219297,-77.6688
Livonia Center,New York,271,330,Rochester,1088373,$55000,27.7%,55,$30000,1034,$29,17,100.0%,N/A,35.17%,N/A,N/A,17.31%,9.88%,72.88%,Livingston County,35.60%,57.60%,0.0%,1.48%,98.52%,0.0%,0.0%,Eastern Standard Time,81,34,47,61,17,61%,55%,39,58,82,48%,64%,33%,39.21,13.54,7.04,48.16%,43.3%,56.11%,49.4,25,8.3,27.4,88,825,3.2,0.82,NY-42972,42.8210601,-77.642011
Lyndonville,New York,774,759,Rochester,1088373,$49342,18.43%,38,$109000,1652,$66,N/A,73.16%,$678,53.36%,N/A,N/A,9.2%,6.48%,61.42%,Orleans County,27.30%,66.80%,0.0%,0.52%,92.64%,3.23%,1.55%,Eastern Standard Time,83,34,49,63,18,62%,56%,38,57,85,47%,64%,30%,39.2,10.87,8.54,49.78%,42.2%,59.78%,74.2,52,8.3,31.8,88,504,3.2,1.02,NY-43918,43.3213455,-78.3888693
Lyons,New York,3492,757,Rochester,1088373,$55583,13.19%,42,$101000,1365,$74,N/A,71.56%,$834,49.12%,N/A,N/A,24.42%,13.8%,65.14%,Wayne County,33.90%,58.90%,0.0%,9.25%,75.23%,9.31%,0.86%,Eastern Standard Time,80,32,48,59,16,61%,55%,39,58,81,48%,64%,33%,40.61,12.24,9.3,44.16%,43.96%,45.44%,48.3,32,8.3,27.4,84,393,3.3,4.61,NY-43962,43.0632987,-76.9911389
Macedon,New York,1858,852,Rochester,1088373,$60000,37.49%,47,N/A,N/A,N/A,34,78.88%,$770,49.03%,56,811,8.67%,1.78%,54.6%,Wayne County,33.90%,58.90%,2.15%,2.05%,88.16%,5.92%,3.34%,Eastern Standard Time,82,36,46,61,17,61%,55%,39,58,83,48%,64%,33%,37.31,12.28,6.64,48.38%,37.91%,61.67%,85.9,57,8.3,27.4,84,426,3.3,2.18,NY-44149,43.0653136,-77.3001295
Manchester,New York,1507,1322,Rochester,1088373,$56833,24.07%,39,$50000,962,$52,63,69.05%,$1019,51.7%,0,0,8.82%,5.22%,65.82%,Ontario County,42.30%,49.60%,2.06%,0.8%,93.83%,1.79%,2.65%,Eastern Standard Time,82,34,48,63,19,61%,55%,39,58,83,48%,64%,33%,39.64,12.74,8.66,44.25%,39.34%,49.89%,48.3,32,8.3,27.4,85,456,3.3,1.14,NY-44853,42.968114,-77.2316368
Marion,New York,1210,397,Rochester,1088373,$43902,19.77%,55,N/A,N/A,N/A,59,74.11%,$441,57.97%,N/A,N/A,16.28%,1.98%,52.06%,Wayne County,33.90%,58.90%,0.0%,0.0%,97.93%,2.07%,1.24%,Eastern Standard Time,80,32,48,59,16,61%,55%,39,58,81,48%,64%,33%,39.64,12.74,8.66,48.38%,37.91%,61.67%,85.9,57,8.3,27.4,86,456,3.3,3.05,NY-45634,43.1408563,-77.1951362
Medina,New York,5941,1800,Rochester,1088373,$46433,20.21%,36,$135000,1350,$100,N/A,63.38%,$825,53.55%,213,1598,17.31%,6.37%,57.13%,Orleans County,27.30%,66.80%,1.43%,2.31%,85.17%,7.1%,1.83%,Eastern Standard Time,83,34,49,63,18,62%,56%,38,57,85,47%,64%,30%,39.2,10.87,8.54,45.15%,35.71%,59.0%,87.6,53,8.3,31.8,80,504,3.2,3.3,NY-46415,43.2196617,-78.3888061
Mendon,New York,9250,234,Rochester,1088373,N/A,N/A,N/A,$369000,1757,$210,N/A,N/A,N/A,N/A,N/A,N/A,N/A,N/A,N/A,Monroe County,54.20%,39.30%,N/A,N/A,N/A,N/A,N/A,Eastern Standard Time,82,36,46,61,17,61%,55%,39,58,83,48%,64%,33%,37.82,12.62,6.83,46.19%,36.59%,60.22%,96.2,60,8.3,27.4,85,537,3.4,39.53,NY-46558,42.9859075,-77.5479143
Middlesex,New York,1378,45,Rochester,1088373,N/A,N/A,N/A,N/A,N/A,N/A,N/A,N/A,N/A,N/A,N/A,N/A,N/A,N/A,N/A,Yates County,36.40%,56.20%,N/A,N/A,N/A,N/A,N/A,Eastern Standard Time,82,34,48,63,19,61%,55%,39,58,83,48%,64%,33%,35.57,11.12,6.68,44.25%,39.34%,49.89%,49.4,25,8.3,27.4,91,861,3.4,30.62,NY-47020,42.7133632,-77.2909008
Milo,New York,6900,180,Rochester,1088373,N/A,N/A,N/A,$179000,1226,$146,N/A,N/A,N/A,N/A,N/A,N/A,N/A,N/A,N/A,Yates County,36.40%,56.20%,N/A,N/A,N/A,N/A,N/A,Eastern Standard Time,82,34,48,62,18,61%,55%,39,58,83,48%,64%,33%,29.15,8.99,4.7,36.49%,40.22%,31.33%,48.3,32,8.3,27.4,89,825,3.4,38.33,NY-47504,42.6150085,-77.0030777
Mount Morris,New York,3427,1672,Rochester,1088373,$55000,19.59%,39,N/A,N/A,N/A,76,70.77%,$769,51.51%,N/A,N/A,16.92%,5.84%,63.32%,Livingston County,35.60%,57.60%,0.0%,4.0%,79.08%,13.8%,2.36%,Eastern Standard Time,81,32,49,61,16,61%,55%,39,58,82,48%,64%,33%,35.73,12.54,6.13,41.42%,43.19%,37.22%,34.3,14,8.3,27.4,84,804,3.2,2.05,NY-48945,42.7236961,-77.8752073
Murray,New York,4784,154,Rochester,1088373,N/A,N/A,N/A,$177000,1595,$111,N/A,N/A,N/A,N/A,N/A,N/A,N/A,N/A,N/A,Orleans County,27.30%,66.80%,N/A,N/A,N/A,N/A,N/A,Eastern Standard Time,81,34,47,63,19,61%,55%,39,58,82,48%,64%,33%,35.39,10.72,7.39,46.19%,36.59%,60.22%,96.2,60,8.3,27.4,88,456,3.2,31.06,NY-49286,43.2547882,-78.0583891
Naples,New York,864,900,Rochester,1088373,$39125,23.29%,49,$74000,851,$87,N/A,68.34%,$690,62.42%,N/A,N/A,20.33%,0.0%,60.78%,Ontario County,42.30%,49.60%,5.09%,0.46%,89.35%,3.7%,2.2%,Eastern Standard Time,81,34,47,59,17,61%,55%,39,58,82,48%,64%,33%,35.57,11.12,6.68,44.82%,40.11%,50.89%,49.4,25,8.3,27.4,92,861,3.3,0.96,NY-49429,42.6174543,-77.4021209
North Dansville,New York,5375,545,Rochester,1088373,N/A,N/A,N/A,$114000,1727,$66,N/A,N/A,N/A,N/A,N/A,N/A,N/A,N/A,N/A,Livingston County,35.60%,57.60%,N/A,N/A,N/A,N/A,N/A,Eastern Standard Time,84,35,49,61,17,61%,55%,39,58,86,48%,64%,33%,32.17,10.92,5.43,40.3%,39.01%,42.78%,34.3,14,8.3,27.4,80,603,3.2,9.86,NY-51869,42.5583419,-77.6915054
North Gates,New York,9494,3569,Rochester,1088373,$64958,28.83%,45,$165000,1078,$153,52,69.42%,$859,48.29%,N/A,N/A,5.15%,3.38%,66.1%,Monroe County,54.20%,39.30%,4.91%,13.78%,72.89%,5.55%,14.97%,Eastern Standard Time,83,34,49,63,20,61%,55%,39,58,85,48%,64%,33%,35.76,10.48,7.88,46.19%,36.59%,60.22%,96.2,60,8.3,27.4,71,489,3.4,2.66,NY-52040,43.1717943,-77.7063478
North Rose,New York,628,372,Rochester,1088373,$53250,14.32%,52,$50000,980,$51,N/A,76.51%,N/A,60.96%,N/A,N/A,10.51%,7.69%,53.95%,Wayne County,33.90%,58.90%,0.0%,0.0%,98.09%,0.0%,1.91%,Eastern Standard Time,80,32,48,59,16,61%,55%,39,58,81,48%,64%,33%,39.41,12.17,8.07,44.16%,43.96%,45.44%,48.3,32,8.3,27.4,87,360,3.3,1.69,NY-53462,43.1872207,-76.8864012
Nunda,New York,1124,1147,Rochester,1088373,$39444,16.55%,40,$84000,1000,$84,N/A,55.0%,$602,57.66%,N/A,N/A,29.38%,4.88%,48.21%,Livingston County,35.60%,57.60%,0.0%,4.45%,88.97%,0.27%,0.0%,Eastern Standard Time,81,32,49,61,16,61%,55%,39,58,82,48%,64%,33%,35.73,12.54,6.13,40.3%,39.01%,42.78%,34.3,14,8.3,27.4,91,804,3.2,0.98,NY-54078,42.5799904,-77.937907
Ogden,New York,20194,554,Rochester,1088373,N/A,N/A,N/A,$283000,1780,$159,N/A,N/A,N/A,N/A,49,699,N/A,N/A,N/A,Monroe County,54.20%,39.30%,N/A,N/A,N/A,N/A,N/A,Eastern Standard Time,81,34,47,63,19,61%,55%,39,58,82,48%,64%,33%,34.09,10.46,6.41,46.19%,36.59%,60.22%,96.2,60,8.3,27.4,81,354,3.4,36.45,NY-54474,43.1645815,-77.8219785
Ontario,New York,1932,479,Rochester,1088373,$42438,25.99%,46,$317000,1651,$192,57,67.83%,$781,59.16%,N/A,N/A,2.07%,2.44%,64.4%,Wayne County,33.90%,58.90%,1.45%,2.74%,95.24%,0.21%,1.45%,Eastern Standard Time,82,35,47,62,18,61%,55%,39,58,83,48%,64%,33%,39.99,12.0,8.85,48.38%,37.91%,61.67%,85.9,57,8.3,27.4,86,252,3.3,4.03,NY-55002,43.2180358,-77.2806383
Ossian,New York,786,20,Rochester,1088373,N/A,N/A,N/A,$170000,1977,$86,N/A,N/A,N/A,N/A,N/A,N/A,N/A,N/A,N/A,Livingston County,35.60%,57.60%,N/A,N/A,N/A,N/A,N/A,Eastern Standard Time,84,35,49,61,17,61%,55%,39,58,86,48%,64%,33%,32.17,10.92,5.43,40.3%,39.01%,42.78%,34.3,14,8.3,27.4,90,603,3.2,39.3,NY-55508,42.5201264,-77.7809623
Palmyra,New York,3326,2464,Rochester,1088373,$65521,27.37%,40,$266000,2078,$128,78,62.37%,$806,54.68%,120,211,11.09%,3.09%,72.93%,Wayne County,33.90%,58.90%,0.0%,0.51%,93.69%,4.03%,1.35%,Eastern Standard Time,82,36,46,61,17,61%,55%,39,58,83,48%,64%,33%,39.64,12.74,8.66,48.38%,37.91%,61.67%,85.9,57,8.3,27.4,82,456,3.3,1.35,NY-56187,43.0608639,-77.2297191
Parma,New York,15800,376,Rochester,1088373,N/A,N/A,N/A,$400000,2210,$181,N/A,N/A,N/A,N/A,N/A,N/A,N/A,N/A,N/A,Monroe County,54.20%,39.30%,N/A,N/A,N/A,N/A,N/A,Eastern Standard Time,81,34,47,63,19,61%,55%,39,58,82,48%,64%,33%,34.09,10.46,6.41,46.19%,36.59%,60.22%,96.2,60,8.3,27.4,84,354,3.4,42.02,NY-56561,43.2667004,-77.7963567
Penfield,New York,37245,1001,Rochester,1088373,N/A,N/A,N/A,$284000,1527,$186,N/A,N/A,N/A,N/A,N/A,N/A,N/A,N/A,N/A,Monroe County,54.20%,39.30%,N/A,N/A,N/A,N/A,N/A,Eastern Standard Time,82,35,47,62,18,61%,55%,39,58,83,48%,64%,33%,39.99,12.0,8.85,48.38%,37.91%,61.67%,85.9,57,8.3,27.4,77,252,3.4,37.21,NY-57144,43.1602012,-77.4483181
Penn Yan,New York,5268,2195,Rochester,1088373,$41014,21.07%,47,$208000,1529,$136,N/A,60.72%,$665,63.59%,101,1038,15.59%,2.89%,56.11%,Yates County,36.40%,56.20%,1.96%,1.58%,89.43%,5.16%,3.36%,Eastern Standard Time,82,34,48,62,18,61%,55%,39,58,83,48%,64%,33%,29.15,8.99,4.7,36.49%,40.22%,31.33%,48.3,32,8.3,27.4,89,825,3.4,2.4,NY-57177,42.6607897,-77.0534572
Perinton,New York,46660,1365,Rochester,1088373,N/A,N/A,N/A,$363000,1862,$195,N/A,N/A,N/A,N/A,N/A,N/A,N/A,N/A,N/A,Monroe County,54.20%,39.30%,N/A,N/A,N/A,N/A,N/A,Eastern Standard Time,82,36,46,61,17,61%,55%,39,58,83,48%,64%,33%,37.31,12.28,6.64,48.38%,37.91%,61.67%,85.9,57,8.3,27.4,76,537,3.4,34.18,NY-57221,43.0780929,-77.4282796
Phelps,New York,2081,1794,Rochester,1088373,$58646,25.8%,38,$289000,1829,$158,N/A,81.78%,$777,53.48%,N/A,N/A,16.7%,8.87%,61.65%,Ontario County,42.30%,49.60%,0.0%,0.14%,88.66%,8.17%,0.38%,Eastern Standard Time,80,31,49,61,17,61%,55%,39,58,81,48%,64%,33%,35.61,11.59,6.24,44.16%,43.96%,45.44%,48.3,32,8.3,27.4,87,657,3.3,1.16,NY-57518,42.9580576,-77.0621209
Piffard,New York,276,297,Rochester,1088373,$44922,24.69%,63,$195000,1250,$156,N/A,81.95%,N/A,65.77%,N/A,N/A,0.0%,6.2%,49.62%,Livingston County,35.60%,57.60%,0.0%,0.0%,100.0%,0.0%,0.0%,Eastern Standard Time,81,32,49,61,16,61%,55%,39,58,82,48%,64%,33%,35.73,12.54,6.13,40.9%,38.24%,45.33%,45.5,24,8.3,27.4,88,804,3.2,0.93,NY-57804,42.831854,-77.8583968
Pittsford,New York,1617,2310,Rochester,1088373,$124375,78.25%,41,$654000,2973,$220,N/A,74.04%,$1309,32.93%,N/A,N/A,1.18%,2.12%,73.11%,Monroe County,54.20%,39.30%,1.67%,0.19%,83.98%,10.76%,3.77%,Eastern Standard Time,82,36,46,61,17,61%,55%,39,58,83,48%,64%,33%,35.76,10.48,7.88,46.19%,36.59%,60.22%,96.2,60,8.3,27.4,74,537,3.4,0.7,NY-58354,43.0900888,-77.5166156
Port Gibson,New York,609,491,Rochester,1088373,N/A,29.68%,67,N/A,N/A,N/A,71,86.81%,N/A,11.66%,N/A,N/A,1.64%,10.59%,38.75%,Ontario County,42.30%,49.60%,0.0%,0.0%,89.49%,0.0%,0.0%,Eastern Standard Time,80,31,49,61,17,61%,55%,39,58,81,48%,64%,33%,40.61,12.24,9.3,44.16%,43.96%,45.44%,48.3,32,8.3,27.4,85,393,3.3,1.24,NY-59322,43.0333713,-77.1568904
Portage,New York,825,31,Rochester,1088373,N/A,N/A,N/A,N/A,N/A,N/A,N/A,N/A,N/A,N/A,N/A,N/A,N/A,N/A,N/A,Livingston County,35.60%,57.60%,N/A,N/A,N/A,N/A,N/A,Eastern Standard Time,81,32,49,61,16,61%,55%,39,58,82,48%,64%,33%,38.87,12.61,7.38,40.3%,39.01%,42.78%,34.3,14,8.3,27.4,91,1524,3.2,26.61,NY-59179,42.5608394,-77.9979294
Pultneyville,New York,700,299,Rochester,1088373,$92950,39.86%,51,$385000,2550,$151,53,100.0%,N/A,29.07%,N/A,N/A,3.0%,2.54%,59.19%,Wayne County,33.90%,58.90%,0.0%,0.0%,100.0%,0.0%,0.0%,Eastern Standard Time,80,32,48,59,16,61%,55%,39,58,81,48%,64%,33%,39.65,11.6,8.57,48.38%,37.91%,61.67%,85.9,57,8.3,27.4,86,405,3.3,2.34,NY-59993,43.2738652,-77.1813199
Retsof,New York,126,280,Rochester,1088373,N/A,37.11%,42,N/A,N/A,N/A,36,100.0%,N/A,48.57%,N/A,N/A,6.35%,0.0%,49.52%,Livingston County,35.60%,57.60%,0.0%,0.0%,100.0%,0.0%,0.0%,Eastern Standard Time,81,32,49,61,16,61%,55%,39,58,82,48%,64%,33%,36.5,12.69,6.97,40.9%,38.24%,45.33%,45.5,24,8.3,27.4,88,1062,3.2,0.45,NY-61236,42.8324357,-77.8757479
Richmond,New York,3293,78,Rochester,1088373,N/A,N/A,N/A,$275000,1821,$151,N/A,N/A,N/A,N/A,N/A,N/A,N/A,N/A,N/A,Ontario County,42.30%,49.60%,N/A,N/A,N/A,N/A,N/A,Eastern Standard Time,81,34,47,59,17,61%,55%,39,58,82,48%,64%,33%,39.58,13.87,7.35,44.82%,40.11%,50.89%,49.4,25,8.3,27.4,91,732,3.3,42.22,NY-61544,42.7912156,-77.524555
Ridgeway,New York,6520,130,Rochester,1088373,N/A,N/A,N/A,$128000,1280,$100,N/A,N/A,N/A,N/A,N/A,N/A,N/A,N/A,N/A,Orleans County,27.30%,66.80%,N/A,N/A,N/A,N/A,N/A,Eastern Standard Time,83,34,49,63,18,62%,56%,38,57,85,47%,64%,30%,39.2,10.87,8.54,49.78%,42.2%,59.78%,74.2,52,8.3,31.8,84,504,3.2,50.15,NY-61742,43.2618762,-78.3805986
Rochester,New York,211100,5902,Rochester,1088373,$40083,28.79%,33,$270000,1144,$236,N/A,37.12%,$915,71.73%,748,3470,29.35%,8.87%,61.81%,Monroe County,54.20%,39.30%,3.48%,38.38%,37.14%,18.75%,9.71%,Eastern Standard Time,83,34,49,63,20,61%,55%,39,58,85,48%,64%,33%,35.76,10.48,7.88,46.19%,36.59%,60.22%,96.2,60,8.3,27.4,62,489,3.4,35.77,NY-63000,43.168875,-77.6159259
Rose,New York,2204,65,Rochester,1088373,N/A,N/A,N/A,$107000,2098,$51,N/A,N/A,N/A,N/A,N/A,N/A,N/A,N/A,N/A,Wayne County,33.90%,58.90%,N/A,N/A,N/A,N/A,N/A,Eastern Standard Time,80,32,48,59,16,61%,55%,39,58,81,48%,64%,33%,39.41,12.17,8.07,44.16%,43.96%,45.44%,48.3,32,8.3,27.4,87,360,3.3,33.91,NY-63605,43.1612539,-76.8953632
Rush,New York,3499,115,Rochester,1088373,N/A,N/A,N/A,$270000,1709,$158,N/A,N/A,N/A,N/A,N/A,N/A,N/A,N/A,N/A,Monroe County,54.20%,39.30%,N/A,N/A,N/A,N/A,N/A,Eastern Standard Time,82,33,49,60,17,61%,55%,39,58,83,48%,64%,33%,35.12,11.87,6.12,40.9%,38.24%,45.33%,45.5,24,8.3,27.4,85,498,3.4,30.43,NY-64144,42.9805598,-77.6722145
Rushville,New York,581,854,Rochester,1088373,$50227,14.29%,41,N/A,N/A,N/A,N/A,84.77%,$669,58.69%,N/A,N/A,5.16%,4.4%,58.96%,Yates County,36.40%,56.20%,0.0%,0.34%,97.59%,1.38%,0.34%,Eastern Standard Time,82,34,48,63,19,61%,55%,39,58,83,48%,64%,33%,35.57,11.12,6.68,44.25%,39.34%,49.89%,48.3,32,8.3,27.4,90,861,3.4,0.68,NY-64199,42.7612315,-77.2280117
Savannah,New York,556,471,Rochester,1088373,$50833,11.37%,34,N/A,N/A,N/A,N/A,57.78%,$728,47.78%,N/A,N/A,31.12%,22.37%,55.07%,Wayne County,33.90%,58.90%,0.0%,0.36%,72.66%,7.91%,0.0%,Eastern Standard Time,82,33,49,61,17,60%,55%,38,58,84,44%,57%,32%,39.41,12.17,8.07,49.21%,41.76%,59.56%,106.3,48,8.3,26.8,87,360,3.3,1.18,NY-65332,43.0667096,-76.7595429
Scottsburg,New York,113,706,Rochester,1088373,$95938,22.11%,54,N/A,N/A,N/A,N/A,100.0%,N/A,34.74%,N/A,N/A,0.0%,0.0%,75.79%,Livingston County,35.60%,57.60%,0.0%,0.0%,93.81%,0.0%,0.0%,Eastern Standard Time,84,35,49,61,19,61%,55%,39,58,86,48%,64%,33%,29.03,10.3,4.35,41.42%,43.19%,37.22%,34.3,14,8.3,27.4,90,627,3.2,0.16,NY-65926,42.6638233,-77.7123067
Scottsville,New York,2281,2112,Rochester,1088373,$63409,31.94%,37,$181000,1382,$131,61,76.68%,$1065,51.13%,N/A,N/A,16.0%,3.34%,69.43%,Monroe County,54.20%,39.30%,0.92%,5.52%,84.88%,7.58%,3.51%,Eastern Standard Time,82,33,49,60,17,61%,55%,39,58,83,48%,64%,33%,35.12,11.87,6.12,40.9%,38.24%,45.33%,45.5,24,8.3,27.4,85,498,3.4,1.08,NY-65959,43.0221279,-77.7555628
Seneca,New York,2703,54,Rochester,1088373,N/A,N/A,N/A,N/A,N/A,N/A,N/A,N/A,N/A,N/A,N/A,N/A,N/A,N/A,N/A,Ontario County,42.30%,49.60%,N/A,N/A,N/A,N/A,N/A,Eastern Standard Time,80,31,49,61,17,61%,55%,39,58,81,48%,64%,33%,35.61,11.59,6.24,44.16%,43.96%,45.44%,48.3,32,8.3,27.4,89,657,3.3,50.06,NY-66289,42.8331006,-77.0737723
Shelby,New York,5154,111,Rochester,1088373,N/A,N/A,N/A,$169000,1779,$95,N/A,N/A,N/A,N/A,N/A,N/A,N/A,N/A,N/A,Orleans County,27.30%,66.80%,N/A,N/A,N/A,N/A,N/A,Eastern Standard Time,83,34,49,63,18,62%,56%,38,57,85,47%,64%,30%,39.2,10.87,8.54,45.15%,35.71%,59.0%,87.6,53,8.3,31.8,84,504,3.2,46.43,NY-66751,43.1737981,-78.3868179
Shortsville,New York,1831,2906,Rochester,1088373,$70536,16.98%,46,$142000,1420,$100,N/A,91.02%,$805,39.07%,0,70,5.56%,0.95%,71.81%,Ontario County,42.30%,49.60%,0.0%,0.49%,97.38%,0.44%,1.15%,Eastern Standard Time,82,34,48,63,19,61%,55%,39,58,83,48%,64%,33%,36.68,11.99,6.73,44.25%,39.34%,49.89%,48.3,32,8.3,27.4,85,660,3.3,0.63,NY-67257,42.9556453,-77.222632
Sodus,New York,1798,1913,Rochester,1088373,$52500,15.7%,47,$113000,1076,$105,N/A,70.84%,$748,56.72%,N/A,N/A,13.9%,10.99%,63.71%,Wayne County,33.90%,58.90%,0.0%,19.35%,73.86%,3.06%,2.22%,Eastern Standard Time,80,32,48,59,16,61%,55%,39,58,81,48%,64%,33%,39.65,11.6,8.57,48.38%,37.91%,61.67%,85.9,57,8.3,27.4,87,405,3.3,0.94,NY-68209,43.237102,-77.0627525
Sodus Point,New York,977,665,Rochester,1088373,$69185,37.31%,59,N/A,N/A,N/A,69,80.47%,$678,47.37%,N/A,N/A,3.48%,4.63%,53.27%,Wayne County,33.90%,58.90%,0.0%,6.55%,82.7%,2.56%,3.38%,Eastern Standard Time,80,32,48,59,16,61%,55%,39,58,81,48%,64%,33%,39.65,11.6,8.57,48.38%,37.91%,61.67%,85.9,57,8.3,27.4,88,405,3.3,1.47,NY-68242,43.2640057,-76.995227
South Bristol,New York,1695,43,Rochester,1088373,N/A,N/A,N/A,$393000,2259,$174,N/A,N/A,N/A,N/A,N/A,N/A,N/A,N/A,N/A,Ontario County,42.30%,49.60%,N/A,N/A,N/A,N/A,N/A,Eastern Standard Time,81,34,47,59,17,61%,55%,39,58,82,48%,64%,33%,35.57,11.12,6.68,44.82%,40.11%,50.89%,49.4,25,8.3,27.4,91,861,3.3,39.42,NY-68660,42.7156746,-77.4091069
South Lima,New York,229,260,Rochester,1088373,$69348,29.79%,54,N/A,N/A,N/A,68,87.91%,N/A,62.45%,N/A,N/A,0.0%,6.67%,65.5%,Livingston County,35.60%,57.60%,0.0%,0.0%,100.0%,0.0%,0.0%,Eastern Standard Time,82,33,49,60,17,61%,55%,39,58,83,48%,64%,33%,35.12,11.87,6.12,40.9%,38.24%,45.33%,45.5,24,8.3,27.4,88,498,3.2,0.88,NY-69364,42.8574396,-77.6760387
Spencerport,New York,3689,2673,Rochester,1088373,$74570,34.77%,44,$228000,1676,$136,57,76.73%,$955,40.51%,N/A,N/A,4.5%,2.26%,68.63%,Monroe County,54.20%,39.30%,0.76%,0.03%,93.06%,0.16%,1.87%,Eastern Standard Time,81,34,47,63,19,61%,55%,39,58,82,48%,64%,33%,34.09,10.46,6.41,46.19%,36.59%,60.22%,96.2,60,8.3,27.4,80,354,3.4,1.38,NY-70189,43.188206,-77.8067327
Springwater,New York,447,336,Rochester,1088373,$62699,7.69%,44,$75000,1250,$60,48,89.8%,$789,50.0%,N/A,N/A,24.83%,8.98%,45.38%,Livingston County,35.60%,57.60%,0.22%,0.0%,87.25%,1.34%,0.0%,Eastern Standard Time,84,35,49,61,19,61%,55%,39,58,86,48%,64%,33%,29.03,10.3,4.35,41.42%,43.19%,37.22%,34.3,14,8.3,27.4,90,627,3.2,1.33,NY-70464,42.6349896,-77.5964226
Starkey,New York,3504,107,Rochester,1088373,N/A,N/A,N/A,$158000,1215,$130,N/A,N/A,N/A,N/A,N/A,N/A,N/A,N/A,N/A,Yates County,36.40%,56.20%,N/A,N/A,N/A,N/A,N/A,Eastern Standard Time,82,34,48,62,18,60%,55%,38,58,84,44%,57%,32%,29.15,8.99,4.7,36.49%,40.22%,31.33%,48.3,32,8.3,26.8,88,825,3.4,32.75,NY-70816,42.5212802,-76.9441509
Sweden,New York,14216,422,Rochester,1088373,N/A,N/A,N/A,$138000,1150,$120,N/A,N/A,N/A,N/A,N/A,N/A,N/A,N/A,N/A,Monroe County,54.20%,39.30%,N/A,N/A,N/A,N/A,N/A,Eastern Standard Time,81,34,47,63,19,61%,55%,39,58,82,48%,64%,33%,34.09,10.46,6.41,46.19%,36.59%,60.22%,96.2,60,8.3,27.4,80,354,3.4,33.69,NY-72455,43.1791388,-77.940618
Torrey,New York,1500,66,Rochester,1088373,N/A,N/A,N/A,N/A,N/A,N/A,N/A,N/A,N/A,N/A,N/A,N/A,N/A,N/A,N/A,Yates County,36.40%,56.20%,N/A,N/A,N/A,N/A,N/A,Eastern Standard Time,82,34,48,62,18,61%,55%,39,58,83,48%,64%,33%,29.15,8.99,4.7,36.49%,40.22%,31.33%,48.3,32,8.3,27.4,88,825,3.4,22.73,NY-75055,42.6746754,-76.9554041
Victor,New York,2744,2003,Rochester,1088373,$84000,49.21%,41,$200000,1370,$146,48,78.01%,$947,42.42%,N/A,N/A,5.35%,1.29%,66.02%,Ontario County,42.30%,49.60%,1.31%,0.15%,96.61%,0.98%,2.92%,Eastern Standard Time,82,36,46,61,17,61%,55%,39,58,83,48%,64%,33%,37.31,12.28,6.64,44.25%,39.34%,49.89%,49.4,25,8.3,27.4,84,537,3.3,1.37,NY-77376,42.9820859,-77.4098291
Wadsworth,New York,153,300,Rochester,1088373,$51563,18.68%,30,N/A,N/A,N/A,43,34.25%,N/A,62.64%,N/A,N/A,22.22%,34.07%,100.0%,Livingston County,35.60%,57.60%,0.0%,0.0%,100.0%,0.0%,0.0%,Eastern Standard Time,81,32,49,61,16,61%,55%,39,58,82,48%,64%,33%,36.5,12.69,6.97,40.9%,38.24%,45.33%,45.5,24,8.3,27.4,88,1062,3.2,0.51,NY-77783,42.8214468,-77.8938754
Walworth,New York,872,593,Rochester,1088373,$87176,31.74%,51,$263000,1547,$170,53,93.07%,$798,34.26%,N/A,N/A,5.05%,4.44%,66.71%,Wayne County,33.90%,58.90%,0.0%,0.0%,96.44%,0.0%,2.98%,Eastern Standard Time,82,35,47,62,18,61%,55%,39,58,83,48%,64%,33%,40.26,12.15,9.02,48.38%,37.91%,61.67%,85.9,57,8.3,27.4,85,477,3.3,1.47,NY-78091,43.1396297,-77.2792385
Webster,New York,5717,2599,Rochester,1088373,$46430,37.2%,43,$228000,1267,$180,46,48.46%,$1036,62.46%,N/A,N/A,16.24%,3.5%,63.78%,Monroe County,54.20%,39.30%,2.62%,7.49%,81.67%,6.8%,15.31%,Eastern Standard Time,82,35,47,62,18,61%,55%,39,58,83,48%,64%,33%,39.99,12.0,8.85,48.38%,37.91%,61.67%,85.9,57,8.3,27.4,80,252,3.4,2.2,NY-78960,43.2150733,-77.4223924
Websters Crossing,New York,83,755,Rochester,1088373,N/A,0.0%,60,N/A,N/A,N/A,18,100.0%,N/A,18.07%,N/A,N/A,32.53%,0.0%,78.31%,Livingston County,35.60%,57.60%,0.0%,0.0%,42.17%,0.0%,0.0%,Eastern Standard Time,81,34,47,61,17,61%,55%,39,58,82,48%,64%,33%,39.21,13.54,7.04,48.16%,43.3%,56.11%,34.3,14,8.3,27.4,90,825,3.2,0.11,NY-78982,42.6660931,-77.6367917
West Bloomfield,New York,2516,99,Rochester,1088373,N/A,N/A,N/A,$315000,1712,$184,N/A,N/A,N/A,N/A,N/A,N/A,N/A,N/A,N/A,Ontario County,42.30%,49.60%,N/A,N/A,N/A,N/A,N/A,Eastern Standard Time,81,34,47,59,17,61%,55%,39,58,82,48%,64%,33%,37.82,12.62,6.83,44.82%,40.11%,50.89%,49.4,25,8.3,27.4,88,906,3.3,25.41,NY-79356,42.9009082,-77.5183269
West Sparta,New York,1373,41,Rochester,1088373,N/A,N/A,N/A,$84000,1000,$84,N/A,N/A,N/A,N/A,N/A,N/A,N/A,N/A,N/A,Livingston County,35.60%,57.60%,N/A,N/A,N/A,N/A,N/A,Eastern Standard Time,84,35,49,61,19,61%,55%,39,58,86,48%,64%,33%,29.03,10.3,4.35,41.42%,43.19%,37.22%,34.3,14,8.3,27.4,90,627,3.2,33.49,NY-81006,42.6104557,-77.7891993
Wheatland,New York,4752,156,Rochester,1088373,N/A,N/A,N/A,$180000,1224,$147,N/A,N/A,N/A,N/A,N/A,N/A,N/A,N/A,N/A,Monroe County,54.20%,39.30%,N/A,N/A,N/A,N/A,N/A,Eastern Standard Time,82,33,49,60,17,61%,55%,39,58,83,48%,64%,33%,35.12,11.87,6.12,40.9%,38.24%,45.33%,45.5,24,8.3,27.4,85,498,3.4,30.46,NY-81402,43.0124611,-77.8175794
Williamson,New York,2620,682,Rochester,1088373,$50987,16.93%,36,$65000,1857,$35,56,61.94%,$559,56.74%,N/A,N/A,12.01%,6.73%,55.43%,Wayne County,33.90%,58.90%,0.23%,4.77%,83.63%,8.05%,3.05%,Eastern Standard Time,80,32,48,59,16,61%,55%,39,58,81,48%,64%,33%,39.65,11.6,8.57,48.38%,37.91%,61.67%,85.9,57,8.3,27.4,87,405,3.3,3.84,NY-82029,43.2232384,-77.1851824
Wolcott,New York,1299,666,Rochester,1088373,$39357,15.25%,44,$127000,962,$132,N/A,66.32%,$666,60.44%,N/A,N/A,18.55%,6.95%,57.29%,Wayne County,33.90%,58.90%,0.0%,1.46%,89.53%,6.24%,0.23%,Eastern Standard Time,80,32,48,59,16,60%,55%,38,58,81,44%,57%,32%,39.41,12.17,8.07,46.38%,37.58%,61.11%,128.7,56,8.3,26.8,87,360,3.3,1.95,NY-82678,43.2224811,-76.8134659
Woodsville,New York,58,181,Rochester,1088373,$98750,16.67%,38,N/A,N/A,N/A,28,100.0%,N/A,44.19%,N/A,N/A,0.0%,18.92%,86.05%,Livingston County,35.60%,57.60%,0.0%,0.0%,100.0%,0.0%,0.0%,Eastern Standard Time,84,35,49,61,19,61%,55%,39,58,86,48%,64%,33%,29.03,10.3,4.35,41.42%,43.19%,37.22%,34.3,14,8.3,27.4,90,627,3.2,0.32,NY-83063,42.5790245,-77.7338385
Yates,New York,2535,68,Rochester,1088373,N/A,N/A,N/A,$109000,1652,$66,N/A,N/A,N/A,N/A,N/A,N/A,N/A,N/A,N/A,Orleans County,27.30%,66.80%,N/A,N/A,N/A,N/A,N/A,Eastern Standard Time,83,34,49,63,18,62%,56%,38,57,85,47%,64%,30%,39.2,10.87,8.54,49.78%,42.2%,59.78%,74.2,52,8.3,31.8,88,504,3.2,37.28,NY-83448,43.3394606,-78.388284
York,New York,434,158,Rochester,1088373,$61471,23.08%,39,$900000,952,$945,72,83.96%,$819,42.55%,N/A,N/A,0.0%,0.0%,70.94%,Livingston County,35.60%,57.60%,0.0%,1.15%,94.47%,0.0%,0.0%,Eastern Standard Time,82,33,49,60,17,61%,55%,39,58,83,48%,64%,33%,36.5,12.69,6.97,40.9%,38.24%,45.33%,45.5,24,8.3,27.4,88,1062,3.2,2.75,NY-84011,42.8695594,-77.8872284
