City,State,Population,People per sq mi,Metro Name,Metro population,Median household income,% with at least Bachelor's degree,Median age,Median home price,Median home sqft,Median home cost per sqft,Median home age,Homeownership Rate,Avg Apartment Monthly Rent,Single Population,Num Violent Crimes Per 100k residents,Num Property Crimes Per 100k residents,Poverty Rate,Unemployment rate,Labor Force Participation rate,County,% Democrat,% Republican,% Asian,% Black,% Non-Hispanic White,% Hispanic,Foreign Born %,Timezone,Hottest month's avg high (F),Coldest month's avg high (F),Hottest high minus coldest high,Hottest month's avg low (F),Coldest month's avg low (F),Annual Relative Humidity (afternoon),Summer Relative Humidity (afternoon),Annual dew point (F),Average summer dew point (F),Hottest month's avg heat index high (F),Annual Sunshine - Percentage of Possible,Summer Sunshine - Percentage of Possible,Winter Sunshine - Percentage of Possible,Annual rainfall (in),Summer rainfall (in),Winter rainfall (in),Percent of days that include precipitation,Percent of Summer days that include precipitation,Percent of Winter days that include precipitation,Annual snowfall (in),Days of snow per year,Average yearly windspeed (mph),Number of days with thunder per year,Air quality Index,Elevation (ft),UV Index,Land Area (sq mi),Fips Code,Latitude,Longitude
Alta,California,645,271,Sacramento--Roseville--Arden-Arcade,2379368,$82454,38.58%,53,$330000,1041,$317,37,92.22%,N/A,26.96%,N/A,N/A,5.74%,5.63%,63.65%,Placer County,39.50%,51.10%,0.0%,0.78%,95.35%,3.88%,6.05%,Pacific Standard Time,78,45,33,63,33,31%,19%,29,38,76,81%,92%,65%,54.11,0.68,26.66,19.51%,2.09%,33.56%,14.3,5,6.4,15.0,70,3036,4.8,2.38,CA-01276,39.2138028,-120.8032762
Antelope,California,48421,7079,Sacramento--Roseville--Arden-Arcade,2379368,$86221,23.25%,36,$460000,1559,$295,27,66.31%,$1776,46.95%,N/A,N/A,10.05%,5.27%,64.0%,Sacramento County,58.00%,33.80%,11.61%,8.6%,57.43%,16.69%,25.68%,Pacific Standard Time,95,57,38,62,40,45%,30%,46,52,94,77%,96%,51%,18.72,0.24,9.83,16.58%,1.65%,30.89%,0.0,0,6.3,4.5,26,87,5.2,6.84,CA-02210,38.7153282,-121.3609617
Arden-Arcade,California,95909,6032,Sacramento--Roseville--Arden-Arcade,2379368,$56805,36.63%,37,$435000,1399,$311,54,42.81%,$1239,54.49%,N/A,N/A,20.0%,7.48%,62.23%,Sacramento County,58.00%,33.80%,12.51%,8.98%,50.97%,20.75%,22.15%,Pacific Standard Time,95,57,38,62,40,45%,30%,46,52,94,77%,96%,51%,19.97,0.21,10.64,15.59%,1.21%,30.33%,0.0,0,6.3,4.5,23,87,5.2,15.9,CA-02553,38.6017222,-121.3844901
Auburn,California,13738,1913,Sacramento--Roseville--Arden-Arcade,2379368,$72409,39.44%,48,$509000,1591,$320,40,62.23%,$1257,47.37%,352,1668,12.9%,3.94%,54.38%,Placer County,39.50%,51.10%,1.59%,0.54%,80.62%,12.56%,9.72%,Pacific Standard Time,93,57,36,63,38,45%,30%,46,52,92,77%,96%,51%,29.03,0.4,14.45,18.88%,2.31%,33.11%,14.3,5,6.3,4.5,44,1182,4.8,7.18,CA-03204,38.8949201,-121.077712
Auburn Lake Trails,California,3637,286,Sacramento--Roseville--Arden-Arcade,2379368,$113663,35.48%,54,$489000,1698,$288,33,85.84%,$2082,38.41%,N/A,N/A,8.33%,4.5%,56.55%,El Dorado County,38.30%,51.80%,1.43%,0.0%,88.86%,6.52%,3.35%,Pacific Standard Time,93,57,36,63,38,45%,30%,46,52,92,77%,96%,51%,42.0,0.58,20.39,18.88%,2.31%,33.11%,14.3,5,6.3,4.5,60,1182,4.8,12.73,CA-03205,38.8916363,-120.9849499
Cameron Park,California,17790,1584,Sacramento--Roseville--Arden-Arcade,2379368,$82429,33.31%,45,$670000,2114,$317,34,65.83%,$1598,45.89%,N/A,N/A,7.8%,5.85%,58.92%,El Dorado County,38.30%,51.80%,4.86%,1.08%,74.95%,14.47%,8.83%,Pacific Standard Time,93,57,36,63,38,45%,30%,46,52,92,77%,96%,51%,24.96,0.22,13.09,20.77%,3.19%,36.22%,0.5,0,6.3,4.5,56,705,4.8,11.23,CA-10256,38.6736937,-120.9871956
Camino,California,2042,795,Sacramento--Roseville--Arden-Arcade,2379368,$127721,29.15%,48,$455000,1507,$302,47,70.94%,$1925,27.33%,N/A,N/A,6.56%,9.78%,58.89%,El Dorado County,38.30%,51.80%,2.89%,0.0%,87.76%,4.11%,2.25%,Pacific Standard Time,90,43,47,54,30,45%,30%,46,52,88,77%,96%,51%,43.1,0.5,20.64,20.77%,3.19%,36.22%,58.3,15,6.3,4.5,67,2661,4.8,2.57,CA-10270,38.742264,-120.6808084
Carmichael,California,77358,5046,Sacramento--Roseville--Arden-Arcade,2379368,$74184,34.16%,41,$525000,1586,$331,48,55.13%,$1334,52.26%,N/A,N/A,11.63%,6.06%,61.17%,Sacramento County,58.00%,33.80%,7.76%,4.82%,65.32%,16.19%,16.04%,Pacific Standard Time,95,57,38,62,40,45%,30%,46,52,94,77%,96%,51%,19.6,0.17,10.17,16.58%,1.65%,30.89%,0.0,0,6.3,4.5,31,120,5.2,15.33,CA-11390,38.6318334,-121.3262882
Carnelian Bay,California,627,482,Sacramento--Roseville--Arden-Arcade,2379368,$122375,53.48%,40,$1120000,1438,$779,47,81.42%,$2635,61.55%,N/A,N/A,2.07%,0.0%,73.78%,Placer County,39.50%,51.10%,5.42%,2.07%,74.16%,18.34%,8.29%,Pacific Standard Time,79,40,39,47,21,31%,19%,29,38,77,81%,92%,65%,30.64,0.85,15.48,20.82%,5.93%,32.78%,160.1,34,6.4,15.0,85,5697,4.8,1.3,CA-11418,39.2337216,-120.0763286
Citrus Heights,California,87521,6155,Sacramento--Roseville--Arden-Arcade,2379368,$68457,22.41%,38,$475000,1557,$305,43,58.8%,$1465,53.38%,353,2540,9.44%,6.82%,64.67%,Sacramento County,58.00%,33.80%,4.06%,3.56%,68.4%,18.39%,14.28%,Pacific Standard Time,95,57,38,62,40,45%,30%,46,52,94,77%,96%,51%,22.49,0.24,11.48,16.58%,1.65%,30.89%,0.0,0,6.3,4.5,34,144,5.2,14.22,CA-13588,38.6948116,-121.2879514
Clarksburg,California,379,187,Sacramento--Roseville--Arden-Arcade,2379368,N/A,29.28%,49,N/A,N/A,N/A,N/A,74.32%,$2125,28.34%,N/A,N/A,0.0%,25.09%,90.88%,Yolo County,66.70%,25.30%,1.85%,0.0%,96.04%,3.96%,0.0%,Pacific Standard Time,93,57,36,60,38,45%,30%,46,52,91,77%,96%,51%,16.94,0.17,9.17,14.85%,1.1%,28.11%,0.0,0,6.3,4.5,48,15,4.8,2.03,CA-13784,38.4193356,-121.5416175
Clay,California,1093,162,Sacramento--Roseville--Arden-Arcade,2379368,$108789,27.37%,44,N/A,N/A,N/A,34,86.73%,N/A,46.47%,N/A,N/A,6.71%,7.06%,55.43%,Sacramento County,58.00%,33.80%,5.76%,0.0%,66.06%,19.4%,9.61%,Pacific Standard Time,94,56,38,63,38,45%,30%,46,52,93,77%,96%,51%,15.97,0.12,8.38,13.62%,1.1%,26.78%,0.0,0,6.3,4.5,61,81,5.2,6.76,CA-13854,38.3140386,-121.1595888
Colfax,California,2289,1623,Sacramento--Roseville--Arden-Arcade,2379368,$69844,17.39%,36,$465000,1325,$351,34,54.25%,$1319,55.83%,N/A,N/A,11.22%,3.97%,61.71%,Placer County,39.50%,51.10%,0.92%,3.19%,78.77%,13.5%,2.62%,Pacific Standard Time,94,54,40,63,36,45%,30%,46,52,93,77%,96%,51%,40.99,0.49,19.6,18.88%,2.31%,33.11%,14.3,5,6.3,4.5,64,2175,4.8,1.41,CA-14498,39.0938,-120.9532219
Coloma,California,392,117,Sacramento--Roseville--Arden-Arcade,2379368,$94453,39.9%,49,N/A,N/A,N/A,38,52.66%,N/A,64.1%,N/A,N/A,16.92%,21.45%,88.46%,El Dorado County,38.30%,51.80%,0.0%,0.0%,97.45%,0.77%,0.0%,Pacific Standard Time,92,51,41,63,35,45%,30%,46,52,90,77%,96%,51%,40.18,0.48,19.17,20.77%,3.19%,36.22%,58.3,15,6.3,4.5,63,1830,4.8,3.36,CA-14764,38.8026174,-120.8946349
Courtland,California,669,372,Sacramento--Roseville--Arden-Arcade,2379368,$63872,36.89%,54,N/A,N/A,N/A,64,64.69%,$859,19.89%,N/A,N/A,1.79%,0.0%,63.52%,Sacramento County,58.00%,33.80%,1.35%,0.0%,49.33%,47.98%,23.92%,Pacific Standard Time,93,57,36,60,38,45%,30%,46,52,91,77%,96%,51%,16.94,0.17,9.17,14.85%,1.1%,28.11%,0.0,0,6.3,4.5,55,15,5.2,1.8,CA-16714,38.3329109,-121.5570253
Davis,California,67208,6741,Sacramento--Roseville--Arden-Arcade,2379368,$81231,77.1%,26,$920000,1925,$478,39,43.31%,$1801,62.36%,153,3139,26.39%,6.5%,58.1%,Yolo County,66.70%,25.30%,23.31%,2.29%,53.57%,13.84%,20.05%,Pacific Standard Time,94,57,37,58,38,45%,30%,46,52,93,77%,96%,51%,17.31,0.21,9.94,14.14%,1.21%,28.56%,0.0,0,6.3,4.5,36,39,4.8,9.97,CA-18100,38.5552758,-121.7370497
Diamond Springs,California,11545,694,Sacramento--Roseville--Arden-Arcade,2379368,$64674,24.96%,47,$471000,1298,$363,39,72.55%,$1479,43.01%,N/A,N/A,11.86%,6.52%,53.69%,El Dorado County,38.30%,51.80%,3.78%,0.43%,75.19%,18.17%,8.19%,Pacific Standard Time,92,51,41,63,35,45%,30%,46,52,90,77%,96%,51%,33.0,0.36,16.06,20.77%,3.19%,36.22%,0.5,0,6.3,4.5,62,1605,4.8,16.64,CA-19220,38.6920393,-120.839069
Dollar Point,California,949,579,Sacramento--Roseville--Arden-Arcade,2379368,$81136,46.1%,51,$765000,1366,$560,46,66.12%,$1566,42.47%,N/A,N/A,1.79%,3.22%,72.84%,Placer County,39.50%,51.10%,6.32%,6.22%,73.76%,13.28%,9.06%,Pacific Standard Time,79,40,39,47,21,31%,19%,29,38,77,81%,92%,65%,30.64,0.85,15.48,20.82%,5.93%,32.78%,160.1,34,6.4,15.0,86,5697,4.8,1.64,CA-19455,39.189919,-120.1082597
Dunnigan,California,1081,207,Sacramento--Roseville--Arden-Arcade,2379368,$40875,23.82%,44,N/A,N/A,N/A,29,65.78%,$621,62.53%,N/A,N/A,12.67%,4.38%,44.86%,Yolo County,66.70%,25.30%,3.89%,4.9%,61.89%,27.66%,17.11%,Pacific Standard Time,95,57,38,59,38,45%,30%,46,52,94,77%,96%,51%,18.64,0.21,10.66,14.05%,0.88%,28.33%,0.0,0,6.3,4.5,38,60,4.8,5.23,CA-20228,38.892643,-121.974186
Dutch Flat,California,110,186,Sacramento--Roseville--Arden-Arcade,2379368,$43125,31.68%,60,N/A,N/A,N/A,N/A,72.18%,N/A,59.43%,N/A,N/A,10.0%,29.23%,61.32%,Placer County,39.50%,51.10%,0.0%,0.0%,90.0%,0.0%,0.0%,Pacific Standard Time,78,45,33,63,33,45%,30%,46,52,77,77%,96%,51%,54.11,0.68,26.66,19.51%,2.09%,33.56%,14.3,5,6.3,4.5,70,3036,4.8,0.59,CA-20298,39.208008,-120.8344755
El Dorado Hills,California,48612,1003,Sacramento--Roseville--Arden-Arcade,2379368,$139810,55.3%,45,$859000,2490,$345,20,86.64%,$2132,32.61%,N/A,N/A,4.7%,3.97%,60.55%,El Dorado County,38.30%,51.80%,11.61%,1.79%,70.77%,9.08%,12.97%,Pacific Standard Time,93,57,36,63,38,45%,30%,46,52,92,77%,96%,51%,24.96,0.22,13.09,20.77%,3.19%,36.22%,0.5,0,6.3,4.5,59,705,4.8,48.46,CA-21880,38.6750068,-121.0489549
Elk Grove,California,175510,4180,Sacramento--Roseville--Arden-Arcade,2379368,$106797,37.14%,38,$630000,2039,$309,21,74.02%,$1898,43.08%,211,1480,8.44%,6.3%,65.29%,Sacramento County,58.00%,33.80%,29.5%,10.97%,33.13%,18.73%,24.87%,Pacific Standard Time,93,57,36,60,38,45%,30%,46,52,91,77%,96%,51%,16.94,0.17,9.17,14.85%,1.1%,28.11%,0.0,0,6.3,4.5,38,15,5.2,41.99,CA-22020,38.4160498,-121.3841526
Elverta,California,5104,577,Sacramento--Roseville--Arden-Arcade,2379368,$86685,14.78%,44,$445000,1348,$330,39,80.91%,$1458,51.04%,N/A,N/A,9.43%,4.19%,60.44%,Sacramento County,58.00%,33.80%,6.31%,4.06%,66.44%,18.14%,10.38%,Pacific Standard Time,94,56,38,60,37,45%,30%,46,52,93,77%,96%,51%,18.72,0.24,9.83,17.37%,1.1%,33.33%,0.0,0,6.3,4.5,37,87,5.2,8.84,CA-22524,38.718462,-121.4454759
Esparto,California,3733,812,Sacramento--Roseville--Arden-Arcade,2379368,$87837,20.55%,31,$784000,2405,$326,25,70.57%,$1206,31.38%,N/A,N/A,12.78%,2.96%,72.08%,Yolo County,66.70%,25.30%,3.64%,0.0%,49.56%,43.58%,22.13%,Pacific Standard Time,96,58,38,60,37,45%,30%,46,52,95,77%,96%,51%,21.45,0.14,13.22,18.93%,1.1%,38.78%,0.0,0,6.3,4.5,73,123,4.8,4.6,CA-22846,38.6934108,-122.0240467
Fair Oaks,California,31750,2918,Sacramento--Roseville--Arden-Arcade,2379368,$99629,45.35%,46,$623000,1854,$336,44,71.45%,$1599,45.71%,N/A,N/A,8.26%,4.06%,62.59%,Sacramento County,58.00%,33.80%,5.4%,2.0%,72.82%,14.14%,10.87%,Pacific Standard Time,95,57,38,62,40,45%,30%,46,52,94,77%,96%,51%,19.6,0.17,10.17,16.58%,1.65%,30.89%,0.0,0,6.3,4.5,42,120,5.2,10.88,CA-23294,38.6504123,-121.2496598
Florin,California,51568,5921,Sacramento--Roseville--Arden-Arcade,2379368,$53921,12.53%,34,$415000,1412,$294,36,53.8%,$1305,57.54%,N/A,N/A,20.68%,10.11%,58.07%,Sacramento County,58.00%,33.80%,35.1%,8.96%,16.33%,31.16%,32.62%,Pacific Standard Time,95,57,38,62,40,45%,30%,46,52,94,77%,96%,51%,18.93,0.17,10.26,15.59%,1.21%,30.33%,0.0,0,6.3,4.5,35,30,5.2,8.71,CA-24498,38.4832107,-121.4042718
Folsom,California,79201,2841,Sacramento--Roseville--Arden-Arcade,2379368,$128421,51.75%,40,$697000,1910,$365,25,72.27%,$1944,42.77%,102,1856,5.01%,4.46%,60.86%,Sacramento County,58.00%,33.80%,17.99%,4.66%,55.95%,15.75%,17.28%,Pacific Standard Time,95,57,38,62,40,45%,30%,46,52,94,77%,96%,51%,22.54,0.21,11.28,16.58%,1.65%,30.89%,0.5,0,6.3,4.5,53,330,5.2,27.88,CA-24638,38.6667524,-121.1421575
Foothill Farms,California,37432,8912,Sacramento--Roseville--Arden-Arcade,2379368,$57810,15.97%,33,$351000,1272,$276,43,48.16%,$1384,56.66%,N/A,N/A,18.28%,7.91%,61.26%,Sacramento County,58.00%,33.80%,8.24%,12.68%,51.04%,23.03%,23.17%,Pacific Standard Time,95,57,38,62,40,45%,30%,46,52,94,77%,96%,51%,19.97,0.21,10.64,16.58%,1.65%,30.89%,0.0,0,6.3,4.5,21,87,5.2,4.2,CA-24722,38.6867328,-121.347477
Foresthill,California,1265,113,Sacramento--Roseville--Arden-Arcade,2379368,$56203,17.02%,51,N/A,N/A,N/A,35,70.87%,N/A,36.35%,N/A,N/A,17.71%,3.3%,36.99%,Placer County,39.50%,51.10%,0.0%,0.0%,75.18%,24.82%,2.45%,Pacific Standard Time,92,51,41,63,35,45%,30%,46,52,90,77%,96%,51%,53.46,0.62,26.03,18.88%,2.31%,33.11%,14.3,5,6.3,4.5,67,2757,4.8,11.19,CA-24834,39.0052869,-120.8313516
Franklin (Sacramento Cnty),California,30,14,Sacramento--Roseville--Arden-Arcade,2379368,N/A,50.0%,73,$354000,1463,$242,N/A,61.54%,N/A,100.0%,N/A,N/A,26.67%,0.0%,26.67%,Sacramento County,58.00%,33.80%,0.0%,0.0%,100.0%,0.0%,0.0%,Pacific Standard Time,93,57,36,60,38,45%,30%,46,52,91,77%,96%,51%,16.94,0.17,9.17,14.85%,1.1%,28.11%,0.0,0,6.3,4.5,45,15,5.2,2.11,CA-25506,38.3675219,-121.4616288
Freeport,California,70,1400,Sacramento--Roseville--Arden-Arcade,2379368,N/A,N/A,N/A,N/A,N/A,N/A,N/A,0.0%,N/A,0.0%,N/A,N/A,0.0%,0.0%,0.0%,Sacramento County,58.00%,33.80%,0.0%,0.0%,0.0%,0.0%,0.0%,Pacific Standard Time,93,57,36,60,38,45%,30%,46,52,91,77%,96%,51%,16.94,0.17,9.17,14.85%,1.1%,28.11%,0.0,0,6.3,4.5,55,15,4.8,0.05,CA-25590,38.4629356,-121.5021071
Fruitridge Pocket,California,5915,10025,Sacramento--Roseville--Arden-Arcade,2379368,$40717,13.77%,39,$333000,824,$404,63,36.14%,$1099,61.48%,N/A,N/A,34.22%,8.46%,42.92%,Sacramento County,58.00%,33.80%,21.74%,25.07%,16.11%,34.79%,26.51%,Pacific Standard Time,95,57,38,62,40,45%,30%,46,52,94,77%,96%,51%,18.93,0.17,10.26,15.59%,1.21%,30.33%,0.0,0,6.3,4.5,18,30,5.2,0.59,CA-27130,38.5326131,-121.4558066
Galt,California,25385,3550,Sacramento--Roseville--Arden-Arcade,2379368,$77669,19.58%,39,$474000,1570,$302,26,74.47%,$1221,42.78%,287,1675,9.18%,7.56%,65.14%,Sacramento County,58.00%,33.80%,4.15%,2.15%,44.3%,45.04%,19.59%,Pacific Standard Time,93,57,36,60,38,45%,28%,46,51,91,77%,96%,51%,15.97,0.12,8.38,13.62%,1.1%,26.78%,0.0,0,7.7,3.7,45,81,5.2,7.15,CA-28112,38.2697754,-121.300423
Georgetown,California,3018,199,Sacramento--Roseville--Arden-Arcade,2379368,$80850,20.45%,58,$289000,900,$321,44,84.68%,$1574,42.98%,N/A,N/A,6.53%,17.34%,40.36%,El Dorado County,38.30%,51.80%,2.62%,0.3%,78.0%,16.8%,4.37%,Pacific Standard Time,92,51,41,63,35,45%,30%,46,52,90,77%,96%,51%,51.71,0.61,24.32,18.88%,2.31%,33.11%,58.3,15,6.3,4.5,66,2745,4.8,15.13,CA-29350,38.9111707,-120.8356333
Gold River,California,7932,2982,Sacramento--Roseville--Arden-Arcade,2379368,$141339,72.16%,53,$703000,2239,$314,30,91.08%,$2301,31.84%,N/A,N/A,1.79%,3.91%,58.33%,Sacramento County,58.00%,33.80%,21.38%,1.08%,69.23%,4.66%,17.7%,Pacific Standard Time,95,57,38,62,40,45%,30%,46,52,94,77%,96%,51%,19.6,0.17,10.17,16.58%,1.65%,30.89%,0.0,0,6.3,4.5,41,120,5.2,2.66,CA-30345,38.6267744,-121.2487365
Granite Bay,California,21673,1006,Sacramento--Roseville--Arden-Arcade,2379368,$161557,58.15%,48,$1790000,4303,$416,34,92.51%,$1939,32.34%,N/A,N/A,4.8%,3.15%,58.26%,Placer County,39.50%,51.10%,8.82%,3.5%,74.74%,8.44%,11.0%,Pacific Standard Time,93,57,36,63,38,45%,30%,46,52,92,77%,96%,51%,22.49,0.24,11.48,16.58%,1.65%,30.89%,0.0,0,6.3,4.5,51,144,4.8,21.55,CA-30693,38.7600594,-121.1714266
Grizzly Flats,California,1205,182,Sacramento--Roseville--Arden-Arcade,2379368,$78415,21.27%,45,N/A,N/A,N/A,26,88.35%,N/A,22.89%,N/A,N/A,1.49%,0.0%,57.0%,El Dorado County,38.30%,51.80%,0.0%,0.0%,89.13%,0.33%,1.41%,Pacific Standard Time,90,43,47,54,30,45%,30%,46,52,88,77%,96%,51%,53.53,0.72,25.25,22.19%,3.52%,36.67%,58.3,15,6.3,4.5,72,3156,4.8,6.63,CA-31302,38.6356962,-120.5354311
Guinda,California,95,32,Sacramento--Roseville--Arden-Arcade,2379368,N/A,37.14%,30,N/A,N/A,N/A,50,52.21%,N/A,50.0%,N/A,N/A,53.68%,0.0%,12.86%,Yolo County,66.70%,25.30%,0.0%,0.0%,55.79%,0.0%,0.0%,Pacific Standard Time,85,53,32,54,39,45%,30%,46,52,83,77%,96%,51%,35.61,0.28,20.5,19.95%,1.21%,40.22%,0.3,0,6.3,4.5,73,1569,4.8,2.93,CA-31540,38.8273744,-122.1983596
Herald,California,1041,132,Sacramento--Roseville--Arden-Arcade,2379368,$98140,18.93%,59,N/A,N/A,N/A,39,87.83%,N/A,38.45%,N/A,N/A,11.72%,6.83%,48.35%,Sacramento County,58.00%,33.80%,1.34%,12.3%,64.07%,16.91%,4.03%,Pacific Standard Time,93,57,36,60,38,45%,28%,46,51,91,77%,96%,51%,15.97,0.12,8.38,13.62%,1.1%,26.78%,0.0,0,7.7,3.7,58,81,5.2,7.88,CA-33294,38.2912975,-121.2318135
Hood,California,243,759,Sacramento--Roseville--Arden-Arcade,2379368,N/A,0.0%,22,N/A,N/A,N/A,28,82.7%,N/A,83.59%,N/A,N/A,6.58%,13.22%,62.05%,Sacramento County,58.00%,33.80%,0.0%,0.0%,9.05%,90.12%,0.0%,Pacific Standard Time,93,57,36,60,38,45%,30%,46,52,91,77%,96%,51%,16.94,0.17,9.17,14.85%,1.1%,28.11%,0.0,0,6.3,4.5,55,15,5.2,0.32,CA-34484,38.3692915,-121.5154881
Isleton,California,520,1182,Sacramento--Roseville--Arden-Arcade,2379368,$42083,9.66%,34,$320000,1270,$252,53,60.2%,$988,60.87%,824,471,20.19%,10.33%,62.1%,Sacramento County,58.00%,33.80%,2.5%,0.0%,51.54%,42.69%,11.54%,Pacific Standard Time,92,57,35,60,41,45%,28%,46,51,90,77%,96%,51%,12.88,0.22,6.96,13.62%,1.1%,26.78%,0.0,0,7.7,3.7,60,54,5.2,0.44,CA-36882,38.1617118,-121.605259
Kings Beach,California,3066,1072,Sacramento--Roseville--Arden-Arcade,2379368,$53388,22.96%,39,$830000,1663,$499,46,60.19%,$1302,51.82%,N/A,N/A,17.16%,1.37%,78.62%,Placer County,39.50%,51.10%,1.44%,0.0%,51.73%,45.83%,27.98%,Pacific Standard Time,77,41,36,51,24,31%,19%,29,38,75,81%,92%,65%,27.98,1.48,13.56,20.82%,5.93%,32.78%,160.1,34,6.4,15.0,81,5811,4.8,2.86,CA-38548,39.2449928,-120.0202688
Knights Landing,California,944,1748,Sacramento--Roseville--Arden-Arcade,2379368,$40583,7.57%,40,$320000,1517,$211,52,64.12%,$1038,50.28%,N/A,N/A,20.34%,25.67%,47.45%,Yolo County,66.70%,25.30%,0.0%,0.0%,16.42%,83.58%,22.03%,Pacific Standard Time,95,57,38,59,38,45%,30%,46,52,94,77%,96%,51%,18.64,0.21,10.66,14.05%,0.88%,28.33%,0.0,0,6.3,4.5,38,60,4.8,0.54,CA-38800,38.7979718,-121.7174474
La Riviera,California,11723,6170,Sacramento--Roseville--Arden-Arcade,2379368,$77493,32.71%,33,$477000,1529,$312,45,56.87%,$1502,58.07%,N/A,N/A,10.81%,3.58%,71.04%,Sacramento County,58.00%,33.80%,10.12%,12.41%,49.65%,20.92%,11.56%,Pacific Standard Time,95,57,38,62,40,45%,30%,46,52,94,77%,96%,51%,19.12,0.19,10.12,15.59%,1.21%,30.33%,0.0,0,6.3,4.5,29,60,5.2,1.9,CA-40410,38.5682464,-121.3544337
Lemon Hill,California,14471,8824,Sacramento--Roseville--Arden-Arcade,2379368,$43254,8.94%,30,$421000,1577,$267,57,31.6%,$1109,54.83%,N/A,N/A,28.34%,7.82%,57.93%,Sacramento County,58.00%,33.80%,23.13%,9.21%,15.29%,45.26%,32.62%,Pacific Standard Time,93,57,36,60,38,45%,30%,46,52,91,77%,96%,51%,16.94,0.17,9.17,14.85%,1.1%,28.11%,0.0,0,6.3,4.5,26,15,5.2,1.64,CA-41142,38.5172316,-121.457279
Lincoln,California,49203,2036,Sacramento--Roseville--Arden-Arcade,2379368,$93232,35.16%,44,$630000,1927,$327,16,80.51%,$1968,37.97%,65,962,6.83%,3.91%,53.36%,Placer County,39.50%,51.10%,6.62%,1.04%,69.24%,18.89%,12.1%,Pacific Standard Time,93,57,36,63,38,45%,30%,46,52,92,77%,96%,51%,21.39,0.27,10.93,13.62%,0.77%,28.44%,0.0,0,6.3,4.5,41,120,4.8,24.17,CA-41474,38.8773871,-121.2937281
Loomis,California,6791,934,Sacramento--Roseville--Arden-Arcade,2379368,$72955,34.09%,48,$672000,2140,$314,41,76.59%,$1466,42.9%,N/A,N/A,10.52%,3.26%,51.11%,Placer County,39.50%,51.10%,1.38%,0.04%,83.12%,10.85%,0.75%,Pacific Standard Time,93,57,36,63,38,45%,30%,46,52,92,77%,96%,51%,28.75,0.38,14.7,16.58%,1.65%,30.89%,0.0,0,6.3,4.5,41,558,4.8,7.27,CA-43140,38.8093713,-121.1954696
Madison,California,478,308,Sacramento--Roseville--Arden-Arcade,2379368,$42696,0.29%,49,N/A,N/A,N/A,66,69.22%,N/A,36.29%,N/A,N/A,16.32%,0.0%,28.43%,Yolo County,66.70%,25.30%,0.21%,0.21%,4.81%,94.77%,51.46%,Pacific Standard Time,95,57,38,59,38,45%,30%,46,52,94,77%,96%,51%,18.64,0.21,10.66,14.05%,0.88%,28.33%,0.0,0,6.3,4.5,73,60,4.8,1.55,CA-45064,38.6749882,-121.9702534
McClellan Park,California,991,243,Sacramento--Roseville--Arden-Arcade,2379368,$27500,22.75%,27,N/A,N/A,N/A,34,0.0%,$853,68.77%,N/A,N/A,47.93%,3.43%,50.28%,Sacramento County,58.00%,33.80%,7.37%,20.28%,40.26%,21.7%,5.75%,Pacific Standard Time,95,57,38,62,40,45%,30%,46,52,94,77%,96%,51%,19.97,0.21,10.64,16.58%,1.65%,30.89%,0.0,0,6.3,4.5,25,87,5.2,4.07,CA-44760,38.6628976,-121.4016555
Meadow Vista,California,3537,670,Sacramento--Roseville--Arden-Arcade,2379368,$87614,39.41%,49,$579000,1874,$309,44,86.46%,$1784,35.73%,N/A,N/A,1.73%,5.2%,54.17%,Placer County,39.50%,51.10%,2.09%,0.0%,86.6%,7.92%,4.35%,Pacific Standard Time,93,57,36,63,38,45%,30%,46,52,92,77%,96%,51%,42.0,0.58,20.39,18.88%,2.31%,33.11%,14.3,5,6.3,4.5,54,1812,4.8,5.28,CA-46632,39.0029371,-121.0303802
Monument Hills,California,1508,378,Sacramento--Roseville--Arden-Arcade,2379368,$250001,54.18%,43,N/A,N/A,N/A,18,92.84%,N/A,24.83%,N/A,N/A,0.93%,0.0%,63.44%,Yolo County,66.70%,25.30%,1.33%,0.0%,72.28%,25.46%,13.46%,Pacific Standard Time,95,57,38,59,38,45%,30%,46,52,94,77%,96%,51%,18.64,0.21,10.66,14.05%,0.88%,28.33%,0.0,0,6.3,4.5,49,60,4.8,3.99,CA-49045,38.664106,-121.8753892
Newcastle,California,1505,630,Sacramento--Roseville--Arden-Arcade,2379368,$93500,25.82%,41,$1429000,4997,$286,45,95.33%,$778,55.31%,N/A,N/A,7.77%,4.51%,43.46%,Placer County,39.50%,51.10%,0.66%,0.0%,73.36%,17.14%,4.45%,Pacific Standard Time,93,57,36,63,38,45%,30%,46,52,92,77%,96%,51%,29.03,0.4,14.45,16.58%,1.65%,30.89%,0.0,0,6.3,4.5,49,732,4.8,2.39,CA-51000,38.8676642,-121.1318217
North Auburn,California,14307,1837,Sacramento--Roseville--Arden-Arcade,2379368,$72549,25.39%,45,$560000,1944,$288,42,61.39%,$1350,46.96%,N/A,N/A,12.1%,1.46%,52.24%,Placer County,39.50%,51.10%,2.36%,0.48%,69.1%,23.29%,11.74%,Pacific Standard Time,93,57,36,63,38,45%,30%,46,52,92,77%,96%,51%,29.03,0.4,14.45,18.88%,2.31%,33.11%,14.3,5,6.3,4.5,49,1182,4.8,7.79,CA-51637,38.9305712,-121.0820795
North Highlands,California,48424,5496,Sacramento--Roseville--Arden-Arcade,2379368,$55616,13.35%,33,$391000,1140,$343,50,46.51%,$1320,53.64%,N/A,N/A,21.87%,5.66%,61.27%,Sacramento County,58.00%,33.80%,8.55%,9.02%,47.36%,30.36%,28.74%,Pacific Standard Time,95,57,38,62,40,45%,30%,46,52,94,77%,96%,51%,19.97,0.21,10.64,16.58%,1.65%,30.89%,0.0,0,6.3,4.5,22,87,5.2,8.81,CA-51924,38.6713235,-121.3721345
Orangevale,California,35729,3120,Sacramento--Roseville--Arden-Arcade,2379368,$89426,31.78%,42,$505000,1399,$361,45,74.42%,$1605,49.57%,N/A,N/A,8.08%,5.2%,63.39%,Sacramento County,58.00%,33.80%,2.74%,1.34%,75.25%,13.44%,8.81%,Pacific Standard Time,95,57,38,62,40,45%,30%,46,52,94,77%,96%,51%,22.49,0.24,11.48,16.58%,1.65%,30.89%,0.0,0,6.3,4.5,42,144,5.2,11.45,CA-54092,38.6880946,-121.2208686
Parkway,California,16091,6677,Sacramento--Roseville--Arden-Arcade,2379368,$50422,12.6%,31,$435000,1330,$327,56,45.2%,$1234,55.99%,N/A,N/A,21.78%,11.87%,58.6%,Sacramento County,58.00%,33.80%,17.22%,18.38%,16.1%,42.1%,25.73%,Pacific Standard Time,93,57,36,60,38,45%,30%,46,52,91,77%,96%,51%,16.94,0.17,9.17,14.85%,1.1%,28.11%,0.0,0,6.3,4.5,26,15,5.2,2.41,CA-55800,38.4992934,-121.4520124
Penryn,California,1073,565,Sacramento--Roseville--Arden-Arcade,2379368,$80455,23.7%,44,$735000,1838,$400,44,88.27%,$1415,45.19%,N/A,N/A,6.52%,6.67%,56.64%,Placer County,39.50%,51.10%,2.52%,0.0%,73.72%,11.56%,5.31%,Pacific Standard Time,93,57,36,63,38,45%,30%,46,52,92,77%,96%,51%,28.75,0.38,14.7,16.58%,1.65%,30.89%,0.0,0,6.3,4.5,43,558,4.8,1.9,CA-56546,38.8482184,-121.1698085
Placerville,California,10777,1845,Sacramento--Roseville--Arden-Arcade,2379368,$64348,26.83%,43,$489000,1500,$326,47,63.05%,$1091,51.88%,350,2526,13.33%,3.85%,58.09%,El Dorado County,38.30%,51.80%,0.95%,0.87%,74.95%,19.35%,5.89%,Pacific Standard Time,92,51,41,63,35,45%,30%,46,52,90,77%,96%,51%,39.23,0.5,18.79,20.77%,3.19%,36.22%,0.5,0,6.3,4.5,61,1863,4.8,5.84,CA-57540,38.7307832,-120.7978676
Pollock Pines,California,6450,748,Sacramento--Roseville--Arden-Arcade,2379368,$58287,22.93%,46,$327000,1298,$252,41,75.17%,$947,43.57%,N/A,N/A,25.87%,3.77%,51.03%,El Dorado County,38.30%,51.80%,0.4%,0.71%,87.33%,10.7%,3.21%,Pacific Standard Time,90,43,47,54,30,45%,30%,46,52,88,77%,96%,51%,50.21,0.65,22.08,22.19%,3.52%,36.67%,58.3,15,6.3,4.5,70,3561,4.8,8.62,CA-58030,38.7574803,-120.5920537
Rancho Cordova,California,78358,2267,Sacramento--Roseville--Arden-Arcade,2379368,$77044,27.19%,35,$510000,1700,$300,42,56.44%,$1417,49.67%,296,1874,11.23%,7.31%,66.51%,Sacramento County,58.00%,33.80%,14.02%,10.89%,47.74%,20.89%,24.16%,Pacific Standard Time,95,57,38,62,40,45%,30%,46,52,94,77%,96%,51%,19.12,0.19,10.12,16.58%,1.65%,30.89%,0.0,0,6.3,4.5,39,60,5.2,34.57,CA-59444,38.57367,-121.2527356
Rancho Murieta,California,5874,494,Sacramento--Roseville--Arden-Arcade,2379368,$133505,50.69%,55,$707000,2380,$297,31,92.38%,$2632,36.46%,N/A,N/A,3.22%,3.41%,54.55%,Sacramento County,58.00%,33.80%,3.49%,4.44%,72.95%,17.25%,8.31%,Pacific Standard Time,94,56,38,63,38,45%,30%,46,52,93,77%,96%,51%,22.54,0.21,11.28,16.58%,1.65%,30.89%,0.5,0,6.3,4.5,68,330,5.2,11.88,CA-59506,38.5085326,-121.0715857
Rio Linda,California,17181,1730,Sacramento--Roseville--Arden-Arcade,2379368,$80364,13.49%,36,$440000,1606,$274,49,70.27%,$1409,47.32%,N/A,N/A,15.52%,3.99%,59.32%,Sacramento County,58.00%,33.80%,6.91%,1.3%,63.76%,23.42%,14.39%,Pacific Standard Time,94,56,38,60,37,45%,30%,46,52,93,77%,96%,51%,19.97,0.21,10.64,16.58%,1.65%,30.89%,0.0,0,6.3,4.5,32,87,5.2,9.93,CA-60942,38.6875014,-121.4416816
Rocklin,California,70317,3550,Sacramento--Roseville--Arden-Arcade,2379368,$106164,47.81%,37,$665000,2034,$327,23,70.29%,$1907,42.3%,97,1433,4.6%,4.5%,64.35%,Placer County,39.50%,51.10%,11.12%,1.76%,66.6%,13.86%,12.18%,Pacific Standard Time,93,57,36,63,38,45%,30%,46,52,92,77%,96%,51%,21.39,0.27,10.93,16.58%,1.65%,30.89%,0.0,0,6.3,4.5,41,120,4.8,19.81,CA-62364,38.8075377,-121.2488549
Rosemont,California,24343,5545,Sacramento--Roseville--Arden-Arcade,2379368,$77495,28.97%,35,$423000,1339,$316,44,53.84%,$1519,57.54%,N/A,N/A,14.74%,6.53%,66.9%,Sacramento County,58.00%,33.80%,12.87%,12.98%,43.98%,22.13%,16.85%,Pacific Standard Time,95,57,38,62,40,45%,30%,46,52,94,77%,96%,51%,19.12,0.19,10.12,15.59%,1.21%,30.33%,0.0,0,6.3,4.5,29,60,5.2,4.39,CA-62910,38.5477288,-121.3553715
Roseville,California,145687,3305,Sacramento--Roseville--Arden-Arcade,2379368,$102660,44.37%,39,$602000,1841,$327,24,70.68%,$1787,44.28%,182,2225,6.97%,4.8%,64.94%,Placer County,39.50%,51.10%,11.91%,2.03%,65.2%,15.83%,14.05%,Pacific Standard Time,94,56,38,60,37,45%,30%,46,52,93,77%,96%,51%,18.72,0.24,9.83,16.58%,1.65%,30.89%,0.0,0,6.3,4.5,41,87,4.8,44.08,CA-62938,38.7702887,-121.3196429
Sacramento,California,518605,5259,Sacramento--Roseville--Arden-Arcade,2379368,$71074,35.13%,35,$464000,1459,$318,45,52.33%,$1434,56.38%,627,3182,14.82%,6.94%,64.63%,Sacramento County,58.00%,33.80%,18.96%,13.43%,31.14%,28.89%,20.91%,Pacific Standard Time,95,57,38,62,40,45%,30%,46,52,94,77%,96%,51%,18.93,0.17,10.26,15.59%,1.21%,30.33%,0.0,0,6.3,4.5,24,30,5.2,98.61,CA-64000,38.5676634,-121.4685298
Sheridan,California,1326,52,Sacramento--Roseville--Arden-Arcade,2379368,$64783,26.76%,29,N/A,N/A,N/A,44,54.64%,$1305,37.79%,N/A,N/A,2.94%,6.82%,70.03%,Placer County,39.50%,51.10%,0.0%,0.0%,60.78%,36.8%,22.25%,Pacific Standard Time,97,56,41,62,37,45%,30%,46,52,97,77%,96%,51%,17.36,0.21,9.25,13.62%,0.77%,28.44%,0.0,0,6.3,4.5,44,39,4.8,25.53,CA-71414,38.9694817,-121.3551861
Shingle Springs,California,3609,440,Sacramento--Roseville--Arden-Arcade,2379368,$89196,35.1%,48,$815000,2612,$312,38,69.98%,$1047,34.94%,N/A,N/A,6.64%,0.74%,56.52%,El Dorado County,38.30%,51.80%,1.61%,0.55%,85.79%,9.06%,4.24%,Pacific Standard Time,93,57,36,63,38,45%,30%,46,52,92,77%,96%,51%,33.0,0.36,16.06,20.77%,3.19%,36.22%,0.5,0,6.3,4.5,63,1605,4.8,8.2,CA-71554,38.6665533,-120.9370238
South Lake Tahoe,California,21355,2096,Sacramento--Roseville--Arden-Arcade,2379368,$57976,27.87%,39,$628000,1227,$512,49,40.38%,$1156,57.56%,501,2030,12.75%,4.34%,70.38%,El Dorado County,38.30%,51.80%,5.38%,0.6%,59.19%,29.84%,20.45%,Pacific Standard Time,81,43,38,44,19,31%,19%,29,38,79,81%,92%,65%,19.85,1.1,9.06,21.1%,7.03%,30.44%,22.9,7,6.4,15.0,82,5775,4.8,10.19,CA-73108,38.9392855,-119.9827187
Sunnyside-Tahoe City,California,1507,433,Sacramento--Roseville--Arden-Arcade,2379368,$144474,61.05%,43,$515000,792,$650,50,90.08%,$1417,38.55%,N/A,N/A,5.44%,0.0%,70.82%,Placer County,39.50%,51.10%,2.59%,0.0%,91.44%,3.38%,2.79%,Pacific Standard Time,79,40,39,47,21,31%,19%,29,38,77,81%,92%,65%,37.39,0.77,18.89,19.26%,5.27%,30.78%,160.1,34,6.4,15.0,87,6216,4.8,3.48,CA-76015,39.1506631,-120.1596782
Tahoe Vista,California,1120,412,Sacramento--Roseville--Arden-Arcade,2379368,$82634,54.18%,49,$495000,759,$652,44,75.18%,$1130,39.77%,N/A,N/A,3.13%,0.0%,66.56%,Placer County,39.50%,51.10%,0.0%,0.0%,83.3%,15.63%,15.36%,Pacific Standard Time,77,41,36,51,24,31%,19%,29,38,75,81%,92%,65%,27.98,1.48,13.56,20.82%,5.93%,32.78%,160.1,34,6.4,15.0,83,5811,4.8,2.72,CA-77700,39.2477932,-120.0532078
Tahoma,California,1035,400,Sacramento--Roseville--Arden-Arcade,2379368,$78125,46.39%,39,$980000,1510,$649,46,57.65%,$1404,53.47%,N/A,N/A,17.39%,4.46%,75.0%,El Dorado County,38.30%,51.80%,2.22%,0.68%,94.49%,2.03%,3.86%,Pacific Standard Time,78,38,40,47,22,31%,19%,29,38,76,81%,92%,65%,37.09,1.37,18.1,22.47%,6.81%,34.0%,160.1,34,6.4,15.0,81,5775,4.8,2.59,CA-77728,39.0639864,-120.1433904
University of California Davis,California,7221,4946,Sacramento--Roseville--Arden-Arcade,2379368,N/A,N/A,N/A,N/A,N/A,N/A,N/A,N/A,N/A,N/A,N/A,N/A,N/A,N/A,N/A,Yolo County,66.70%,25.30%,N/A,N/A,N/A,N/A,N/A,Pacific Standard Time,N/A,N/A,N/A,N/A,N/A,N/A,N/A,N/A,N/A,N/A,N/A,N/A,N/A,N/A,N/A,N/A,N/A,N/A,N/A,N/A,N/A,N/A,N/A,48,N/A,4.8,1.46,N/A,N/A,N/A
Vineyard,California,41505,2214,Sacramento--Roseville--Arden-Arcade,2379368,$100798,29.15%,36,$513000,1660,$309,21,74.43%,$1722,44.62%,N/A,N/A,12.71%,5.03%,64.24%,Sacramento County,58.00%,33.80%,38.13%,8.73%,25.71%,20.26%,28.45%,Pacific Standard Time,95,57,38,62,40,45%,30%,46,52,94,77%,96%,51%,17.61,0.15,9.43,15.59%,1.21%,30.33%,0.0,0,6.3,4.5,46,36,5.2,18.75,CA-82852,38.464488,-121.346917
Walnut Grove,California,1143,112,Sacramento--Roseville--Arden-Arcade,2379368,$56833,35.93%,33,N/A,N/A,N/A,61,52.95%,$1159,37.14%,N/A,N/A,12.69%,2.95%,67.61%,Sacramento County,58.00%,33.80%,3.24%,0.0%,44.18%,52.58%,26.77%,Pacific Standard Time,93,57,36,60,38,45%,28%,46,51,91,77%,96%,51%,17.17,0.17,9.33,13.62%,1.1%,26.78%,0.0,0,7.7,3.7,55,39,5.2,10.2,CA-83374,38.247771,-121.5279688
West Sacramento,California,53589,2496,Sacramento--Roseville--Arden-Arcade,2379368,$77393,30.36%,35,$475000,1448,$328,34,57.85%,$1234,47.72%,389,2948,14.28%,5.87%,66.51%,Yolo County,66.70%,25.30%,11.42%,4.65%,43.57%,33.27%,25.55%,Pacific Standard Time,93,57,36,60,38,45%,30%,46,52,91,77%,96%,51%,16.94,0.17,9.17,14.85%,1.1%,28.11%,0.0,0,6.3,4.5,30,15,4.8,21.47,CA-84816,38.5556694,-121.5504391
Wilton,California,6281,217,Sacramento--Roseville--Arden-Arcade,2379368,$149219,31.61%,48,$1020000,2779,$367,35,82.47%,$1627,42.63%,N/A,N/A,4.37%,4.52%,53.87%,Sacramento County,58.00%,33.80%,5.73%,1.16%,61.03%,31.46%,6.29%,Pacific Standard Time,95,57,38,62,40,45%,30%,46,52,94,77%,96%,51%,19.12,0.19,10.12,13.62%,1.1%,26.78%,0.0,0,6.3,4.5,61,60,5.2,29.0,CA-85880,38.4129759,-121.2127112
Winters,California,7138,2428,Sacramento--Roseville--Arden-Arcade,2379368,$90887,22.8%,37,$500000,1742,$287,38,65.63%,$1471,53.51%,149,1559,8.41%,2.85%,72.98%,Yolo County,66.70%,25.30%,0.04%,0.46%,46.43%,52.41%,18.56%,Pacific Standard Time,96,58,38,60,37,45%,30%,46,52,95,77%,96%,51%,21.45,0.14,13.22,18.93%,1.1%,38.78%,0.0,0,6.3,4.5,70,123,4.8,2.94,CA-86034,38.5319797,-121.9781405
Woodland,California,60977,3980,Sacramento--Roseville--Arden-Arcade,2379368,$78279,27.89%,36,$515000,1656,$311,40,53.93%,$1285,48.38%,366,2432,9.31%,4.33%,65.57%,Yolo County,66.70%,25.30%,8.55%,1.94%,36.36%,49.15%,22.87%,Pacific Standard Time,95,57,38,59,38,45%,30%,46,52,94,77%,96%,51%,17.49,0.19,9.88,14.05%,0.88%,28.33%,0.0,0,6.3,4.5,34,36,4.8,15.32,CA-86328,38.6711589,-121.7500471
Yolo,California,243,177,Sacramento--Roseville--Arden-Arcade,2379368,$85170,7.94%,45,N/A,N/A,N/A,61,94.39%,N/A,80.25%,N/A,N/A,0.0%,0.0%,61.73%,Yolo County,66.70%,25.30%,0.0%,0.0%,32.1%,67.9%,7.82%,Pacific Standard Time,95,57,38,59,38,45%,30%,46,52,94,77%,96%,51%,18.64,0.21,10.66,14.05%,0.88%,28.33%,0.0,0,6.3,4.5,38,60,4.8,1.37,CA-86804,38.7404635,-121.8093246
