City,State,Population,People per sq mi,Metro Name,Metro population,Median household income,% with at least Bachelor's degree,Median age,Median home price,Median home sqft,Median home cost per sqft,Median home age,Homeownership Rate,Avg Apartment Monthly Rent,Single Population,Num Violent Crimes Per 100k residents,Num Property Crimes Per 100k residents,Poverty Rate,Unemployment rate,Labor Force Participation rate,County,% Democrat,% Republican,% Asian,% Black,% Non-Hispanic White,% Hispanic,Foreign Born %,Timezone,Hottest month's avg high (F),Coldest month's avg high (F),Hottest high minus coldest high,Annual rainfall (in),Annual snowfall (in),Average yearly windspeed (mph),Air quality Index,Elevation (ft),UV Index,Land Area (sq mi),Fips Code,Latitude,Longitude,Annual Sunshine - Percentage of Possible,Summer Sunshine - Percentage of Possible,Winter Sunshine - Percentage of Possible,Annual Relative Humidity (afternoon),Summer Relative Humidity (afternoon),Number of days with thunder per year,Annual dew point (F),Average summer dew point (F),Hottest month's avg low (F),Coldest month's avg low (F),Summer rainfall (in),Winter rainfall (in),Percent of days that include precipitation,Percent of Summer days that include precipitation,Percent of Winter days that include precipitation,Days of snow per year,Hottest month's avg heat index high (F)
Alta,California,703,295,Sacramento--Roseville--Arden-Arcade,2110626,$84167,40.29%,55,$493000,1191,$414,39,92.22%,$1433,27.13%,N/A,N/A,5.97%,4.85%,64.58%,Placer County,39.50%,51.10%,2.42%,0.71%,94.88%,0.57%,7.11%,Pacific Standard Time,78,45,33,54.11,14.3,6.4,70,3036,4.8,2.38,CA-01276,39.2138028,-120.8032762,81%,92%,65%,31%,19%,15.0,29,38,63,33,0.68,26.66,19.51%,2.09%,33.56%,5,77
Antelope,California,48468,7086,Sacramento--Roseville--Arden-Arcade,2110626,$82095,24.84%,34,$460000,1494,$308,27,66.31%,$1712,46.41%,N/A,N/A,10.95%,5.58%,65.11%,Sacramento County,58.00%,33.80%,11.3%,8.74%,58.78%,15.88%,25.41%,Pacific Standard Time,95,57,38,18.72,0.0,6.3,26,87,5.2,6.84,CA-02210,38.7153282,-121.3609617,77%,96%,51%,45%,30%,4.5,46,52,62,40,0.24,9.83,16.58%,1.65%,30.89%,0,94
Arden-Arcade,California,93719,5894,Sacramento--Roseville--Arden-Arcade,2110626,$52694,37.15%,37,$478000,1517,$315,55,42.81%,$1147,55.65%,N/A,N/A,21.85%,8.32%,61.19%,Sacramento County,58.00%,33.80%,12.36%,8.75%,52.17%,20.71%,22.5%,Pacific Standard Time,95,57,38,19.97,0.0,6.3,23,87,5.2,15.9,CA-02553,38.6017222,-121.3844901,77%,96%,51%,45%,30%,4.5,46,52,62,40,0.21,10.64,15.59%,1.21%,30.33%,0,94
Auburn,California,14104,1964,Sacramento--Roseville--Arden-Arcade,2110626,$67282,40.4%,49,$527000,1602,$329,39,62.23%,$1176,46.44%,352,1668,12.07%,4.43%,55.78%,Placer County,39.50%,51.10%,1.3%,0.49%,83.4%,9.75%,9.12%,Pacific Standard Time,93,57,36,29.03,14.3,6.3,44,1182,4.8,7.18,CA-03204,38.8949201,-121.077712,77%,96%,51%,45%,30%,4.5,46,52,63,38,0.4,14.45,18.88%,2.31%,33.11%,5,92
Auburn Lake Trails,California,3495,275,Sacramento--Roseville--Arden-Arcade,2110626,$105368,35.99%,51,$570000,2365,$241,33,85.84%,$2193,35.99%,N/A,N/A,7.93%,5.84%,56.26%,El Dorado County,38.30%,51.80%,0.0%,0.0%,91.59%,4.66%,4.29%,Pacific Standard Time,93,57,36,42.0,14.3,6.3,60,1182,4.8,12.73,CA-03205,38.8916363,-120.9849499,77%,96%,51%,45%,30%,4.5,46,52,63,38,0.58,20.39,18.88%,2.31%,33.11%,5,92
Cameron Park,California,18370,1636,Sacramento--Roseville--Arden-Arcade,2110626,$77014,31.55%,45,$503000,1587,$317,34,65.83%,$1452,47.07%,N/A,N/A,7.88%,3.06%,56.71%,El Dorado County,38.30%,51.80%,3.46%,0.75%,74.92%,17.63%,9.21%,Pacific Standard Time,93,57,36,24.96,0.5,6.3,56,705,4.8,11.23,CA-10256,38.6736937,-120.9871956,77%,96%,51%,45%,30%,4.5,46,52,63,38,0.22,13.09,20.77%,3.19%,36.22%,0,92
Camino,California,2065,804,Sacramento--Roseville--Arden-Arcade,2110626,$109917,29.49%,50,$470000,1661,$283,47,70.94%,$1609,31.64%,N/A,N/A,7.22%,7.72%,56.89%,El Dorado County,38.30%,51.80%,2.57%,0.0%,87.46%,4.55%,1.16%,Pacific Standard Time,90,43,47,43.1,58.3,6.3,67,2661,4.8,2.57,CA-10270,38.742264,-120.6808084,77%,96%,51%,45%,30%,4.5,46,52,54,30,0.5,20.64,20.77%,3.19%,36.22%,15,88
Carmichael,California,75642,4934,Sacramento--Roseville--Arden-Arcade,2110626,$68227,33.07%,41,$523000,1720,$304,48,55.13%,$1226,52.44%,N/A,N/A,11.66%,6.01%,60.14%,Sacramento County,58.00%,33.80%,7.1%,4.97%,67.62%,14.49%,15.11%,Pacific Standard Time,95,57,38,19.6,0.0,6.3,31,120,5.2,15.33,CA-11390,38.6318334,-121.3262882,77%,96%,51%,45%,30%,4.5,46,52,62,40,0.17,10.17,16.58%,1.65%,30.89%,0,94
Carnelian Bay,California,565,435,Sacramento--Roseville--Arden-Arcade,2110626,$116591,53.24%,41,$2400000,3137,$765,47,81.42%,N/A,53.45%,N/A,N/A,3.72%,0.0%,67.17%,Placer County,39.50%,51.10%,6.19%,2.12%,69.2%,18.41%,10.8%,Pacific Standard Time,79,40,39,30.64,160.1,6.4,85,5697,4.8,1.3,CA-11418,39.2337216,-120.0763286,81%,92%,65%,31%,19%,15.0,29,38,47,21,0.85,15.48,20.82%,5.93%,32.78%,34,78
Citrus Heights,California,87665,6165,Sacramento--Roseville--Arden-Arcade,2110626,$65867,21.64%,38,$438000,1427,$307,44,58.8%,$1364,53.85%,353,2540,10.45%,5.98%,64.93%,Sacramento County,58.00%,33.80%,3.48%,3.55%,67.62%,19.93%,13.66%,Pacific Standard Time,95,57,38,22.49,0.0,6.3,34,144,5.2,14.22,CA-13588,38.6948116,-121.2879514,77%,96%,51%,45%,30%,4.5,46,52,62,40,0.24,11.48,16.58%,1.65%,30.89%,0,94
Clarksburg,California,366,180,Sacramento--Roseville--Arden-Arcade,2110626,$49783,21.03%,41,N/A,N/A,N/A,48,74.32%,N/A,22.14%,N/A,N/A,0.0%,15.64%,89.67%,Yolo County,66.70%,25.30%,1.91%,0.0%,66.39%,33.61%,0.0%,Pacific Standard Time,93,57,36,16.94,0.0,6.3,48,15,4.8,2.03,CA-13784,38.4193356,-121.5416175,77%,96%,51%,45%,30%,4.5,46,52,60,38,0.17,9.17,14.85%,1.1%,28.11%,0,92
Clay,California,1130,167,Sacramento--Roseville--Arden-Arcade,2110626,$89792,23.88%,45,N/A,N/A,N/A,33,86.73%,N/A,37.71%,N/A,N/A,3.51%,0.41%,51.93%,Sacramento County,58.00%,33.80%,3.81%,0.0%,65.66%,26.28%,16.64%,Pacific Standard Time,94,56,38,15.97,0.0,6.3,61,81,5.2,6.76,CA-13854,38.3140386,-121.1595888,77%,96%,51%,45%,30%,4.5,46,52,63,38,0.12,8.38,13.62%,1.1%,26.78%,0,93
Colfax,California,2258,1601,Sacramento--Roseville--Arden-Arcade,2110626,$62295,14.79%,36,$600000,1974,$304,32,54.25%,$1270,56.09%,N/A,N/A,13.42%,6.22%,60.93%,Placer County,39.50%,51.10%,0.0%,3.32%,78.92%,13.77%,0.97%,Pacific Standard Time,94,54,40,40.99,14.3,6.3,64,2175,4.8,1.41,CA-14498,39.0938,-120.9532219,77%,96%,51%,45%,30%,4.5,46,52,63,36,0.49,19.6,18.88%,2.31%,33.11%,5,93
Coloma,California,390,116,Sacramento--Roseville--Arden-Arcade,2110626,$90250,32.55%,50,N/A,N/A,N/A,38,52.66%,N/A,57.44%,N/A,N/A,15.64%,16.87%,83.59%,El Dorado County,38.30%,51.80%,0.0%,0.0%,96.92%,0.26%,0.0%,Pacific Standard Time,92,51,41,40.18,58.3,6.3,63,1830,4.8,3.36,CA-14764,38.8026174,-120.8946349,77%,96%,51%,45%,30%,4.5,46,52,63,35,0.48,19.17,20.77%,3.19%,36.22%,15,90
Courtland,California,473,263,Sacramento--Roseville--Arden-Arcade,2110626,$59302,46.6%,54,N/A,N/A,N/A,61,64.69%,N/A,16.54%,N/A,N/A,2.11%,0.0%,64.92%,Sacramento County,58.00%,33.80%,1.69%,0.0%,54.33%,43.97%,32.98%,Pacific Standard Time,93,57,36,16.94,0.0,6.3,55,15,5.2,1.8,CA-16714,38.3329109,-121.5570253,77%,96%,51%,45%,30%,4.5,46,52,60,38,0.17,9.17,14.85%,1.1%,28.11%,0,92
Davis,California,68640,6885,Sacramento--Roseville--Arden-Arcade,2110626,$75394,74.63%,26,$815000,1836,$444,39,43.31%,$1659,62.36%,153,3139,27.78%,6.34%,57.34%,Yolo County,66.70%,25.30%,23.28%,2.53%,53.91%,13.13%,20.82%,Pacific Standard Time,94,57,37,17.31,0.0,6.3,36,39,4.8,9.97,CA-18100,38.5552758,-121.7370497,77%,96%,51%,45%,30%,4.5,46,52,58,38,0.21,9.94,14.14%,1.21%,28.56%,0,93
Diamond Springs,California,11332,681,Sacramento--Roseville--Arden-Arcade,2110626,$56899,22.17%,49,$490000,1696,$289,41,72.55%,$1419,42.31%,N/A,N/A,10.39%,6.96%,52.66%,El Dorado County,38.30%,51.80%,3.16%,0.39%,79.11%,14.77%,7.28%,Pacific Standard Time,92,51,41,33.0,0.5,6.3,62,1605,4.8,16.64,CA-19220,38.6920393,-120.839069,77%,96%,51%,45%,30%,4.5,46,52,63,35,0.36,16.06,20.77%,3.19%,36.22%,0,90
Dollar Point,California,909,554,Sacramento--Roseville--Arden-Arcade,2110626,$82617,46.38%,49,$535000,778,$688,45,66.12%,$1123,38.24%,N/A,N/A,1.32%,0.0%,72.89%,Placer County,39.50%,51.10%,2.53%,8.58%,87.13%,2.53%,4.95%,Pacific Standard Time,79,40,39,30.64,160.1,6.4,86,5697,4.8,1.64,CA-19455,39.189919,-120.1082597,81%,92%,65%,31%,19%,15.0,29,38,47,21,0.85,15.48,20.82%,5.93%,32.78%,34,78
Dunnigan,California,1391,266,Sacramento--Roseville--Arden-Arcade,2110626,$41625,25.57%,45,N/A,N/A,N/A,27,65.78%,$584,57.27%,N/A,N/A,9.27%,6.09%,46.11%,Yolo County,66.70%,25.30%,2.52%,6.61%,51.91%,40.62%,21.35%,Pacific Standard Time,95,57,38,18.64,0.0,6.3,38,60,4.8,5.23,CA-20228,38.892643,-121.974186,77%,96%,51%,45%,30%,4.5,46,52,59,38,0.21,10.66,14.05%,0.88%,28.33%,0,94
Dutch Flat,California,133,225,Sacramento--Roseville--Arden-Arcade,2110626,$40625,17.27%,59,N/A,N/A,N/A,79,72.18%,N/A,68.55%,N/A,N/A,15.79%,16.67%,67.74%,Placer County,39.50%,51.10%,0.0%,0.0%,100.0%,0.0%,0.0%,Pacific Standard Time,78,45,33,54.11,14.3,6.3,70,3036,4.8,0.59,CA-20298,39.208008,-120.8344755,77%,96%,51%,45%,30%,4.5,46,52,63,33,0.68,26.66,19.51%,2.09%,33.56%,5,77
El Dorado Hills,California,47107,972,Sacramento--Roseville--Arden-Arcade,2110626,$132130,54.33%,45,$895000,2594,$345,20,86.64%,$1915,33.08%,N/A,N/A,4.14%,3.19%,59.26%,El Dorado County,38.30%,51.80%,11.35%,1.65%,72.17%,8.11%,12.59%,Pacific Standard Time,93,57,36,24.96,0.5,6.3,59,705,4.8,48.46,CA-21880,38.6750068,-121.0489549,77%,96%,51%,45%,30%,4.5,46,52,63,38,0.22,13.09,20.77%,3.19%,36.22%,0,92
Elk Grove,California,173370,4129,Sacramento--Roseville--Arden-Arcade,2110626,$101776,36.74%,38,$597000,1889,$316,21,74.02%,$1734,43.96%,211,1480,7.97%,5.54%,64.81%,Sacramento County,58.00%,33.80%,28.92%,10.98%,33.52%,19.03%,24.18%,Pacific Standard Time,93,57,36,16.94,0.0,6.3,38,15,5.2,41.99,CA-22020,38.4160498,-121.3841526,77%,96%,51%,45%,30%,4.5,46,52,60,38,0.17,9.17,14.85%,1.1%,28.11%,0,92
Elverta,California,5235,592,Sacramento--Roseville--Arden-Arcade,2110626,$77746,16.94%,42,$645000,1688,$382,38,80.91%,$1531,50.93%,N/A,N/A,13.64%,5.86%,56.37%,Sacramento County,58.00%,33.80%,4.83%,2.71%,69.84%,17.33%,9.99%,Pacific Standard Time,94,56,38,18.72,0.0,6.3,37,87,5.2,8.84,CA-22524,38.718462,-121.4454759,77%,96%,51%,45%,30%,4.5,46,52,60,37,0.24,9.83,17.37%,1.1%,33.33%,0,93
Esparto,California,4009,872,Sacramento--Roseville--Arden-Arcade,2110626,$81181,19.43%,30,$365000,1667,$219,32,70.57%,$1249,35.78%,N/A,N/A,12.47%,3.19%,70.45%,Yolo County,66.70%,25.30%,1.72%,0.0%,48.32%,47.29%,20.38%,Pacific Standard Time,96,58,38,21.45,0.0,6.3,73,123,4.8,4.6,CA-22846,38.6934108,-122.0240467,77%,96%,51%,45%,30%,4.5,46,52,60,37,0.14,13.22,18.93%,1.1%,38.78%,0,96
Fair Oaks,California,30882,2838,Sacramento--Roseville--Arden-Arcade,2110626,$89217,47.13%,47,$600000,1786,$336,44,71.45%,$1426,45.73%,N/A,N/A,8.17%,4.47%,62.37%,Sacramento County,58.00%,33.80%,6.25%,2.17%,72.1%,13.65%,10.26%,Pacific Standard Time,95,57,38,19.6,0.0,6.3,42,120,5.2,10.88,CA-23294,38.6504123,-121.2496598,77%,96%,51%,45%,30%,4.5,46,52,62,40,0.17,10.17,16.58%,1.65%,30.89%,0,94
Florin,California,48839,5607,Sacramento--Roseville--Arden-Arcade,2110626,$47125,12.4%,35,$438000,1427,$307,37,53.8%,$1205,55.08%,N/A,N/A,23.59%,11.16%,56.49%,Sacramento County,58.00%,33.80%,35.87%,10.18%,16.12%,29.2%,33.49%,Pacific Standard Time,95,57,38,18.93,0.0,6.3,35,30,5.2,8.71,CA-24498,38.4832107,-121.4042718,77%,96%,51%,45%,30%,4.5,46,52,62,40,0.17,10.26,15.59%,1.21%,30.33%,0,94
Folsom,California,79584,2855,Sacramento--Roseville--Arden-Arcade,2110626,$118006,50.23%,40,$725000,2048,$354,25,72.27%,$1818,42.23%,102,1856,5.01%,3.9%,62.07%,Sacramento County,58.00%,33.80%,16.83%,4.25%,57.34%,15.69%,16.57%,Pacific Standard Time,95,57,38,22.54,0.5,6.3,53,330,5.2,27.88,CA-24638,38.6667524,-121.1421575,77%,96%,51%,45%,30%,4.5,46,52,62,40,0.21,11.28,16.58%,1.65%,30.89%,0,94
Foothill Farms,California,35711,8503,Sacramento--Roseville--Arden-Arcade,2110626,$55474,15.58%,33,$397000,1302,$305,44,48.16%,$1267,56.27%,N/A,N/A,18.19%,8.11%,60.21%,Sacramento County,58.00%,33.80%,8.45%,12.74%,49.25%,23.88%,23.66%,Pacific Standard Time,95,57,38,19.97,0.0,6.3,21,87,5.2,4.2,CA-24722,38.6867328,-121.347477,77%,96%,51%,45%,30%,4.5,46,52,62,40,0.21,10.64,16.58%,1.65%,30.89%,0,94
Foresthill,California,1545,138,Sacramento--Roseville--Arden-Arcade,2110626,$34821,16.93%,51,$610000,2148,$284,34,70.87%,N/A,22.51%,N/A,N/A,15.21%,10.23%,57.49%,Placer County,39.50%,51.10%,0.0%,0.0%,75.66%,24.34%,0.0%,Pacific Standard Time,92,51,41,53.46,14.3,6.3,67,2757,4.8,11.19,CA-24834,39.0052869,-120.8313516,77%,96%,51%,45%,30%,4.5,46,52,63,35,0.62,26.03,18.88%,2.31%,33.11%,5,90
Franklin (Sacramento Cnty),California,26,12,Sacramento--Roseville--Arden-Arcade,2110626,$24531,19.23%,68,$485000,1322,$367,42,61.54%,N/A,38.46%,N/A,N/A,19.23%,0.0%,19.23%,Sacramento County,58.00%,33.80%,0.0%,0.0%,100.0%,0.0%,0.0%,Pacific Standard Time,93,57,36,16.94,0.0,6.3,45,15,5.2,2.11,CA-25506,38.3675219,-121.4616288,77%,96%,51%,45%,30%,4.5,46,52,60,38,0.17,9.17,14.85%,1.1%,28.11%,0,92
Freeport,California,70,1400,Sacramento--Roseville--Arden-Arcade,2110626,$46250,0.0%,56,N/A,N/A,N/A,38,0.0%,N/A,32.86%,N/A,N/A,0.0%,0.0%,100.0%,Sacramento County,58.00%,33.80%,0.0%,0.0%,100.0%,0.0%,0.0%,Pacific Standard Time,93,57,36,16.94,0.0,6.3,55,15,4.8,0.05,CA-25590,38.4629356,-121.5021071,77%,96%,51%,45%,30%,4.5,46,52,60,38,0.17,9.17,14.85%,1.1%,28.11%,0,92
Fruitridge Pocket,California,5771,9781,Sacramento--Roseville--Arden-Arcade,2110626,$31188,11.99%,37,$225000,1154,$195,63,36.14%,$998,67.62%,N/A,N/A,37.36%,17.99%,44.45%,Sacramento County,58.00%,33.80%,22.34%,20.98%,15.42%,36.96%,25.96%,Pacific Standard Time,95,57,38,18.93,0.0,6.3,18,30,5.2,0.59,CA-27130,38.5326131,-121.4558066,77%,96%,51%,45%,30%,4.5,46,52,62,40,0.17,10.26,15.59%,1.21%,30.33%,0,94
Galt,California,26235,3669,Sacramento--Roseville--Arden-Arcade,2110626,$73969,19.42%,38,$527000,1684,$313,27,74.47%,$1198,43.13%,287,1675,8.92%,6.71%,64.09%,Sacramento County,58.00%,33.80%,4.25%,1.29%,46.2%,44.3%,18.69%,Pacific Standard Time,93,57,36,15.97,0.0,7.7,45,81,5.2,7.15,CA-28112,38.2697754,-121.300423,77%,96%,51%,45%,28%,3.7,46,51,60,38,0.12,8.38,13.62%,1.1%,26.78%,0,91
Georgetown,California,2969,196,Sacramento--Roseville--Arden-Arcade,2110626,$77389,21.93%,56,$306000,1302,$235,51,84.68%,$1514,45.25%,N/A,N/A,5.78%,20.13%,43.71%,El Dorado County,38.30%,51.80%,2.02%,0.27%,79.93%,16.1%,3.6%,Pacific Standard Time,92,51,41,51.71,58.3,6.3,66,2745,4.8,15.13,CA-29350,38.9111707,-120.8356333,77%,96%,51%,45%,30%,4.5,46,52,63,35,0.61,24.32,18.88%,2.31%,33.11%,15,90
Gold River,California,7930,2981,Sacramento--Roseville--Arden-Arcade,2110626,$131164,69.33%,54,$637000,2035,$313,30,91.08%,$1766,33.96%,N/A,N/A,2.88%,5.72%,58.59%,Sacramento County,58.00%,33.80%,23.93%,0.74%,65.98%,6.0%,19.29%,Pacific Standard Time,95,57,38,19.6,0.0,6.3,41,120,5.2,2.66,CA-30345,38.6267744,-121.2487365,77%,96%,51%,45%,30%,4.5,46,52,62,40,0.17,10.17,16.58%,1.65%,30.89%,0,94
Granite Bay,California,22818,1059,Sacramento--Roseville--Arden-Arcade,2110626,$170504,56.73%,46,$1000000,2653,$377,35,92.51%,$2028,32.7%,N/A,N/A,3.46%,2.54%,60.54%,Placer County,39.50%,51.10%,7.48%,3.16%,75.74%,9.73%,11.08%,Pacific Standard Time,93,57,36,22.49,0.0,6.3,51,144,4.8,21.55,CA-30693,38.7600594,-121.1714266,77%,96%,51%,45%,30%,4.5,46,52,63,38,0.24,11.48,16.58%,1.65%,30.89%,0,92
Grizzly Flats,California,1382,208,Sacramento--Roseville--Arden-Arcade,2110626,$52639,22.59%,46,$368000,1658,$222,26,88.35%,N/A,21.16%,N/A,N/A,8.18%,12.52%,48.6%,El Dorado County,38.30%,51.80%,0.0%,0.0%,87.41%,0.22%,1.23%,Pacific Standard Time,90,43,47,53.53,58.3,6.3,72,3156,4.8,6.63,CA-31302,38.6356962,-120.5354311,77%,96%,51%,45%,30%,4.5,46,52,54,30,0.72,25.25,22.19%,3.52%,36.67%,15,88
Guinda,California,113,39,Sacramento--Roseville--Arden-Arcade,2110626,$77596,27.91%,31,N/A,N/A,N/A,51,52.21%,N/A,40.7%,N/A,N/A,47.79%,0.0%,11.63%,Yolo County,66.70%,25.30%,0.0%,0.0%,61.06%,0.0%,0.0%,Pacific Standard Time,85,53,32,35.61,0.3,6.3,73,1569,4.8,2.93,CA-31540,38.8273744,-122.1983596,77%,96%,51%,45%,30%,4.5,46,52,54,39,0.28,20.5,19.95%,1.21%,40.22%,0,83
Herald,California,1049,133,Sacramento--Roseville--Arden-Arcade,2110626,$71979,17.91%,59,N/A,N/A,N/A,42,87.83%,N/A,38.41%,N/A,N/A,11.73%,6.31%,44.72%,Sacramento County,58.00%,33.80%,1.81%,9.15%,67.21%,17.25%,7.44%,Pacific Standard Time,93,57,36,15.97,0.0,7.7,58,81,5.2,7.88,CA-33294,38.2912975,-121.2318135,77%,96%,51%,45%,28%,3.7,46,51,60,38,0.12,8.38,13.62%,1.1%,26.78%,0,91
Hood,California,289,903,Sacramento--Roseville--Arden-Arcade,2110626,$58571,0.0%,45,$415000,1590,$261,39,82.7%,N/A,73.77%,N/A,N/A,5.19%,11.11%,55.33%,Sacramento County,58.00%,33.80%,0.0%,0.0%,6.92%,85.47%,7.61%,Pacific Standard Time,93,57,36,16.94,0.0,6.3,55,15,5.2,0.32,CA-34484,38.3692915,-121.5154881,77%,96%,51%,45%,30%,4.5,46,52,60,38,0.17,9.17,14.85%,1.1%,28.11%,0,92
Isleton,California,495,1125,Sacramento--Roseville--Arden-Arcade,2110626,$34500,3.94%,44,$385000,1119,$344,60,60.2%,$1087,52.01%,824,471,14.55%,3.63%,58.69%,Sacramento County,58.00%,33.80%,2.63%,0.0%,52.32%,40.2%,19.19%,Pacific Standard Time,92,57,35,12.88,0.0,7.7,60,54,5.2,0.44,CA-36882,38.1617118,-121.605259,77%,96%,51%,45%,28%,3.7,46,51,60,41,0.22,6.96,13.62%,1.1%,26.78%,0,90
Kings Beach,California,2826,988,Sacramento--Roseville--Arden-Arcade,2110626,$50134,30.49%,38,$1125000,1829,$615,44,60.19%,$1283,59.32%,N/A,N/A,15.15%,1.5%,82.54%,Placer County,39.50%,51.10%,1.66%,0.0%,61.82%,35.28%,19.82%,Pacific Standard Time,77,41,36,27.98,160.1,6.4,81,5811,4.8,2.86,CA-38548,39.2449928,-120.0202688,81%,92%,65%,31%,19%,15.0,29,38,51,24,1.48,13.56,20.82%,5.93%,32.78%,34,76
Knights Landing,California,981,1817,Sacramento--Roseville--Arden-Arcade,2110626,$37545,8.47%,39,N/A,N/A,N/A,48,64.12%,$1132,36.51%,N/A,N/A,24.57%,21.99%,48.16%,Yolo County,66.70%,25.30%,0.0%,0.0%,9.17%,90.83%,35.47%,Pacific Standard Time,95,57,38,18.64,0.0,6.3,38,60,4.8,0.54,CA-38800,38.7979718,-121.7174474,77%,96%,51%,45%,30%,4.5,46,52,59,38,0.21,10.66,14.05%,0.88%,28.33%,0,94
La Riviera,California,11570,6089,Sacramento--Roseville--Arden-Arcade,2110626,$70855,30.44%,34,$459000,1561,$294,46,56.87%,$1401,56.32%,N/A,N/A,9.77%,3.75%,67.85%,Sacramento County,58.00%,33.80%,8.73%,13.66%,50.3%,20.37%,10.7%,Pacific Standard Time,95,57,38,19.12,0.0,6.3,29,60,5.2,1.9,CA-40410,38.5682464,-121.3544337,77%,96%,51%,45%,30%,4.5,46,52,62,40,0.19,10.12,15.59%,1.21%,30.33%,0,94
Lemon Hill,California,15104,9210,Sacramento--Roseville--Arden-Arcade,2110626,$41534,6.0%,30,$360000,1023,$352,57,31.6%,$1039,56.17%,N/A,N/A,31.33%,9.61%,59.83%,Sacramento County,58.00%,33.80%,22.1%,7.32%,14.78%,45.33%,34.68%,Pacific Standard Time,93,57,36,16.94,0.0,6.3,26,15,5.2,1.64,CA-41142,38.5172316,-121.457279,77%,96%,51%,45%,30%,4.5,46,52,60,38,0.17,9.17,14.85%,1.1%,28.11%,0,92
Lincoln,California,48150,1992,Sacramento--Roseville--Arden-Arcade,2110626,$88991,35.26%,44,$609000,1909,$319,16,80.51%,$1837,37.48%,65,962,6.63%,3.13%,54.85%,Placer County,39.50%,51.10%,6.99%,1.27%,69.43%,18.41%,12.3%,Pacific Standard Time,93,57,36,21.39,0.0,6.3,41,120,4.8,24.17,CA-41474,38.8773871,-121.2937281,77%,96%,51%,45%,30%,4.5,46,52,63,38,0.27,10.93,13.62%,0.77%,28.44%,0,92
Loomis,California,6802,936,Sacramento--Roseville--Arden-Arcade,2110626,$68809,31.94%,48,$825000,1901,$434,39,76.59%,$1459,43.57%,N/A,N/A,10.67%,1.99%,54.55%,Placer County,39.50%,51.10%,1.97%,0.56%,82.43%,10.13%,0.29%,Pacific Standard Time,93,57,36,28.75,0.0,6.3,41,558,4.8,7.27,CA-43140,38.8093713,-121.1954696,77%,96%,51%,45%,30%,4.5,46,52,63,38,0.38,14.7,16.58%,1.65%,30.89%,0,92
Madison,California,502,324,Sacramento--Roseville--Arden-Arcade,2110626,$42985,0.27%,53,N/A,N/A,N/A,71,69.22%,N/A,36.56%,N/A,N/A,16.53%,0.0%,32.78%,Yolo County,66.70%,25.30%,0.2%,0.2%,0.6%,99.0%,56.37%,Pacific Standard Time,95,57,38,18.64,0.0,6.3,73,60,4.8,1.55,CA-45064,38.6749882,-121.9702534,77%,96%,51%,45%,30%,4.5,46,52,59,38,0.21,10.66,14.05%,0.88%,28.33%,0,94
McClellan Park,California,843,207,Sacramento--Roseville--Arden-Arcade,2110626,$29474,22.37%,35,N/A,N/A,N/A,35,0.0%,$1158,65.07%,N/A,N/A,55.04%,8.9%,36.57%,Sacramento County,58.00%,33.80%,10.79%,21.23%,42.59%,19.45%,9.49%,Pacific Standard Time,95,57,38,19.97,0.0,6.3,25,87,5.2,4.07,CA-44760,38.6628976,-121.4016555,77%,96%,51%,45%,30%,4.5,46,52,62,40,0.21,10.64,16.58%,1.65%,30.89%,0,94
Meadow Vista,California,3508,664,Sacramento--Roseville--Arden-Arcade,2110626,$83627,36.01%,49,$1325000,3829,$346,45,86.46%,$1964,35.78%,N/A,N/A,0.95%,4.78%,55.61%,Placer County,39.50%,51.10%,1.34%,0.0%,87.69%,6.98%,3.16%,Pacific Standard Time,93,57,36,42.0,14.3,6.3,54,1812,4.8,5.28,CA-46632,39.0029371,-121.0303802,77%,96%,51%,45%,30%,4.5,46,52,63,38,0.58,20.39,18.88%,2.31%,33.11%,5,92
Monument Hills,California,1354,339,Sacramento--Roseville--Arden-Arcade,2110626,$208929,53.15%,43,$733000,3702,$198,18,92.84%,N/A,20.86%,N/A,N/A,0.0%,0.0%,67.61%,Yolo County,66.70%,25.30%,1.7%,0.0%,73.34%,24.96%,10.86%,Pacific Standard Time,95,57,38,18.64,0.0,6.3,49,60,4.8,3.99,CA-49045,38.664106,-121.8753892,77%,96%,51%,45%,30%,4.5,46,52,59,38,0.21,10.66,14.05%,0.88%,28.33%,0,94
Newcastle,California,1360,569,Sacramento--Roseville--Arden-Arcade,2110626,$87050,26.17%,43,N/A,N/A,N/A,45,95.33%,N/A,53.55%,N/A,N/A,6.03%,3.2%,46.54%,Placer County,39.50%,51.10%,0.66%,0.0%,74.26%,19.78%,3.46%,Pacific Standard Time,93,57,36,29.03,0.0,6.3,49,732,4.8,2.39,CA-51000,38.8676642,-121.1318217,77%,96%,51%,45%,30%,4.5,46,52,63,38,0.4,14.45,16.58%,1.65%,30.89%,0,92
North Auburn,California,14446,1854,Sacramento--Roseville--Arden-Arcade,2110626,$65884,24.4%,44,$490000,1701,$288,41,61.39%,$1323,48.58%,N/A,N/A,11.24%,2.38%,51.09%,Placer County,39.50%,51.10%,3.27%,0.67%,69.76%,21.37%,11.34%,Pacific Standard Time,93,57,36,29.03,14.3,6.3,49,1182,4.8,7.79,CA-51637,38.9305712,-121.0820795,77%,96%,51%,45%,30%,4.5,46,52,63,38,0.4,14.45,18.88%,2.31%,33.11%,5,92
North Highlands,California,48660,5523,Sacramento--Roseville--Arden-Arcade,2110626,$50816,13.45%,33,$376000,1143,$329,51,46.51%,$1201,53.35%,N/A,N/A,21.59%,4.73%,59.91%,Sacramento County,58.00%,33.80%,7.37%,11.2%,47.56%,28.3%,26.14%,Pacific Standard Time,95,57,38,19.97,0.0,6.3,22,87,5.2,8.81,CA-51924,38.6713235,-121.3721345,77%,96%,51%,45%,30%,4.5,46,52,62,40,0.21,10.64,16.58%,1.65%,30.89%,0,94
Orangevale,California,35030,3059,Sacramento--Roseville--Arden-Arcade,2110626,$78071,29.78%,41,$490000,1416,$346,44,74.42%,$1496,49.62%,N/A,N/A,8.74%,5.34%,63.35%,Sacramento County,58.00%,33.80%,2.56%,1.66%,75.14%,13.55%,8.99%,Pacific Standard Time,95,57,38,22.49,0.0,6.3,42,144,5.2,11.45,CA-54092,38.6880946,-121.2208686,77%,96%,51%,45%,30%,4.5,46,52,62,40,0.24,11.48,16.58%,1.65%,30.89%,0,94
Parkway,California,16282,6756,Sacramento--Roseville--Arden-Arcade,2110626,$50293,11.24%,31,$400000,1286,$311,55,45.2%,$1167,56.38%,N/A,N/A,21.89%,11.82%,60.01%,Sacramento County,58.00%,33.80%,16.5%,16.36%,17.38%,42.91%,26.53%,Pacific Standard Time,93,57,36,16.94,0.0,6.3,26,15,5.2,2.41,CA-55800,38.4992934,-121.4520124,77%,96%,51%,45%,30%,4.5,46,52,60,38,0.17,9.17,14.85%,1.1%,28.11%,0,92
Penryn,California,878,462,Sacramento--Roseville--Arden-Arcade,2110626,$94091,23.96%,50,$803000,1881,$427,44,88.27%,$1427,48.97%,N/A,N/A,7.4%,10.88%,56.83%,Placer County,39.50%,51.10%,1.37%,0.91%,68.56%,23.12%,8.31%,Pacific Standard Time,93,57,36,28.75,0.0,6.3,43,558,4.8,1.9,CA-56546,38.8482184,-121.1698085,77%,96%,51%,45%,30%,4.5,46,52,63,38,0.38,14.7,16.58%,1.65%,30.89%,0,92
Placerville,California,10954,1876,Sacramento--Roseville--Arden-Arcade,2110626,$60334,26.28%,44,$505000,1718,$294,45,63.05%,$1148,52.6%,350,2526,14.99%,4.36%,57.58%,El Dorado County,38.30%,51.80%,0.82%,0.81%,75.55%,19.99%,6.61%,Pacific Standard Time,92,51,41,39.23,0.5,6.3,61,1863,4.8,5.84,CA-57540,38.7307832,-120.7978676,77%,96%,51%,45%,30%,4.5,46,52,63,35,0.5,18.79,20.77%,3.19%,36.22%,0,90
Pollock Pines,California,6480,752,Sacramento--Roseville--Arden-Arcade,2110626,$56628,25.41%,46,$375000,1374,$273,41,75.17%,$1025,41.45%,N/A,N/A,25.46%,2.97%,49.97%,El Dorado County,38.30%,51.80%,0.88%,0.68%,87.92%,9.43%,2.9%,Pacific Standard Time,90,43,47,50.21,58.3,6.3,70,3561,4.8,8.62,CA-58030,38.7574803,-120.5920537,77%,96%,51%,45%,30%,4.5,46,52,54,30,0.65,22.08,22.19%,3.52%,36.67%,15,88
Rancho Cordova,California,74394,2152,Sacramento--Roseville--Arden-Arcade,2110626,$69963,27.44%,34,$523000,1785,$293,42,56.44%,$1327,49.88%,296,1874,11.55%,7.02%,66.62%,Sacramento County,58.00%,33.80%,13.7%,10.62%,48.99%,20.65%,24.54%,Pacific Standard Time,95,57,38,19.12,0.0,6.3,39,60,5.2,34.57,CA-59444,38.57367,-121.2527356,77%,96%,51%,45%,30%,4.5,46,52,62,40,0.19,10.12,16.58%,1.65%,30.89%,0,94
Rancho Murieta,California,5682,478,Sacramento--Roseville--Arden-Arcade,2110626,$111827,49.95%,53,$699000,2138,$327,32,92.38%,$2132,39.54%,N/A,N/A,3.71%,2.76%,54.31%,Sacramento County,58.00%,33.80%,3.66%,4.0%,73.76%,15.54%,7.74%,Pacific Standard Time,94,56,38,22.54,0.5,6.3,68,330,5.2,11.88,CA-59506,38.5085326,-121.0715857,77%,96%,51%,45%,30%,4.5,46,52,63,38,0.21,11.28,16.58%,1.65%,30.89%,0,93
Rio Linda,California,16115,1623,Sacramento--Roseville--Arden-Arcade,2110626,$72361,13.89%,38,$385000,1110,$347,47,70.27%,$1322,48.2%,N/A,N/A,15.56%,5.27%,58.63%,Sacramento County,58.00%,33.80%,7.81%,1.46%,66.45%,20.3%,13.61%,Pacific Standard Time,94,56,38,19.97,0.0,6.3,32,87,5.2,9.93,CA-60942,38.6875014,-121.4416816,77%,96%,51%,45%,30%,4.5,46,52,60,37,0.21,10.64,16.58%,1.65%,30.89%,0,93
Rocklin,California,67070,3386,Sacramento--Roseville--Arden-Arcade,2110626,$100664,46.92%,37,$640000,1928,$332,23,70.29%,$1740,42.69%,97,1433,5.68%,4.64%,64.77%,Placer County,39.50%,51.10%,10.66%,1.86%,67.98%,13.6%,12.25%,Pacific Standard Time,93,57,36,21.39,0.0,6.3,41,120,4.8,19.81,CA-62364,38.8075377,-121.2488549,77%,96%,51%,45%,30%,4.5,46,52,63,38,0.27,10.93,16.58%,1.65%,30.89%,0,92
Rosemont,California,23755,5411,Sacramento--Roseville--Arden-Arcade,2110626,$73166,30.32%,35,$459000,1605,$286,44,53.84%,$1415,58.22%,N/A,N/A,13.71%,5.77%,66.73%,Sacramento County,58.00%,33.80%,13.38%,13.73%,43.46%,20.88%,15.4%,Pacific Standard Time,95,57,38,19.12,0.0,6.3,29,60,5.2,4.39,CA-62910,38.5477288,-121.3553715,77%,96%,51%,45%,30%,4.5,46,52,62,40,0.19,10.12,15.59%,1.21%,30.33%,0,94
Roseville,California,138860,3150,Sacramento--Roseville--Arden-Arcade,2110626,$95519,43.52%,39,$610000,1943,$314,24,70.68%,$1678,44.67%,182,2225,7.5%,4.96%,63.86%,Placer County,39.50%,51.10%,11.83%,1.87%,66.44%,15.58%,13.66%,Pacific Standard Time,94,56,38,18.72,0.0,6.3,41,87,4.8,44.08,CA-62938,38.7702887,-121.3196429,77%,96%,51%,45%,30%,4.5,46,52,60,37,0.24,9.83,16.58%,1.65%,30.89%,0,93
Sacramento,California,503482,5106,Sacramento--Roseville--Arden-Arcade,2110626,$65847,34.32%,35,$464000,1450,$320,45,52.33%,$1328,56.21%,627,3182,15.68%,6.67%,64.44%,Sacramento County,58.00%,33.80%,19.29%,13.48%,31.97%,28.29%,21.33%,Pacific Standard Time,95,57,38,18.93,0.0,6.3,24,30,5.2,98.61,CA-64000,38.5676634,-121.4685298,77%,96%,51%,45%,30%,4.5,46,52,62,40,0.17,10.26,15.59%,1.21%,30.33%,0,94
Sheridan,California,1120,44,Sacramento--Roseville--Arden-Arcade,2110626,$48698,23.78%,39,$633000,1416,$447,52,54.64%,$1302,39.46%,N/A,N/A,2.86%,10.0%,54.18%,Placer County,39.50%,51.10%,0.0%,0.0%,82.68%,14.2%,15.0%,Pacific Standard Time,97,56,41,17.36,0.0,6.3,44,39,4.8,25.53,CA-71414,38.9694817,-121.3551861,77%,96%,51%,45%,30%,4.5,46,52,62,37,0.21,9.25,13.62%,0.77%,28.44%,0,97
Shingle Springs,California,3710,452,Sacramento--Roseville--Arden-Arcade,2110626,$83700,29.93%,48,$770000,2232,$345,36,69.98%,$1120,34.99%,N/A,N/A,6.74%,0.0%,53.83%,El Dorado County,38.30%,51.80%,2.26%,0.51%,86.23%,7.76%,5.58%,Pacific Standard Time,93,57,36,33.0,0.5,6.3,63,1605,4.8,8.2,CA-71554,38.6665533,-120.9370238,77%,96%,51%,45%,30%,4.5,46,52,63,38,0.36,16.06,20.77%,3.19%,36.22%,0,92
South Lake Tahoe,California,22535,2211,Sacramento--Roseville--Arden-Arcade,2110626,$52871,27.39%,39,$699000,1472,$475,49,40.38%,$1092,57.11%,501,2030,11.64%,4.86%,69.68%,El Dorado County,38.30%,51.80%,6.17%,0.81%,61.72%,28.17%,19.82%,Pacific Standard Time,81,43,38,19.85,22.9,6.4,82,5775,4.8,10.19,CA-73108,38.9392855,-119.9827187,81%,92%,65%,31%,19%,15.0,29,38,44,19,1.1,9.06,21.1%,7.03%,30.44%,7,79
Sunnyside-Tahoe City,California,1576,453,Sacramento--Roseville--Arden-Arcade,2110626,$105667,61.87%,38,$1413000,1925,$734,50,90.08%,$1055,39.01%,N/A,N/A,4.89%,0.0%,74.56%,Placer County,39.50%,51.10%,2.47%,0.0%,90.1%,3.49%,2.66%,Pacific Standard Time,79,40,39,37.39,160.1,6.4,87,6216,4.8,3.48,CA-76015,39.1506631,-120.1596782,81%,92%,65%,31%,19%,15.0,29,38,47,21,0.77,18.89,19.26%,5.27%,30.78%,34,78
Tahoe Vista,California,1233,453,Sacramento--Roseville--Arden-Arcade,2110626,$77159,46.97%,44,$730000,1108,$659,44,75.18%,$1152,39.49%,N/A,N/A,2.6%,0.0%,70.17%,Placer County,39.50%,51.10%,0.0%,0.0%,78.1%,20.76%,18.49%,Pacific Standard Time,77,41,36,27.98,160.1,6.4,83,5811,4.8,2.72,CA-77700,39.2477932,-120.0532078,81%,92%,65%,31%,19%,15.0,29,38,51,24,1.48,13.56,20.82%,5.93%,32.78%,34,76
Tahoma,California,1039,401,Sacramento--Roseville--Arden-Arcade,2110626,$72222,44.77%,38,$999000,1554,$643,47,57.65%,$1364,59.15%,N/A,N/A,16.15%,3.63%,71.75%,El Dorado County,38.30%,51.80%,3.08%,0.0%,87.58%,0.0%,4.04%,Pacific Standard Time,78,38,40,37.09,160.1,6.4,81,5775,4.8,2.59,CA-77728,39.0639864,-120.1433904,81%,92%,65%,31%,19%,15.0,29,38,47,22,1.37,18.1,22.47%,6.81%,34.0%,34,77
University of California Davis,California,7221,4946,Sacramento--Roseville--Arden-Arcade,2110626,$25462,70.35%,N/A,N/A,N/A,N/A,24,0.50%,N/A,95.00%,N/A,N/A,N/A,4.30%,N/A,Yolo County,66.70%,25.30%,43.96%,1.31%,N/A,16.20%,N/A,Pacific Standard Time,N/A,N/A,N/A,N/A,N/A,N/A,48,N/A,4.8,1.46,N/A,N/A,N/A,N/A,N/A,N/A,N/A,N/A,N/A,N/A,N/A,N/A,N/A,N/A,N/A,N/A,N/A,N/A,N/A,N/A
Vineyard,California,39800,2123,Sacramento--Roseville--Arden-Arcade,2110626,$92045,28.9%,36,$530000,1626,$326,21,74.43%,$1641,45.54%,N/A,N/A,12.6%,5.45%,64.74%,Sacramento County,58.00%,33.80%,37.49%,7.86%,27.15%,20.5%,27.43%,Pacific Standard Time,95,57,38,17.61,0.0,6.3,46,36,5.2,18.75,CA-82852,38.464488,-121.346917,77%,96%,51%,45%,30%,4.5,46,52,62,40,0.15,9.43,15.59%,1.21%,30.33%,0,94
Walnut Grove,California,1288,126,Sacramento--Roseville--Arden-Arcade,2110626,$73984,32.94%,39,$625000,1404,$445,69,52.95%,$975,21.07%,N/A,N/A,0.0%,5.71%,70.56%,Sacramento County,58.00%,33.80%,2.02%,0.0%,53.03%,41.85%,16.93%,Pacific Standard Time,93,57,36,17.17,0.0,7.7,55,39,5.2,10.2,CA-83374,38.247771,-121.5279688,77%,96%,51%,45%,28%,3.7,46,51,60,38,0.17,9.33,13.62%,1.1%,26.78%,0,91
West Sacramento,California,53574,2495,Sacramento--Roseville--Arden-Arcade,2110626,$73979,30.66%,34,$505000,1573,$321,33,57.85%,$1120,47.58%,389,2948,15.84%,5.96%,65.14%,Yolo County,66.70%,25.30%,11.65%,4.56%,44.47%,32.58%,24.77%,Pacific Standard Time,93,57,36,16.94,0.0,6.3,30,15,4.8,21.47,CA-84816,38.5556694,-121.5504391,77%,96%,51%,45%,30%,4.5,46,52,60,38,0.17,9.17,14.85%,1.1%,28.11%,0,92
Wilton,California,5224,180,Sacramento--Roseville--Arden-Arcade,2110626,$107411,26.87%,51,$849000,1630,$521,34,82.47%,$1467,40.79%,N/A,N/A,10.6%,4.72%,48.84%,Sacramento County,58.00%,33.80%,6.01%,2.97%,65.91%,25.54%,5.23%,Pacific Standard Time,95,57,38,19.12,0.0,6.3,61,60,5.2,29.0,CA-85880,38.4129759,-121.2127112,77%,96%,51%,45%,30%,4.5,46,52,62,40,0.19,10.12,13.62%,1.1%,26.78%,0,94
Winters,California,7285,2478,Sacramento--Roseville--Arden-Arcade,2110626,$92538,25.12%,38,$1400000,2947,$475,39,65.63%,$1572,51.07%,149,1559,8.99%,1.97%,74.97%,Yolo County,66.70%,25.30%,0.03%,0.44%,51.06%,47.7%,20.14%,Pacific Standard Time,96,58,38,21.45,0.0,6.3,70,123,4.8,2.94,CA-86034,38.5319797,-121.9781405,77%,96%,51%,45%,30%,4.5,46,52,60,37,0.14,13.22,18.93%,1.1%,38.78%,0,96
Woodland,California,59759,3901,Sacramento--Roseville--Arden-Arcade,2110626,$71477,27.89%,36,$516000,1602,$322,40,53.93%,$1197,48.18%,366,2432,10.49%,4.63%,64.24%,Yolo County,66.70%,25.30%,7.94%,1.73%,37.06%,49.64%,23.15%,Pacific Standard Time,95,57,38,17.49,0.0,6.3,34,36,4.8,15.32,CA-86328,38.6711589,-121.7500471,77%,96%,51%,45%,30%,4.5,46,52,59,38,0.19,9.88,14.05%,0.88%,28.33%,0,94
Yolo,California,196,143,Sacramento--Roseville--Arden-Arcade,2110626,$75089,13.43%,55,N/A,N/A,N/A,64,94.39%,N/A,78.06%,N/A,N/A,5.61%,0.0%,47.45%,Yolo County,66.70%,25.30%,0.0%,0.0%,28.57%,71.43%,14.29%,Pacific Standard Time,95,57,38,18.64,0.0,6.3,38,60,4.8,1.37,CA-86804,38.7404635,-121.8093246,77%,96%,51%,45%,30%,4.5,46,52,59,38,0.21,10.66,14.05%,0.88%,28.33%,0,94
