City,State,Population,People per sq mi,Metro Name,Metro population,Median household income,% with at least Bachelor's degree,Median age,Median home price,Median home sqft,Median home cost per sqft,Median home age,Homeownership Rate,Avg Apartment Monthly Rent,Single Population,Num Violent Crimes Per 100k residents,Num Property Crimes Per 100k residents,Poverty Rate,Unemployment rate,Labor Force Participation rate,County,% Democrat,% Republican,% Asian,% Black,% Non-Hispanic White,% Hispanic,Foreign Born %,Timezone,Hottest month's avg high (F),Coldest month's avg high (F),Hottest high minus coldest high,Annual rainfall (in),Annual days of precipitation,Annual snowfall (in),Average yearly windspeed (mph),Air quality Index,Elevation (ft),UV Index,Land Area (sq mi),Fips Code,Latitude,Longitude,Annual Sunshine - Percentage of Possible,Summer Sunshine - Percentage of Possible,Winter Sunshine - Percentage of Possible,Annual Relative Humidity (afternoon),Summer Relative Humidity (afternoon),Number of days with thunder per year,Annual dew point (F),Average summer dew point (F)
Bendena,Kansas,126,82,St. Joseph,122556,$50938,42.7%,48,N/A,N/A,N/A,64,88.1%,N/A,45.83%,N/A,N/A,5.56%,8.33%,70.0%,Doniphan County,17.40%,77.10%,0.0%,0.0%,93.65%,6.35%,0.0%,Central Standard Time,87,37,50,36,92,18,8.0,79,894,4.1,1.53,KS-05975,39.7435413,-95.1810565,62%,70%,55%,60%,59%,51.4,42,64
Burr Oak township (Doniphan Cnty),Kansas,149,182,St. Joseph,122556,$63250,N/A,N/A,N/A,N/A,N/A,24,39.70%,N/A,5.50%,N/A,N/A,N/A,4.00%,N/A,Doniphan County,17.40%,77.10%,0.0%,0.0%,100.0%,0.0%,N/A,Central Standard Time,88,38,50,36,98,18,8.0,76,894,4.1,0.82,KS-09500,39.8516152,-94.9677902,62%,70%,55%,60%,59%,51.4,42,64
Center township (Doniphan Cnty),Kansas,1686,27,St. Joseph,122556,$55517,N/A,N/A,N/A,N/A,N/A,52,65.70%,N/A,36.60%,N/A,N/A,N/A,4.00%,N/A,Doniphan County,17.40%,77.10%,0.4%,0.1%,93.8%,4.5%,N/A,Central Standard Time,87,37,50,35,92,18,8.0,79,894,4.1,62.44,KS-11700,39.8061093,-95.0890445,62%,70%,55%,60%,59%,51.4,42,64
Denton,Kansas,170,1214,St. Joseph,122556,$71719,19.4%,52,N/A,N/A,N/A,78,97.06%,$575,32.35%,N/A,N/A,14.12%,2.02%,72.79%,Doniphan County,17.40%,77.10%,0.0%,0.0%,97.65%,1.18%,0.0%,Central Standard Time,87,37,50,36,92,16,8.0,80,894,4.1,0.14,KS-17750,39.731933,-95.2695359,59%,68%,54%,58%,58%,55.1,43,65
Elwood,Kansas,955,328,St. Joseph,122556,$38015,2.03%,37,N/A,N/A,N/A,30,74.97%,$650,49.74%,N/A,N/A,19.79%,1.72%,54.28%,Doniphan County,17.40%,77.10%,0.0%,9.21%,84.61%,6.07%,0.73%,Central Standard Time,88,38,50,37,99,17,8.0,76,894,4.1,2.91,KS-20950,39.7517755,-94.8889382,62%,70%,55%,60%,59%,51.4,42,64
Highland,Kansas,1193,2251,St. Joseph,122556,$65208,31.28%,20,N/A,N/A,N/A,61,83.27%,$625,74.55%,400,400,16.34%,2.22%,46.48%,Doniphan County,17.40%,77.10%,0.84%,23.72%,67.73%,4.02%,2.26%,Central Standard Time,87,37,50,35,87,18,8.0,80,894,4.1,0.53,KS-31850,39.8603366,-95.2651353,59%,68%,54%,58%,58%,55.1,43,65
Independence township (Doniphan Cnty),Kansas,174,23,St. Joseph,122556,$52750,N/A,N/A,$85000,1328,$64,45,72.60%,N/A,28.80%,988,4695,N/A,4.00%,N/A,Doniphan County,17.40%,77.10%,0.0%,0.0%,94.8%,5.2%,N/A,Central Standard Time,87,37,50,36,92,18,8.0,79,894,4.1,7.67,KS-33850,39.7019179,-95.1774347,62%,70%,55%,60%,59%,51.4,42,64
Iowa,Kansas,1584,19,St. Joseph,122556,$43654,25.64%,N/A,N/A,N/A,N/A,74,47.40%,N/A,64.10%,N/A,N/A,N/A,4.00%,N/A,Doniphan County,17.40%,77.10%,0.3%,16.0%,73.7%,3.2%,N/A,Central Standard Time,87,35,52,35,86,18,8.0,80,894,4.1,83.37,KS-34400,39.8942543,-95.2612029,59%,68%,54%,58%,58%,55.1,43,65
Leona,Kansas,34,567,St. Joseph,122556,$18250,3.7%,52,N/A,N/A,N/A,57,91.18%,N/A,39.29%,N/A,N/A,73.53%,0.0%,28.57%,Doniphan County,17.40%,77.10%,0.0%,0.0%,100.0%,0.0%,0.0%,Central Standard Time,88,37,51,36,92,18,8.0,80,894,4.1,0.06,KS-39475,39.785986,-95.3213672,59%,68%,54%,58%,58%,55.1,43,65
Marion township (Doniphan Cnty),Kansas,223,81,St. Joseph,122556,$66167,N/A,N/A,N/A,N/A,N/A,44,56.30%,N/A,58.60%,56,1129,N/A,4.00%,N/A,Doniphan County,17.40%,77.10%,0.0%,0.0%,100.0%,0.0%,N/A,Central Standard Time,88,38,50,36,99,18,8.0,76,894,4.1,2.76,KS-44675,39.7168787,-95.0011631,62%,70%,55%,60%,59%,51.4,42,64
Severance,Kansas,77,550,St. Joseph,122556,$31250,4.0%,44,N/A,N/A,N/A,78,40.26%,$656,49.06%,N/A,N/A,37.66%,0.0%,46.0%,Doniphan County,17.40%,77.10%,0.0%,0.0%,100.0%,0.0%,0.0%,Central Standard Time,87,37,50,35,92,18,8.0,80,894,4.1,0.14,KS-64025,39.7668188,-95.2492356,59%,68%,54%,58%,58%,55.1,43,65
Troy,Kansas,762,778,St. Joseph,122556,$44737,17.46%,44,N/A,N/A,N/A,61,63.42%,$711,54.9%,0,412,13.75%,4.23%,64.55%,Doniphan County,17.40%,77.10%,0.13%,0.13%,81.89%,11.81%,2.36%,Central Standard Time,87,37,50,35,92,18,8.0,79,894,4.1,0.98,KS-71575,39.7847578,-95.0936887,62%,70%,55%,60%,59%,51.4,42,64
Union township (Doniphan Cnty),Kansas,373,10,St. Joseph,122556,$59750,N/A,N/A,N/A,N/A,N/A,78,70.00%,N/A,32.20%,N/A,N/A,N/A,4.00%,N/A,Doniphan County,17.40%,77.10%,0.0%,0.0%,99.2%,0.0%,N/A,Central Standard Time,88,38,50,36,91,16,8.0,80,894,4.1,37.3,KS-72125,39.6966612,-95.2835027,59%,68%,54%,58%,58%,55.1,43,65
Washington township (Doniphan Cnty),Kansas,3021,3114,St. Joseph,122556,$47022,N/A,N/A,N/A,N/A,N/A,38,63.70%,N/A,42.90%,N/A,N/A,N/A,4.00%,N/A,Doniphan County,17.40%,77.10%,0.2%,1.3%,92.5%,2.6%,N/A,Central Standard Time,88,38,50,36,99,18,8.0,76,894,4.1,0.97,KS-75600,39.774748,-94.9440107,62%,70%,55%,60%,59%,51.4,42,64
Wathena,Kansas,1520,650,St. Joseph,122556,$54943,22.27%,44,N/A,N/A,N/A,49,74.54%,$640,45.86%,N/A,N/A,9.78%,0.0%,70.57%,Doniphan County,17.40%,77.10%,0.0%,0.59%,95.59%,0.66%,1.25%,Central Standard Time,88,38,50,36,99,18,8.0,76,894,4.1,2.34,KS-76000,39.760176,-94.9395588,62%,70%,55%,60%,59%,51.4,42,64
Wayne township (Doniphan Cnty),Kansas,220,6,St. Joseph,122556,$44063,N/A,N/A,N/A,N/A,N/A,34,64.50%,N/A,32.10%,N/A,N/A,N/A,4.00%,N/A,Doniphan County,17.40%,77.10%,0.0%,0.0%,100.0%,0.0%,N/A,Central Standard Time,87,37,50,38,96,17,8.0,79,894,4.1,36.67,KS-76100,39.6832716,-95.0778264,62%,70%,55%,60%,59%,51.4,42,64
White Cloud,Kansas,154,214,St. Joseph,122556,$23875,16.67%,45,N/A,N/A,N/A,46,47.4%,$561,61.31%,N/A,N/A,28.57%,6.78%,50.43%,Doniphan County,17.40%,77.10%,0.0%,0.0%,85.06%,0.0%,0.65%,Central Standard Time,87,35,52,34,81,19,8.0,80,894,4.1,0.72,KS-77850,39.9743418,-95.2990393,59%,68%,54%,58%,58%,55.1,43,65
Wolf River,Kansas,360,6,St. Joseph,122556,$41250,32.20%,N/A,N/A,N/A,N/A,78,68.00%,N/A,37.50%,N/A,N/A,N/A,4.00%,N/A,Doniphan County,17.40%,77.10%,0.0%,0.0%,100.0%,0.0%,N/A,Central Standard Time,87,37,50,36,92,18,8.0,80,894,4.1,60.0,KS-80275,39.7865409,-95.2502796,59%,68%,54%,58%,58%,55.1,43,65
Adams township (DeKalb Cnty),Missouri,765,18,St. Joseph,122556,$65729,N/A,N/A,N/A,N/A,N/A,34,50.80%,N/A,22.00%,N/A,N/A,N/A,3.70%,N/A,DeKalb County,17.80%,76.50%,0.0%,0.0%,99.1%,0.0%,N/A,Central Standard Time,87,35,52,38,91,17,8.0,78,894,4.2,42.5,MO-00208,39.884042,-94.2622389,62%,70%,55%,60%,59%,51.4,42,64
Agency,Missouri,704,191,St. Joseph,122556,$76016,24.4%,36,N/A,N/A,N/A,38,84.23%,$775,36.85%,N/A,N/A,9.09%,2.51%,74.81%,Buchanan County,33.40%,59.30%,0.28%,0.0%,88.92%,3.13%,0.71%,Central Standard Time,88,38,50,38,94,16,8.0,74,894,4.4,3.69,MO-00298,39.659423,-94.7476302,62%,70%,55%,60%,59%,51.4,42,64
Amity,Missouri,56,329,St. Joseph,122556,$20625,1.82%,60,N/A,N/A,N/A,67,100.0%,N/A,85.71%,N/A,N/A,23.21%,0.0%,62.5%,DeKalb County,17.80%,76.50%,0.0%,0.0%,100.0%,0.0%,0.0%,Central Standard Time,87,35,52,39,80,18,8.0,79,894,4.2,0.17,MO-01054,39.8682514,-94.4352441,62%,70%,55%,60%,59%,51.4,42,64
Bolckow,Missouri,194,588,St. Joseph,122556,$45000,10.07%,53,N/A,N/A,N/A,68,60.82%,$400,49.44%,N/A,N/A,19.59%,2.94%,60.36%,Andrew County,22.20%,72.50%,0.0%,0.0%,98.45%,1.55%,0.0%,Central Standard Time,86,34,52,37,82,17,8.0,80,894,4.4,0.33,MO-06922,40.1152173,-94.8212066,62%,70%,55%,60%,59%,51.4,42,64
Camden township,Missouri,1722,3827,St. Joseph,122556,$43667,N/A,N/A,N/A,N/A,N/A,45,69.90%,N/A,49.20%,N/A,N/A,N/A,3.70%,N/A,DeKalb County,17.80%,76.50%,0.0%,0.5%,96.9%,1.9%,N/A,Central Standard Time,87,35,52,38,92,16,8.0,78,894,4.2,0.45,MO-10720,39.8860374,-94.3861485,62%,70%,55%,60%,59%,51.4,42,64
Clarksdale,Missouri,263,822,St. Joseph,122556,$45625,8.0%,48,N/A,N/A,N/A,53,88.21%,$339,38.92%,N/A,N/A,6.84%,14.06%,63.37%,DeKalb County,17.80%,76.50%,0.0%,0.0%,95.82%,3.8%,0.0%,Central Standard Time,88,36,52,39,80,17,8.0,79,894,4.2,0.32,MO-14158,39.8138486,-94.5507681,62%,70%,55%,60%,59%,51.4,42,64
Colfax township (DeKalb Cnty),Missouri,803,19,St. Joseph,122556,$49135,N/A,N/A,N/A,N/A,N/A,39,63.30%,N/A,38.40%,N/A,N/A,N/A,3.70%,N/A,DeKalb County,17.80%,76.50%,0.1%,0.0%,99.1%,0.1%,N/A,Central Standard Time,87,35,52,39,87,14,8.0,79,894,4.2,42.26,MO-15490,39.7911422,-94.3857549,62%,70%,55%,60%,59%,51.4,42,64
Cosby,Missouri,200,2222,St. Joseph,122556,$60179,11.9%,35,$40000,851,$47,79,84.5%,$635,55.97%,N/A,N/A,2.0%,12.5%,68.87%,Andrew County,22.20%,72.50%,0.0%,7.5%,92.5%,0.0%,0.0%,Central Standard Time,88,36,52,37,90,17,8.0,76,894,4.4,0.09,MO-16588,39.8638392,-94.6798192,62%,70%,55%,60%,59%,51.4,42,64
Country Club,Missouri,2488,636,St. Joseph,122556,$78438,36.24%,38,$223000,1973,$113,43,70.38%,$963,39.3%,N/A,N/A,6.72%,4.51%,69.25%,Andrew County,22.20%,72.50%,0.36%,5.75%,85.77%,3.78%,2.93%,Central Standard Time,88,36,52,36,95,19,8.0,76,894,4.4,3.91,MO-16802,39.8388369,-94.8205009,62%,70%,55%,60%,59%,51.4,42,64
Dallas township (DeKalb Cnty),Missouri,261,6,St. Joseph,122556,$32946,N/A,N/A,N/A,N/A,N/A,20,100.00%,N/A,32.10%,N/A,N/A,N/A,3.70%,N/A,DeKalb County,17.80%,76.50%,0.0%,0.0%,100.0%,0.0%,N/A,Central Standard Time,87,35,52,39,90,18,8.0,78,894,4.2,43.5,MO-18046,39.9858241,-94.2612358,62%,70%,55%,60%,59%,51.4,42,64
De Kalb,Missouri,440,1692,St. Joseph,122556,$71111,13.88%,35,N/A,N/A,N/A,55,73.64%,$532,47.94%,N/A,N/A,6.59%,0.49%,67.0%,Buchanan County,33.40%,59.30%,0.0%,0.0%,97.73%,0.0%,0.0%,Central Standard Time,88,38,50,37,97,19,8.0,75,894,4.4,0.26,MO-18946,39.5882552,-94.9235825,62%,70%,55%,60%,59%,51.4,42,64
Easton,Missouri,302,512,St. Joseph,122556,$48512,1.74%,48,N/A,N/A,N/A,52,63.58%,$341,43.53%,N/A,N/A,9.6%,2.96%,53.15%,Buchanan County,33.40%,59.30%,0.0%,0.0%,90.07%,3.64%,0.0%,Central Standard Time,88,36,52,38,91,17,8.0,76,894,4.4,0.59,MO-21034,39.7225847,-94.6403697,62%,70%,55%,60%,59%,51.4,42,64
Fillmore,Missouri,284,2029,St. Joseph,122556,$37500,5.0%,36,N/A,N/A,N/A,75,80.28%,$630,50.48%,N/A,N/A,7.75%,2.07%,69.71%,Andrew County,22.20%,72.50%,0.0%,0.7%,99.3%,0.0%,1.76%,Central Standard Time,87,35,52,36,92,18,8.0,79,894,4.4,0.14,MO-24184,40.0253017,-94.9731462,62%,70%,55%,60%,59%,51.4,42,64
Gower,Missouri,1661,1678,St. Joseph,122556,$55298,21.3%,41,$255000,1545,$165,50,82.74%,$797,41.76%,N/A,N/A,9.85%,1.72%,61.53%,Clinton County,25.00%,68.60%,0.0%,0.12%,96.75%,0.96%,0.36%,Central Standard Time,87,38,49,40,89,17,8.0,75,894,4.1,0.99,MO-28036,39.6129813,-94.5947035,62%,70%,55%,60%,59%,51.4,42,64
Grand River township (DeKalb Cnty),Missouri,5779,162,St. Joseph,122556,$26021,N/A,N/A,N/A,N/A,N/A,38,48.10%,N/A,71.30%,N/A,N/A,N/A,3.70%,N/A,DeKalb County,17.80%,76.50%,0.4%,21.0%,67.9%,4.0%,N/A,Central Standard Time,88,36,52,39,92,15,8.0,78,894,4.2,35.67,MO-28288,39.7900551,-94.2625802,62%,70%,55%,60%,59%,51.4,42,64
Grant township (DeKalb Cnty),Missouri,157,118,St. Joseph,122556,$61111,N/A,N/A,N/A,N/A,N/A,56,52.00%,N/A,26.80%,N/A,N/A,N/A,3.70%,N/A,DeKalb County,17.80%,76.50%,0.0%,0.0%,100.0%,0.0%,N/A,Central Standard Time,87,35,52,38,91,16,8.0,78,894,4.2,1.33,MO-28468,39.9880366,-94.3852548,62%,70%,55%,60%,59%,51.4,42,64
Lewis and Clark Village,Missouri,94,154,St. Joseph,122556,$59107,6.35%,39,N/A,N/A,N/A,53,95.74%,N/A,48.0%,N/A,N/A,6.38%,4.26%,62.67%,Buchanan County,33.40%,59.30%,0.0%,0.0%,95.74%,0.0%,0.0%,Central Standard Time,88,38,50,36,97,18,8.0,75,894,4.4,0.61,MO-41834,39.5375525,-95.0505931,62%,70%,55%,60%,59%,51.4,42,64
Maysville,Missouri,1142,993,St. Joseph,122556,$53571,13.44%,39,$215000,2363,$91,49,73.7%,$605,47.24%,N/A,N/A,14.73%,0.0%,63.73%,DeKalb County,17.80%,76.50%,0.18%,1.23%,92.64%,2.98%,0.26%,Central Standard Time,87,35,52,38,93,16,8.0,78,894,4.2,1.15,MO-46946,39.8858591,-94.3633483,62%,70%,55%,60%,59%,51.4,42,64
Polk township (DeKalb Cnty),Missouri,649,11,St. Joseph,122556,$44091,N/A,N/A,N/A,N/A,N/A,58,64.80%,N/A,44.10%,N/A,N/A,N/A,3.70%,N/A,DeKalb County,17.80%,76.50%,0.0%,0.6%,96.8%,1.4%,N/A,Central Standard Time,87,35,52,38,79,19,8.0,79,894,4.2,59.0,MO-58772,39.9880348,-94.529078,62%,70%,55%,60%,59%,51.4,42,64
Rea,Missouri,26,217,St. Joseph,122556,$61250,4.0%,65,N/A,N/A,N/A,66,88.46%,N/A,40.0%,N/A,N/A,3.85%,0.0%,52.0%,Andrew County,22.20%,72.50%,0.0%,0.0%,96.15%,0.0%,0.0%,Central Standard Time,86,34,52,37,82,18,8.0,80,894,4.4,0.12,MO-60842,40.0616352,-94.7645293,62%,70%,55%,60%,59%,51.4,42,64
Rosendale,Missouri,104,359,St. Joseph,122556,$33438,4.48%,33,N/A,N/A,N/A,78,78.85%,N/A,40.79%,N/A,N/A,52.88%,0.0%,56.58%,Andrew County,22.20%,72.50%,0.0%,0.0%,100.0%,0.0%,0.0%,Central Standard Time,88,36,52,37,75,18,8.0,80,894,4.4,0.29,MO-63200,40.0407629,-94.8234011,62%,70%,55%,60%,59%,51.4,42,64
Rushville,Missouri,290,1450,St. Joseph,122556,$50313,19.1%,37,N/A,N/A,N/A,69,56.55%,$525,54.33%,N/A,N/A,13.1%,2.1%,68.75%,Buchanan County,33.40%,59.30%,1.03%,0.34%,95.86%,1.03%,1.03%,Central Standard Time,88,38,50,36,97,18,8.0,75,894,4.4,0.2,MO-63596,39.5873987,-95.0237586,62%,70%,55%,60%,59%,51.4,42,64
Savannah,Missouri,5170,1591,St. Joseph,122556,$43481,23.33%,42,$157000,1586,$99,45,67.01%,$746,47.92%,N/A,N/A,9.47%,0.08%,63.62%,Andrew County,22.20%,72.50%,0.0%,0.35%,99.46%,0.0%,0.0%,Central Standard Time,88,36,52,36,88,20,8.0,77,894,4.4,3.25,MO-66044,39.9390761,-94.827923,62%,70%,55%,60%,59%,51.4,42,64
Sherman township (DeKalb Cnty),Missouri,683,12,St. Joseph,122556,$51190,N/A,N/A,N/A,N/A,N/A,48,64.10%,N/A,20.30%,N/A,N/A,N/A,3.70%,N/A,DeKalb County,17.80%,76.50%,1.3%,0.0%,98.7%,0.0%,N/A,Central Standard Time,87,35,52,38,80,18,8.0,79,894,4.2,56.92,MO-67430,39.8859702,-94.5285831,62%,70%,55%,60%,59%,51.4,42,64
St. Joseph,Missouri,75369,1711,St. Joseph,122556,$48716,21.39%,38,$135000,1436,$94,61,61.45%,$785,56.3%,N/A,N/A,16.92%,5.08%,59.92%,Buchanan County,33.40%,59.30%,1.48%,5.59%,81.0%,7.12%,4.22%,Central Standard Time,88,38,50,36,98,18,8.0,66,894,4.4,44.04,MO-64550,39.7598565,-94.8209825,62%,70%,55%,60%,59%,51.4,42,64
Stewartsville,Missouri,692,699,St. Joseph,122556,$50446,21.91%,32,N/A,N/A,N/A,42,77.75%,$673,41.78%,N/A,N/A,8.5%,3.8%,67.99%,DeKalb County,17.80%,76.50%,0.0%,2.02%,93.06%,3.61%,0.14%,Central Standard Time,87,35,52,39,80,17,8.0,79,894,4.2,0.99,MO-70738,39.7551098,-94.4987326,62%,70%,55%,60%,59%,51.4,42,64
Union Star,Missouri,555,2135,St. Joseph,122556,$50302,11.71%,28,$186000,3153,$59,58,62.7%,$756,61.49%,N/A,N/A,18.74%,2.17%,62.59%,DeKalb County,17.80%,76.50%,3.42%,0.0%,95.68%,3.96%,0.0%,Central Standard Time,88,36,52,38,78,19,8.0,79,894,4.2,0.26,MO-75130,39.9793931,-94.5988293,62%,70%,55%,60%,59%,51.4,42,64
Washington township (DeKalb Cnty),Missouri,1745,184,St. Joseph,122556,$48688,N/A,N/A,$285000,1913,$149,39,72.20%,N/A,37.30%,N/A,N/A,N/A,3.70%,N/A,DeKalb County,17.80%,76.50%,0.0%,0.1%,98.5%,0.6%,N/A,Central Standard Time,88,36,52,39,80,17,8.0,79,894,4.2,9.49,MO-77380,39.7912488,-94.5272838,62%,70%,55%,60%,59%,51.4,42,64
Weatherby,Missouri,67,558,St. Joseph,122556,$30625,3.39%,59,$395000,2324,$170,78,77.61%,$550,40.0%,N/A,N/A,22.39%,30.0%,30.77%,DeKalb County,17.80%,76.50%,0.0%,0.0%,100.0%,0.0%,0.0%,Central Standard Time,87,35,52,39,88,19,8.0,78,894,4.2,0.12,MO-78028,39.9092919,-94.241922,62%,70%,55%,60%,59%,51.4,42,64
