City,State,Population,People per sq mi,Metro Name,Metro population,Median household income,% with at least Bachelor's degree,Median age,Median home price,Median home sqft,Median home cost per sqft,Median home age,Homeownership Rate,Avg Apartment Monthly Rent,Single Population,Num Violent Crimes Per 100k residents,Num Property Crimes Per 100k residents,Poverty Rate,Unemployment rate,Labor Force Participation rate,County,% Democrat,% Republican,% Asian,% Black,% Non-Hispanic White,% Hispanic,Foreign Born %,Timezone,Hottest month's avg high (F),Coldest month's avg high (F),Hottest high minus coldest high,Hottest month's avg low (F),Coldest month's avg low (F),Annual Relative Humidity (afternoon),Summer Relative Humidity (afternoon),Annual dew point (F),Average summer dew point (F),Hottest month's avg heat index high (F),Annual Sunshine - Percentage of Possible,Summer Sunshine - Percentage of Possible,Winter Sunshine - Percentage of Possible,Annual rainfall (in),Summer rainfall (in),Winter rainfall (in),Percent of days that include precipitation,Percent of Summer days that include precipitation,Percent of Winter days that include precipitation,Annual snowfall (in),Days of snow per year,Average yearly windspeed (mph),Number of days with thunder per year,Air quality Index,Elevation (ft),UV Index,Land Area (sq mi),Fips Code,Latitude,Longitude
Bloomfield (Walworth Cnty),Wisconsin,4813,385,Whitewater-Elkhorn,105945,$79543,15.86%,33,$173000,836,$207,58,69.94%,$1180,46.28%,157,551,8.1%,8.28%,69.6%,Walworth County,36.40%,56.20%,0.0%,0.0%,77.15%,20.26%,3.51%,N/A,82,30,52,60,15,63%,61%,37,58,84,53%,66%,44%,38.39,13.48,5.49,34.36%,35.16%,33.22%,47.4,28,8.1,34.2,79,768,3.6,12.5,WI-08265,42.5487622,-88.352035
Como,Wisconsin,2372,844,Whitewater-Elkhorn,105945,$75273,25.79%,41,$297000,911,$326,48,75.24%,$1261,47.39%,N/A,N/A,6.14%,4.84%,69.23%,Walworth County,36.40%,56.20%,1.69%,0.0%,80.94%,13.32%,8.9%,N/A,83,30,53,61,14,63%,61%,37,58,86,53%,66%,44%,41.05,13.34,6.48,37.26%,36.15%,36.22%,39.7,26,8.1,34.2,79,798,3.6,2.81,WI-16575,42.6125854,-88.485754
Darien,Wisconsin,1945,1508,Whitewater-Elkhorn,105945,N/A,N/A,N/A,$382000,2388,$160,N/A,N/A,N/A,N/A,N/A,N/A,N/A,N/A,N/A,Walworth County,36.40%,56.20%,N/A,N/A,N/A,N/A,N/A,N/A,83,30,53,61,14,60%,57%,37,58,85,52%,64%,45%,39.72,14.1,5.79,32.82%,33.41%,31.44%,39.7,26,8.1,40.5,81,807,3.6,1.29,WI-18850,42.6253057,-88.719049
Delavan,Wisconsin,8383,1203,Whitewater-Elkhorn,105945,N/A,N/A,N/A,$263000,1556,$169,N/A,N/A,N/A,N/A,149,412,N/A,N/A,N/A,Walworth County,36.40%,56.20%,N/A,N/A,N/A,N/A,N/A,N/A,83,30,53,61,14,63%,61%,37,58,86,53%,66%,44%,39.72,14.1,5.79,37.26%,36.15%,36.22%,39.7,26,8.1,34.2,75,807,3.6,6.97,WI-19475,42.6015906,-88.5999925
Delavan Lake,Wisconsin,2851,679,Whitewater-Elkhorn,105945,$65202,28.25%,50,$295000,1135,$260,43,90.43%,$877,45.93%,N/A,N/A,6.56%,3.46%,58.14%,Walworth County,36.40%,56.20%,0.0%,1.89%,87.06%,10.73%,4.17%,N/A,83,30,53,61,14,63%,61%,37,58,86,53%,66%,44%,39.72,14.1,5.79,37.26%,36.15%,36.22%,39.7,26,8.1,34.2,80,807,3.6,4.2,WI-19500,42.5991655,-88.6175804
Delavan town,Wisconsin,5307,761,Whitewater-Elkhorn,105945,N/A,N/A,N/A,$263000,1556,$169,N/A,N/A,N/A,N/A,149,412,N/A,N/A,N/A,Walworth County,36.40%,56.20%,N/A,N/A,N/A,N/A,N/A,N/A,83,30,53,61,14,63%,61%,37,58,86,53%,66%,44%,39.72,14.1,5.79,37.26%,36.15%,36.22%,39.7,26,8.1,34.2,79,807,3.6,6.97,WI-19475,42.6015906,-88.5999925
East Troy,Wisconsin,4042,892,Whitewater-Elkhorn,105945,N/A,N/A,N/A,$355000,2191,$162,N/A,N/A,N/A,N/A,161,577,N/A,N/A,N/A,Walworth County,36.40%,56.20%,N/A,N/A,N/A,N/A,N/A,N/A,83,29,54,60,13,63%,61%,37,58,86,53%,66%,44%,39.15,13.4,6.11,31.92%,33.08%,28.33%,50.9,32,8.1,34.2,75,762,3.6,4.53,WI-22125,42.7919022,-88.336331
Elkhorn,Wisconsin,10267,1274,Whitewater-Elkhorn,105945,$68339,25.41%,39,$288000,1834,$157,34,64.74%,$880,58.68%,120,951,5.86%,1.44%,71.56%,Walworth County,36.40%,56.20%,0.25%,0.97%,81.78%,15.31%,7.01%,N/A,83,30,53,61,14,63%,61%,37,58,86,53%,66%,44%,39.72,14.1,5.79,37.26%,36.15%,36.22%,39.7,26,8.1,34.2,76,807,3.6,8.06,WI-23300,42.6712314,-88.5376797
Fontana-on-Geneva Lake,Wisconsin,2631,785,Whitewater-Elkhorn,105945,$91000,56.34%,58,$570000,1566,$364,43,88.93%,$892,31.52%,N/A,N/A,8.17%,4.4%,50.47%,Walworth County,36.40%,56.20%,2.17%,0.0%,95.44%,1.52%,7.87%,N/A,83,30,53,61,14,63%,61%,37,58,86,53%,66%,44%,39.72,14.1,5.79,37.26%,36.15%,36.22%,39.7,26,8.1,34.2,78,807,3.6,3.35,WI-26350,42.5452087,-88.5700872
Geneva,Wisconsin,5018,175,Whitewater-Elkhorn,105945,N/A,N/A,N/A,N/A,N/A,N/A,N/A,N/A,N/A,N/A,39,376,N/A,N/A,N/A,Walworth County,36.40%,56.20%,N/A,N/A,N/A,N/A,N/A,N/A,83,30,53,61,14,63%,61%,37,58,86,53%,66%,44%,41.05,13.34,6.48,37.26%,36.15%,36.22%,39.7,26,8.1,34.2,78,798,3.6,28.67,WI-28550,42.6264896,-88.482109
La Grange (Walworth Cnty),Wisconsin,2644,77,Whitewater-Elkhorn,105945,N/A,N/A,N/A,N/A,N/A,N/A,N/A,N/A,N/A,N/A,N/A,N/A,N/A,N/A,N/A,Walworth County,36.40%,56.20%,N/A,N/A,N/A,N/A,N/A,N/A,82,28,54,61,12,63%,61%,37,58,84,53%,66%,44%,39.49,14.08,5.68,37.45%,38.9%,34.0%,39.7,26,8.1,34.2,82,801,3.6,34.34,WI-41050,42.7993419,-88.6017985
Lafayette (Walworth Cnty),Wisconsin,1772,52,Whitewater-Elkhorn,105945,N/A,N/A,N/A,N/A,N/A,N/A,N/A,N/A,N/A,N/A,N/A,N/A,N/A,N/A,N/A,Walworth County,36.40%,56.20%,N/A,N/A,N/A,N/A,N/A,N/A,83,30,53,61,14,63%,61%,37,58,86,53%,66%,44%,41.05,13.34,6.48,37.26%,36.15%,36.22%,39.7,26,8.1,34.2,80,798,3.6,34.08,WI-40950,42.7147699,-88.4811568
Lake Geneva,Wisconsin,8300,1210,Whitewater-Elkhorn,105945,$59162,37.19%,45,$250000,1059,$236,47,58.69%,$1035,50.49%,112,1837,8.37%,5.84%,66.99%,Walworth County,36.40%,56.20%,0.0%,0.48%,86.31%,9.64%,9.2%,N/A,82,30,52,60,15,63%,61%,37,58,84,53%,66%,44%,41.05,13.34,6.48,37.26%,36.15%,36.22%,47.4,28,8.1,34.2,76,798,3.6,6.86,WI-41450,42.5823925,-88.4281304
Lake Ivanhoe,Wisconsin,475,528,Whitewater-Elkhorn,105945,$55515,25.84%,41,$314000,1847,$170,44,92.88%,$788,40.76%,N/A,N/A,15.37%,2.57%,73.91%,Walworth County,36.40%,56.20%,0.0%,1.47%,87.16%,11.37%,3.37%,N/A,82,30,52,60,15,63%,61%,37,58,84,53%,66%,44%,38.39,13.48,5.49,34.36%,35.16%,33.22%,47.4,28,8.1,34.2,79,768,3.6,0.9,WI-41560,42.5792394,-88.3359731
Lake Lorraine,Wisconsin,284,254,Whitewater-Elkhorn,105945,$67969,23.5%,46,N/A,N/A,N/A,46,92.66%,$950,49.01%,N/A,N/A,8.8%,5.06%,70.92%,Walworth County,36.40%,56.20%,0.0%,0.0%,100.0%,0.0%,0.0%,N/A,83,30,53,61,14,60%,57%,37,58,85,52%,64%,45%,39.72,14.1,5.79,37.45%,38.9%,34.0%,39.7,26,8.1,40.5,81,807,3.6,1.12,WI-41645,42.7329761,-88.7373883
Lauderdale Lakes,Wisconsin,1370,319,Whitewater-Elkhorn,105945,$73203,38.58%,54,$1229000,2689,$457,43,92.07%,N/A,36.21%,N/A,N/A,0.59%,0.0%,51.53%,Walworth County,36.40%,56.20%,0.44%,0.29%,95.47%,2.77%,1.39%,N/A,82,28,54,61,12,63%,61%,37,58,84,53%,66%,44%,39.78,13.74,6.02,37.45%,38.9%,34.0%,39.7,26,8.1,34.2,82,750,3.6,4.3,WI-42805,42.7709234,-88.5777838
Linn,Wisconsin,2662,97,Whitewater-Elkhorn,105945,N/A,N/A,N/A,N/A,N/A,N/A,N/A,N/A,N/A,N/A,0,457,N/A,N/A,N/A,Walworth County,36.40%,56.20%,N/A,N/A,N/A,N/A,N/A,N/A,82,30,52,60,15,63%,61%,37,58,84,53%,66%,44%,41.05,13.34,6.48,37.26%,36.15%,36.22%,39.7,26,8.1,34.2,79,798,3.6,27.44,WI-44750,42.5371625,-88.4827859
Lyons,Wisconsin,1296,1037,Whitewater-Elkhorn,105945,$71674,20.05%,36,N/A,N/A,N/A,34,82.27%,$1184,44.77%,N/A,N/A,8.18%,6.57%,56.79%,Walworth County,36.40%,56.20%,0.0%,0.0%,99.69%,0.31%,0.0%,N/A,81,28,53,60,12,63%,61%,37,58,83,53%,66%,44%,41.05,13.34,6.48,37.26%,36.15%,36.22%,47.4,28,8.1,34.2,80,798,3.6,1.25,WI-46700,42.6485127,-88.359917
Potter Lake,Wisconsin,878,821,Whitewater-Elkhorn,105945,$82019,33.78%,38,$489000,1818,$269,64,93.59%,N/A,38.61%,N/A,N/A,5.58%,0.0%,77.1%,Walworth County,36.40%,56.20%,0.0%,0.0%,91.91%,7.4%,0.0%,N/A,83,29,54,60,13,63%,61%,37,58,86,53%,66%,44%,39.15,13.4,6.11,31.92%,33.08%,28.33%,50.9,32,8.1,34.2,76,762,3.6,1.07,WI-64700,42.8195497,-88.3490175
Richmond (Walworth Cnty),Wisconsin,1859,53,Whitewater-Elkhorn,105945,N/A,N/A,N/A,N/A,N/A,N/A,N/A,N/A,N/A,N/A,N/A,N/A,N/A,N/A,N/A,Walworth County,36.40%,56.20%,N/A,N/A,N/A,N/A,N/A,N/A,83,30,53,61,14,60%,57%,37,58,85,52%,64%,45%,39.72,14.1,5.79,37.45%,38.9%,34.0%,39.7,26,8.1,40.5,82,807,3.6,35.08,WI-67725,42.7116737,-88.7192063
Sharon (Walworth Cnty),Wisconsin,833,482,Whitewater-Elkhorn,105945,N/A,N/A,N/A,$175000,1101,$159,N/A,N/A,N/A,N/A,128,0,N/A,N/A,N/A,Walworth County,36.40%,56.20%,N/A,N/A,N/A,N/A,N/A,N/A,83,30,53,61,14,60%,57%,37,58,85,52%,64%,45%,39.72,14.1,5.79,32.82%,33.41%,31.44%,39.7,26,8.1,40.5,82,807,3.6,1.73,WI-72900,42.5387289,-88.7164799
Spring Prairie,Wisconsin,1910,53,Whitewater-Elkhorn,105945,N/A,N/A,N/A,N/A,N/A,N/A,N/A,N/A,N/A,N/A,N/A,N/A,N/A,N/A,N/A,Walworth County,36.40%,56.20%,N/A,N/A,N/A,N/A,N/A,N/A,81,28,53,60,12,63%,61%,37,58,83,53%,66%,44%,38.44,13.04,6.18,31.92%,33.08%,28.33%,50.9,32,8.1,34.2,80,687,3.6,36.04,WI-76175,42.7126747,-88.3660442
Sugar Creek,Wisconsin,3956,120,Whitewater-Elkhorn,105945,N/A,N/A,N/A,N/A,N/A,N/A,N/A,N/A,N/A,N/A,N/A,N/A,N/A,N/A,N/A,Walworth County,36.40%,56.20%,N/A,N/A,N/A,N/A,N/A,N/A,83,30,53,61,14,63%,61%,37,58,86,53%,66%,44%,39.72,14.1,5.79,37.45%,38.9%,34.0%,39.7,26,8.1,34.2,82,807,3.6,32.97,WI-78100,42.7145298,-88.6045605
Troy (Walworth Cnty),Wisconsin,2205,63,Whitewater-Elkhorn,105945,N/A,N/A,N/A,N/A,N/A,N/A,N/A,N/A,N/A,N/A,N/A,N/A,N/A,N/A,N/A,Walworth County,36.40%,56.20%,N/A,N/A,N/A,N/A,N/A,N/A,83,28,55,61,12,63%,61%,37,58,86,53%,66%,44%,39.78,13.74,6.02,35.81%,35.38%,35.44%,50.9,32,8.1,34.2,80,750,3.6,35.0,WI-80875,42.7997209,-88.4839622
Walworth,Wisconsin,1791,1041,Whitewater-Elkhorn,105945,N/A,N/A,N/A,$188000,908,$207,N/A,N/A,N/A,N/A,70,563,N/A,N/A,N/A,Walworth County,36.40%,56.20%,N/A,N/A,N/A,N/A,N/A,N/A,83,30,53,61,14,63%,61%,37,58,86,53%,66%,44%,39.72,14.1,5.79,33.67%,35.05%,30.78%,39.7,26,8.1,34.2,80,807,3.6,1.72,WI-83275,42.5387385,-88.62897
Whitewater town,Wisconsin,1460,165,Whitewater-Elkhorn,105945,N/A,N/A,N/A,$205000,1507,$136,N/A,N/A,N/A,N/A,206,1060,N/A,N/A,N/A,Walworth County,36.40%,56.20%,N/A,N/A,N/A,N/A,N/A,N/A,82,28,54,61,12,60%,57%,37,58,84,52%,64%,45%,39.49,14.08,5.68,37.45%,38.9%,34.0%,39.7,26,8.1,40.5,80,801,3.6,8.84,WI-86950,42.7922414,-88.7157338
Williams Bay,Wisconsin,2935,1056,Whitewater-Elkhorn,105945,$60524,44.6%,48,$485000,1810,$268,35,79.3%,$830,45.93%,37,379,9.86%,6.34%,57.23%,Walworth County,36.40%,56.20%,0.34%,0.0%,88.65%,10.83%,2.86%,N/A,83,30,53,61,14,63%,61%,37,58,86,53%,66%,44%,41.05,13.34,6.48,37.26%,36.15%,36.22%,39.7,26,8.1,34.2,80,798,3.6,2.78,WI-87200,42.5788317,-88.5457265
