City,State,Population,People per sq mi,Metro Name,Metro population,Median household income,% with at least Bachelor's degree,Median age,Median home price,Median home sqft,Median home cost per sqft,Median home age,Homeownership Rate,Avg Apartment Monthly Rent,Single Population,Num Violent Crimes Per 100k residents,Num Property Crimes Per 100k residents,Poverty Rate,Unemployment rate,Labor Force Participation rate,County,% Democrat,% Republican,% Asian,% Black,% Non-Hispanic White,% Hispanic,Foreign Born %,Timezone,Hottest month's avg high (F),Coldest month's avg high (F),Hottest high minus coldest high,Hottest month's avg low (F),Coldest month's avg low (F),Annual Relative Humidity (afternoon),Summer Relative Humidity (afternoon),Annual dew point (F),Average summer dew point (F),Hottest month's avg heat index high (F),Annual Sunshine - Percentage of Possible,Summer Sunshine - Percentage of Possible,Winter Sunshine - Percentage of Possible,Annual rainfall (in),Summer rainfall (in),Winter rainfall (in),Percent of days that include precipitation,Percent of Summer days that include precipitation,Percent of Winter days that include precipitation,Annual snowfall (in),Days of snow per year,Average yearly windspeed (mph),Number of days with thunder per year,Air quality Index,Elevation (ft),UV Index,Land Area (sq mi),Fips Code,Latitude,Longitude
Acres Green,Colorado,2709,4515,Denver-Aurora-Lakewood,2936665,$115536,43.66%,40,$553000,1982,$279,45,83.97%,$2663,36.14%,N/A,N/A,15.17%,1.2%,72.73%,Douglas County,36.60%,54.70%,4.76%,0.96%,84.75%,3.25%,6.35%,Mountain Standard Time,88,44,44,59,18,43%,36%,29,47,87,69%,71%,70%,19.49,6.26,2.58,24.96%,32.97%,19.56%,65.3,29,8.0,41.1,55,5370,4.8,0.6,CO-00320,39.5557355,-104.8958209
Aetna Estates,Colorado,1177,9054,Denver-Aurora-Lakewood,2936665,$63887,8.27%,34,N/A,N/A,N/A,42,47.12%,$1490,52.77%,N/A,N/A,9.09%,7.95%,72.35%,Arapahoe County,52.80%,38.60%,0.0%,0.0%,29.31%,64.83%,30.5%,Mountain Standard Time,90,43,47,61,17,43%,36%,29,47,89,69%,71%,70%,16.57,5.16,2.09,21.34%,24.62%,16.67%,46.1,27,8.0,41.1,61,5124,5.2,0.13,CO-00620,39.738127,-104.6732209
Aguilar,Colorado,442,1133,None,N/A,$29593,8.33%,62,N/A,N/A,N/A,48,86.59%,N/A,66.67%,N/A,N/A,14.93%,6.27%,61.15%,Las Animas County,39.00%,54.60%,0.0%,0.0%,35.29%,63.8%,1.81%,N/A,88,46,42,58,20,36%,32%,31,49,86,78%,82%,74%,19.14,7.44,2.95,24.33%,38.46%,18.22%,72.0,25,N/A,35.4,89,6600,5.1,0.39,CO-00760,37.4036258,-104.6550362
Air Force Academy,Colorado,6701,671,Colorado Springs,747343,$93889,35.4%,21,N/A,N/A,N/A,53,0.0%,$2223,81.08%,N/A,N/A,17.58%,3.49%,93.02%,El Paso County,33.90%,56.20%,3.4%,9.3%,71.08%,11.19%,2.19%,Mountain Standard Time,85,45,40,56,18,40%,39%,27,45,84,78%,82%,74%,19.29,8.36,2.11,27.29%,41.43%,20.22%,114.3,34,8.0,35.4,91,5988,5.3,9.99,CO-00870,38.9941875,-104.8639251
Akron,Colorado,1681,607,None,N/A,$59470,26.99%,44,N/A,N/A,N/A,63,64.37%,$1070,45.77%,N/A,N/A,7.51%,1.5%,55.38%,Washington County,10.80%,84.10%,0.0%,1.37%,81.5%,13.33%,4.28%,N/A,89,40,49,61,17,43%,36%,29,47,88,69%,71%,70%,14.66,6.84,0.46,21.1%,30.22%,9.89%,35.3,18,8.0,41.1,90,4263,4.8,2.77,CO-00925,40.1634665,-103.2202756
Alamosa,Colorado,9847,1296,None,N/A,$46969,29.71%,29,N/A,N/A,N/A,39,41.15%,$881,64.56%,624,5066,17.81%,1.74%,61.76%,Alamosa County,46.00%,43.90%,0.61%,2.57%,35.81%,56.32%,5.63%,N/A,83,35,48,48,-1,40%,34%,27,43,82,78%,82%,74%,7.43,2.76,0.95,17.73%,25.82%,14.11%,30.4,20,N/A,35.4,84,6894,5.2,7.6,CO-01090,37.4751873,-105.877028
Alamosa East,Colorado,1404,432,None,N/A,$44741,30.23%,50,N/A,N/A,N/A,39,74.87%,$1100,57.39%,N/A,N/A,33.11%,1.92%,68.39%,Alamosa County,46.00%,43.90%,1.07%,2.21%,33.48%,60.11%,1.5%,N/A,83,35,48,48,-1,40%,34%,27,43,82,78%,82%,74%,8.38,3.07,1.23,17.73%,25.82%,14.11%,30.4,20,N/A,35.4,81,6903,5.2,3.25,CO-01145,37.4766669,-105.839721
Allenspark,Colorado,826,69,Boulder,328713,$125048,57.74%,51,$425000,1471,$289,70,80.26%,$1318,48.55%,N/A,N/A,5.45%,1.1%,71.84%,Boulder County,70.30%,22.00%,0.61%,0.24%,88.38%,5.33%,6.05%,Mountain Standard Time,68,28,40,43,11,43%,36%,29,47,66,69%,71%,70%,22.82,6.23,3.53,31.23%,24.95%,36.33%,184.6,70,8.0,41.1,93,7731,5.8,11.94,CO-01420,40.1885813,-105.5187397
Alma,Colorado,242,563,Denver-Aurora-Lakewood,2936665,$52727,37.85%,35,$838000,2354,$356,56,60.34%,$2083,56.19%,N/A,N/A,9.09%,3.07%,72.12%,Park County,32.80%,58.90%,0.0%,9.09%,80.58%,10.33%,6.2%,Mountain Standard Time,71,30,41,43,9,43%,36%,29,47,69,69%,71%,70%,28.46,7.32,6.75,34.47%,31.32%,40.0%,301.7,104,8.0,41.1,99,10197,6.2,0.43,CO-01530,39.2859459,-106.0670393
Altona,Colorado,532,315,Boulder,328713,$250001,71.27%,53,$1000000,2183,$458,42,100.0%,$3501,45.67%,N/A,N/A,4.51%,4.8%,70.4%,Boulder County,70.30%,22.00%,0.0%,0.0%,89.85%,5.08%,5.64%,Mountain Standard Time,89,46,43,57,20,43%,36%,29,47,88,69%,71%,70%,21.13,5.88,2.96,23.48%,28.02%,17.78%,184.6,70,8.0,41.1,86,6441,5.8,1.69,CO-01740,40.1253782,-105.2923716
Amherst,Colorado,84,187,None,N/A,N/A,0.0%,27,N/A,N/A,N/A,N/A,100.0%,N/A,54.76%,N/A,N/A,0.0%,0.0%,79.76%,Phillips County,18.70%,76.80%,0.0%,0.0%,20.24%,79.76%,45.24%,N/A,89,41,48,59,12,49%,41%,35,55,89,64%,67%,60%,18.27,7.7,1.32,23.84%,31.54%,15.56%,29.8,21,N/A,45.5,90,3426,4.9,0.45,CO-01915,40.6831606,-102.1725957
Antonito,Colorado,681,1584,None,N/A,$29583,13.64%,46,N/A,N/A,N/A,58,76.24%,$631,70.87%,N/A,N/A,27.61%,16.36%,57.75%,Conejos County,44.00%,47.60%,0.0%,0.0%,7.78%,92.22%,0.59%,N/A,81,33,48,50,4,40%,34%,27,43,80,78%,82%,74%,9.34,3.56,1.09,19.04%,29.23%,12.89%,32.5,19,N/A,35.4,95,7035,5.5,0.43,CO-02355,37.0762465,-106.0103317
Applewood,Colorado,8120,1995,Denver-Aurora-Lakewood,2936665,$128988,66.41%,43,$770000,2852,$270,50,79.6%,$2142,46.23%,N/A,N/A,3.84%,6.14%,71.37%,Jefferson County,48.90%,42.00%,1.58%,0.83%,84.14%,10.6%,5.74%,Mountain Standard Time,86,44,42,60,20,43%,36%,29,47,85,69%,71%,70%,16.47,4.42,2.41,23.15%,27.47%,18.89%,76.0,33,8.0,41.1,65,5091,5.7,4.07,CO-02575,39.7523905,-105.1604527
Arboles,Colorado,396,77,None,N/A,$42500,16.62%,53,N/A,N/A,N/A,28,88.78%,N/A,31.18%,N/A,N/A,12.88%,4.07%,33.06%,Archuleta County,34.10%,58.10%,0.0%,0.0%,41.16%,50.76%,2.02%,N/A,87,38,49,53,10,40%,34%,27,43,86,76%,78%,73%,12.88,3.89,2.88,21.04%,24.84%,22.0%,35.0,22,N/A,39.2,78,5988,6.1,5.16,CO-02905,37.0201855,-107.4221252
Aristocrat Ranchettes,Colorado,2335,1249,Greeley,322424,$87604,8.84%,26,$650000,2159,$301,23,89.42%,$1691,48.58%,N/A,N/A,11.73%,7.21%,62.44%,Weld County,34.30%,56.60%,0.0%,2.91%,33.15%,63.21%,17.52%,Mountain Standard Time,91,43,48,59,16,43%,36%,29,47,90,69%,71%,70%,13.18,4.14,1.22,20.19%,25.38%,13.44%,33.2,18,8.0,41.1,54,4605,5.2,1.87,CO-03015,40.1096002,-104.7549496
Arriba,Colorado,279,558,None,N/A,$43000,18.72%,45,N/A,N/A,N/A,82,60.0%,$575,43.05%,N/A,N/A,19.35%,2.16%,67.15%,Lincoln County,16.80%,77.70%,0.0%,0.0%,70.97%,5.73%,0.0%,N/A,90,43,47,60,16,49%,41%,35,55,91,69%,71%,70%,16.45,8.03,1.04,11.15%,16.7%,7.78%,25.4,7,8.0,45.5,93,4500,5.3,0.5,CO-03235,39.2843261,-103.2740321
Arvada,Colorado,122835,3157,Denver-Aurora-Lakewood,2936665,$113396,49.99%,40,$646000,2332,$277,41,78.33%,$1802,43.84%,217,2977,5.97%,3.89%,71.37%,Jefferson County,48.90%,42.00%,2.6%,0.99%,77.25%,15.41%,5.18%,Mountain Standard Time,88,45,43,58,16,43%,36%,29,47,87,69%,71%,70%,18.1,4.67,2.48,24.68%,31.65%,18.78%,76.0,33,8.0,41.1,62,5223,5.7,38.91,CO-03455,39.8320472,-105.1511084
Aspen,Colorado,6862,1778,Glenwood Springs,78692,$78636,68.27%,42,$1875000,1019,$1840,34,55.62%,$1897,52.99%,120,3216,11.83%,2.54%,71.42%,Pitkin County,69.70%,24.20%,3.37%,1.17%,79.44%,10.68%,14.89%,N/A,76,31,45,49,10,36%,21%,29,41,74,69%,79%,60%,24.47,4.87,6.84,36.25%,35.16%,43.22%,169.9,66,7.7,33.0,94,7476,5.8,3.86,CO-03620,39.1951252,-106.8367741
Aspen Park,Colorado,724,294,Denver-Aurora-Lakewood,2936665,$104732,58.23%,49,N/A,N/A,N/A,43,94.07%,N/A,32.15%,N/A,N/A,0.0%,5.43%,52.98%,Jefferson County,48.90%,42.00%,0.0%,0.0%,88.95%,8.98%,3.87%,Mountain Standard Time,81,44,37,49,13,43%,36%,29,47,80,69%,71%,70%,21.49,7.22,3.1,32.22%,45.49%,24.89%,60.0,19,8.0,41.1,90,7311,5.7,2.46,CO-03730,39.5423341,-105.2966702
Atwood,Colorado,188,183,Sterling,21765,$58816,0.0%,42,N/A,N/A,N/A,82,100.0%,N/A,25.79%,N/A,N/A,11.7%,20.3%,83.65%,Logan County,19.00%,74.90%,0.0%,0.0%,98.4%,0.0%,0.0%,N/A,89,39,50,59,15,45%,39%,32,52,89,64%,67%,60%,16.78,6.61,1.24,22.74%,30.11%,14.44%,39.5,19,8.0,43.5,90,3609,4.7,1.03,CO-03840,40.5504765,-103.2745983
Ault,Colorado,2270,1312,Greeley,322424,$79654,15.73%,35,$418000,2389,$175,44,69.81%,$623,46.4%,N/A,N/A,6.45%,3.46%,66.59%,Weld County,34.30%,56.60%,0.0%,0.0%,63.52%,34.45%,10.93%,Mountain Standard Time,92,42,50,60,16,45%,39%,29,47,93,64%,67%,60%,13.66,4.23,1.16,21.26%,26.37%,14.33%,34.8,17,8.0,41.1,82,4338,5.2,1.73,CO-03950,40.5892957,-104.7391807
Aurora,Colorado,390201,2437,Denver-Aurora-Lakewood,2936665,$84320,32.92%,35,$460000,1862,$247,35,61.72%,$1759,52.01%,735,2918,11.25%,5.68%,71.87%,Arapahoe County,52.80%,38.60%,5.98%,15.79%,42.3%,30.65%,21.78%,Mountain Standard Time,90,45,45,60,17,43%,36%,29,47,89,69%,71%,70%,16.57,5.16,2.09,22.93%,27.91%,18.11%,46.1,27,8.0,41.1,48,5124,5.2,160.13,CO-04000,39.7083022,-104.7237253
Avon,Colorado,6057,725,Edwards,55693,$85364,41.39%,35,$904000,1016,$890,28,45.22%,$2132,49.2%,153,1431,12.12%,6.3%,88.13%,Eagle County,55.90%,35.60%,6.04%,0.0%,59.8%,26.53%,19.2%,N/A,77,28,49,43,6,43%,36%,29,47,76,69%,71%,70%,25.91,5.04,7.18,33.89%,23.74%,42.56%,122.9,61,8.0,41.1,95,7773,5.7,8.35,CO-04110,39.6442053,-106.5129962
Avondale,Colorado,298,473,Pueblo,167453,$94302,14.23%,56,N/A,N/A,N/A,61,74.49%,N/A,52.06%,N/A,N/A,13.76%,0.0%,80.52%,Pueblo County,45.60%,46.10%,0.0%,0.0%,17.11%,64.43%,0.0%,Mountain Standard Time,94,47,47,62,16,36%,32%,31,49,94,78%,82%,74%,11.59,5.39,1.01,18.52%,25.82%,13.89%,27.4,18,8.0,35.4,87,4116,5,0.63,CO-04165,38.2351828,-104.3482326
Basalt,Colorado,3995,2008,Edwards,55693,$106000,59.3%,44,$1798000,1778,$1011,25,61.46%,$2188,37.76%,23,237,4.23%,2.98%,78.29%,Eagle County,55.90%,35.60%,0.58%,0.55%,87.71%,5.86%,2.63%,N/A,83,34,49,49,8,36%,21%,29,41,81,69%,79%,60%,19.57,4.29,4.93,29.73%,30.33%,33.22%,169.9,66,7.7,33.0,93,5877,5.7,1.99,CO-04935,39.36886,-107.0303813
Battlement Mesa,Colorado,5402,471,Glenwood Springs,78692,$69432,27.07%,36,$365000,1484,$246,27,78.25%,$972,45.88%,N/A,N/A,10.37%,3.25%,66.81%,Garfield County,42.60%,49.60%,1.68%,0.26%,68.88%,25.97%,10.0%,N/A,89,36,53,55,10,36%,21%,29,41,85,69%,79%,60%,11.37,2.41,2.42,23.89%,23.41%,24.89%,65.4,32,7.7,33.0,67,5127,6,11.46,CO-05120,39.4505157,-108.0063772
Bayfield,Colorado,2862,1735,Durango,55673,$92821,30.51%,32,$582000,1890,$308,24,75.57%,$1265,43.9%,36,1488,10.55%,8.48%,78.75%,La Plata County,49.80%,40.40%,0.07%,0.0%,80.36%,17.3%,1.15%,N/A,82,38,44,50,6,40%,34%,27,43,81,69%,79%,60%,17.8,4.88,4.53,26.58%,32.86%,28.11%,93.4,37,7.7,33.0,92,6405,6.2,1.65,CO-05265,37.234063,-107.5951506
Bennett,Colorado,3472,599,Denver-Aurora-Lakewood,2936665,$92450,21.18%,34,$408000,1478,$276,31,79.72%,$1328,45.06%,N/A,N/A,4.98%,3.66%,66.19%,Adams County,49.90%,41.30%,0.52%,2.16%,67.28%,23.76%,6.11%,Mountain Standard Time,90,43,47,61,17,43%,36%,29,47,89,69%,71%,70%,18.0,6.48,2.15,21.34%,24.62%,16.67%,43.6,16,8.0,41.1,78,5361,5.1,5.8,CO-06090,39.7528881,-104.4290125
Berkley,Colorado,10838,3011,Denver-Aurora-Lakewood,2936665,$76232,26.73%,36,$516000,1836,$281,43,64.06%,$1709,49.7%,N/A,N/A,14.74%,6.72%,70.39%,Adams County,49.90%,41.30%,2.85%,2.1%,36.61%,56.03%,19.99%,Mountain Standard Time,88,45,43,58,16,43%,36%,29,47,87,69%,71%,70%,16.9,4.97,2.38,23.12%,28.68%,17.67%,76.0,33,8.0,41.1,32,4962,5.1,3.6,CO-06172,39.8044942,-105.0281281
Berthoud,Colorado,11684,904,Fort Collins,354670,$111297,43.75%,39,$600000,2564,$234,12,85.14%,$1708,33.91%,N/A,N/A,3.06%,1.78%,72.65%,Larimer County,47.50%,42.60%,1.1%,0.43%,82.76%,13.49%,4.86%,Mountain Standard Time,89,42,47,56,12,43%,36%,29,47,88,69%,71%,70%,16.24,4.29,2.27,22.14%,27.58%,16.22%,49.4,27,8.0,41.1,72,4650,4.7,12.93,CO-06255,40.3069248,-105.0796153
Bethune,Colorado,257,1606,None,N/A,$38333,14.91%,34,N/A,N/A,N/A,42,73.49%,$808,35.63%,N/A,N/A,21.79%,1.96%,58.96%,Kit Carson County,14.50%,80.10%,1.95%,0.0%,54.86%,35.02%,10.89%,N/A,91,43,48,62,16,49%,41%,35,55,92,69%,71%,70%,16.22,7.79,0.99,19.18%,30.0%,10.22%,34.9,18,8.0,45.5,88,3834,4.8,0.16,CO-06530,39.3038223,-102.4234144
Beulah Valley,Colorado,762,296,Pueblo,167453,$52664,29.76%,40,N/A,N/A,N/A,82,99.21%,N/A,53.27%,N/A,N/A,8.27%,9.68%,41.47%,Pueblo County,45.60%,46.10%,0.0%,0.0%,81.36%,13.65%,3.67%,Mountain Standard Time,82,43,39,58,22,36%,32%,31,49,81,78%,82%,74%,23.94,8.58,3.52,25.4%,38.9%,17.56%,126.5,36,8.0,35.4,90,6060,5,2.57,CO-06602,38.0709806,-104.9829867
Black Forest,Colorado,14658,146,Colorado Springs,747343,$142173,57.0%,49,N/A,N/A,N/A,24,96.46%,N/A,31.68%,N/A,N/A,2.82%,6.17%,59.57%,El Paso County,33.90%,56.20%,1.22%,2.36%,85.67%,6.54%,4.39%,Mountain Standard Time,81,39,42,50,9,40%,39%,27,45,81,69%,71%,70%,22.03,9.17,2.48,26.77%,36.37%,22.78%,110.1,41,8.0,41.1,89,6804,5.3,100.64,CO-06970,39.0608372,-104.6752356
Black Hawk,Colorado,156,59,Denver-Aurora-Lakewood,2936665,$112727,43.05%,59,$370000,2450,$151,82,41.84%,$1813,50.33%,6250,164843,7.28%,0.0%,80.13%,Gilpin County,45.70%,43.80%,0.0%,0.0%,73.72%,22.44%,0.0%,Mountain Standard Time,73,32,41,48,14,43%,36%,29,47,72,69%,71%,70%,19.21,6.22,2.55,37.56%,46.04%,34.89%,203.1,77,8.0,41.1,96,7983,5.8,2.65,CO-07025,39.8041452,-105.4948993
Blanca,Colorado,326,178,None,N/A,$48750,8.67%,34,N/A,N/A,N/A,44,77.14%,N/A,43.64%,N/A,N/A,8.28%,10.85%,58.64%,Costilla County,60.90%,31.80%,0.61%,1.53%,24.85%,71.78%,22.7%,N/A,83,35,48,48,-1,40%,34%,27,43,82,78%,82%,74%,9.88,4.08,1.46,28.82%,31.43%,30.44%,30.4,20,N/A,35.4,96,7101,5.2,1.83,CO-07190,37.4392676,-105.5135437
Blende,Colorado,646,769,Pueblo,167453,$50385,25.75%,56,N/A,N/A,N/A,60,85.16%,$1479,48.7%,N/A,N/A,19.35%,8.96%,50.66%,Pueblo County,45.60%,46.10%,0.0%,2.94%,39.63%,57.43%,0.93%,Mountain Standard Time,93,47,46,62,14,36%,32%,31,49,92,78%,82%,74%,15.65,6.47,1.11,18.52%,25.82%,13.89%,27.4,18,8.0,35.4,71,4257,5,0.84,CO-07245,38.2470194,-104.5714739
Bonanza,Colorado,12,27,None,N/A,N/A,0.0%,N/A,N/A,N/A,N/A,65,0.0%,N/A,100.0%,N/A,N/A,0.0%,100.0%,100.0%,Saguache County,50.00%,40.50%,0.0%,0.0%,100.0%,0.0%,0.0%,N/A,82,32,50,40,-6,40%,34%,27,43,81,78%,82%,74%,24.32,6.12,6.6,31.62%,29.01%,38.11%,62.2,39,8.0,35.4,97,10542,5.3,0.44,CO-07571,38.2966177,-106.141869
Bonanza Mountain Estates,Colorado,132,776,Boulder,328713,N/A,48.48%,58,$819000,1959,$418,51,100.0%,N/A,47.73%,N/A,N/A,0.0%,0.0%,91.67%,Boulder County,70.30%,22.00%,0.0%,0.0%,100.0%,0.0%,0.0%,Mountain Standard Time,68,28,40,43,11,43%,36%,29,47,66,69%,71%,70%,22.88,5.99,4.02,45.53%,42.2%,53.67%,95.6,26,8.0,41.1,92,7623,5.8,0.17,CO-07580,39.9768903,-105.4795771
Boone,Colorado,247,650,Pueblo,167453,$75190,12.09%,58,N/A,N/A,N/A,66,95.49%,$988,81.03%,N/A,N/A,18.62%,0.0%,28.88%,Pueblo County,45.60%,46.10%,0.0%,0.0%,56.68%,41.7%,0.0%,Mountain Standard Time,93,46,47,59,15,36%,32%,31,49,92,78%,82%,74%,11.59,5.39,1.01,10.9%,18.46%,6.0%,18.9,7,8.0,35.4,81,4116,5,0.38,CO-07795,38.2494361,-104.258104
Boulder,Colorado,106274,4036,Boulder,328713,$85364,76.85%,29,$988000,1767,$559,42,50.2%,$1924,69.07%,256,3026,21.8%,6.06%,63.93%,Boulder County,70.30%,22.00%,5.77%,1.07%,77.67%,11.21%,10.23%,Mountain Standard Time,89,46,43,57,20,43%,36%,29,47,88,69%,71%,70%,19.69,4.3,2.73,26.82%,34.51%,20.67%,89.3,32,8.0,41.1,74,4917,5.8,26.33,CO-07850,40.0248074,-105.2524179
Bow Mar,Colorado,1003,1520,Denver-Aurora-Lakewood,2936665,$233667,77.73%,49,$3300000,6875,$480,57,93.81%,$3000,25.53%,0,1042,3.29%,3.44%,52.65%,Arapahoe County,52.80%,38.60%,0.9%,0.0%,86.14%,9.97%,7.18%,Mountain Standard Time,87,45,42,60,19,43%,36%,29,47,86,69%,71%,70%,17.79,5.57,2.47,24.11%,31.98%,17.56%,65.3,29,8.0,41.1,63,5130,5.2,0.66,CO-08070,39.6251813,-105.0511772
Brandon,Colorado,19,158,None,N/A,N/A,0.0%,N/A,N/A,N/A,N/A,N/A,100.0%,N/A,0.0%,N/A,N/A,100.0%,0.0%,0.0%,Kiowa County,10.60%,85.10%,0.0%,0.0%,100.0%,0.0%,0.0%,N/A,93,44,49,61,15,49%,41%,35,55,95,78%,82%,74%,15.37,7.31,1.3,15.07%,22.86%,8.78%,16.0,8,N/A,45.5,90,3723,5.2,0.12,CO-08290,38.4463995,-102.4411549
Branson,Colorado,44,176,None,N/A,N/A,18.92%,58,N/A,N/A,N/A,49,62.67%,N/A,56.82%,N/A,N/A,18.18%,0.0%,37.5%,Las Animas County,39.00%,54.60%,0.0%,0.0%,56.82%,43.18%,4.55%,N/A,86,45,41,54,14,41%,39%,32,51,85,78%,82%,74%,17.05,8.33,1.7,19.29%,29.56%,11.89%,25.0,8,N/A,35.4,89,6255,5.1,0.25,CO-08345,37.0154927,-103.8837772
Breckenridge,Colorado,5001,827,Breckenridge,31042,$132666,59.86%,38,$888000,989,$898,29,39.29%,$1438,35.57%,315,3721,9.63%,0.66%,67.78%,Summit County,59.10%,31.50%,0.92%,0.26%,81.0%,4.88%,3.86%,N/A,76,30,46,39,2,43%,36%,29,47,75,69%,71%,70%,23.47,6.01,6.15,38.3%,39.12%,44.44%,191.1,78,8.0,41.1,98,8778,5.8,6.05,CO-08400,39.4994755,-106.0432389
Brick Center,Colorado,82,14,Denver-Aurora-Lakewood,2936665,N/A,0.0%,54,N/A,N/A,N/A,N/A,100.0%,N/A,0.0%,N/A,N/A,0.0%,0.0%,100.0%,Arapahoe County,52.80%,38.60%,0.0%,0.0%,34.15%,39.02%,39.02%,Mountain Standard Time,85,42,43,57,18,43%,36%,29,47,84,69%,71%,70%,18.0,6.48,2.15,23.81%,30.11%,19.0%,43.6,16,8.0,41.1,77,5361,5.2,5.78,CO-08530,39.6001324,-104.4579436
Brighton,Colorado,41196,1939,Denver-Aurora-Lakewood,2936665,$100134,23.47%,34,$495000,2313,$214,22,67.31%,$1734,44.9%,326,2647,8.82%,4.37%,71.93%,Adams County,49.90%,41.30%,2.12%,2.95%,52.02%,38.52%,8.53%,Mountain Standard Time,91,43,48,59,16,43%,36%,29,47,90,69%,71%,70%,14.03,4.11,1.47,17.75%,18.68%,14.67%,33.2,18,8.0,41.1,39,4632,5.1,21.25,CO-08675,39.9715663,-104.7963906
Brookside,Colorado,263,560,None,N/A,$57321,23.11%,52,$270000,1837,$147,47,85.27%,$1300,33.77%,N/A,N/A,12.55%,20.33%,53.95%,Fremont County,24.10%,68.80%,0.0%,0.0%,81.75%,16.35%,0.38%,N/A,89,49,40,60,18,36%,32%,31,49,87,78%,82%,74%,11.55,4.77,1.23,19.78%,30.77%,13.67%,39.4,18,8.0,35.4,88,4932,5.4,0.47,CO-09115,38.4134949,-105.1909454
Brush,Colorado,5299,1872,Fort Morgan,28868,$73026,14.64%,32,$344000,2278,$151,47,63.29%,$1048,53.14%,N/A,N/A,14.26%,5.19%,64.12%,Morgan County,26.30%,68.10%,0.17%,0.91%,59.6%,37.04%,6.94%,N/A,91,41,50,60,12,43%,36%,29,47,90,69%,71%,70%,16.16,6.73,1.2,19.26%,26.15%,11.44%,27.4,12,8.0,41.1,52,3882,4.9,2.83,CO-09555,40.2598824,-103.6323142
Buena Vista,Colorado,2966,860,None,N/A,$58409,41.57%,33,N/A,N/A,N/A,30,46.27%,$1519,57.88%,35,805,9.61%,14.58%,73.01%,Chaffee County,43.40%,47.90%,0.0%,0.0%,91.4%,6.27%,2.23%,N/A,84,40,44,50,10,40%,39%,27,45,83,78%,82%,74%,10.13,3.96,1.48,24.08%,35.93%,18.44%,53.5,32,8.0,35.4,98,7272,5.4,3.45,CO-10105,38.8318511,-106.1386589
Burlington,Colorado,3165,1472,None,N/A,$59842,15.34%,39,N/A,N/A,N/A,48,61.47%,$1025,45.87%,455,2311,5.91%,3.06%,68.5%,Kit Carson County,14.50%,80.10%,0.35%,0.13%,66.54%,28.88%,9.61%,N/A,89,43,46,61,18,49%,41%,35,55,89,69%,71%,70%,20.47,8.6,1.95,20.27%,26.59%,14.67%,34.9,18,8.0,45.5,88,3807,4.8,2.15,CO-10600,39.3041709,-102.2714664
Byers,Colorado,1804,158,Denver-Aurora-Lakewood,2936665,$88607,13.29%,29,$399000,2122,$188,40,88.94%,N/A,54.61%,N/A,N/A,3.99%,15.92%,63.42%,Arapahoe County,52.80%,38.60%,0.22%,0.0%,56.6%,40.35%,1.77%,Mountain Standard Time,90,42,48,58,15,43%,36%,29,47,89,69%,71%,70%,17.0,6.51,1.76,19.42%,27.69%,13.44%,43.6,16,8.0,41.1,88,4665,5.2,11.45,CO-10985,39.7100742,-104.21894
Calhan,Colorado,510,614,Colorado Springs,747343,$50000,22.12%,41,N/A,N/A,N/A,43,64.79%,$935,58.27%,N/A,N/A,9.47%,4.56%,59.37%,El Paso County,33.90%,56.20%,0.0%,0.0%,86.47%,10.2%,1.37%,Mountain Standard Time,81,39,42,50,9,40%,39%,27,45,81,78%,82%,74%,16.73,7.52,1.31,26.77%,36.37%,22.78%,110.1,41,8.0,35.4,93,5817,5.3,0.83,CO-11260,39.0344469,-104.2994196
Campo,Colorado,82,586,None,N/A,$33750,20.29%,60,N/A,N/A,N/A,76,83.33%,N/A,37.84%,N/A,N/A,8.54%,0.0%,50.72%,Baca County,13.10%,81.40%,0.0%,0.0%,93.9%,1.22%,0.0%,N/A,93,49,44,63,21,41%,39%,32,51,95,78%,82%,74%,15.47,7.56,1.29,16.58%,25.05%,11.44%,26.1,7,N/A,35.4,89,3753,5.6,0.14,CO-11645,37.1047115,-102.5787984
Canon City,Colorado,16298,1310,None,N/A,N/A,N/A,N/A,N/A,N/A,N/A,N/A,N/A,N/A,N/A,613,4871,N/A,N/A,N/A,Fremont County,24.10%,68.80%,N/A,N/A,N/A,N/A,N/A,N/A,N/A,N/A,N/A,N/A,N/A,N/A,N/A,N/A,N/A,N/A,N/A,N/A,N/A,N/A,N/A,N/A,N/A,N/A,N/A,N/A,N/A,N/A,N/A,87,N/A,5.4,12.44,N/A,N/A,N/A
Carbondale,Colorado,6553,3244,Glenwood Springs,78692,$94300,56.25%,41,$1200000,2273,$528,27,54.45%,$2255,47.56%,129,1109,11.73%,3.54%,76.79%,Garfield County,42.60%,49.60%,0.73%,0.56%,72.68%,21.24%,12.18%,N/A,89,36,53,55,12,36%,21%,29,41,85,69%,79%,60%,14.46,3.71,3.28,29.73%,30.33%,33.22%,169.9,66,7.7,33.0,91,5643,6,2.02,CO-12045,39.3949513,-107.2147756
Cascade-Chipita Park,Colorado,1158,86,Colorado Springs,747343,$115357,51.56%,56,N/A,N/A,N/A,56,77.46%,$1594,52.65%,N/A,N/A,7.89%,11.74%,49.82%,El Paso County,33.90%,56.20%,0.0%,1.99%,87.22%,9.41%,0.78%,Mountain Standard Time,73,38,35,44,10,40%,39%,27,45,72,78%,82%,74%,29.78,10.39,4.26,28.85%,37.36%,19.56%,114.3,34,8.0,35.4,94,10479,5.3,13.41,CO-12325,38.9433281,-105.0023191
Castle Pines,Colorado,4441,463,Denver-Aurora-Lakewood,2936665,$219083,78.48%,53,$1000000,4329,$231,19,97.02%,N/A,23.65%,N/A,N/A,4.95%,7.17%,51.52%,Douglas County,36.60%,54.70%,1.67%,0.18%,90.14%,5.09%,7.21%,Mountain Standard Time,86,44,42,57,17,43%,36%,29,47,85,69%,71%,70%,18.01,6.43,1.95,21.78%,31.43%,17.56%,58.4,24,8.0,41.1,81,5865,4.8,9.59,CO-12393,39.431897,-104.891891
Castle Rock,Colorado,76614,2234,Denver-Aurora-Lakewood,2936665,$143031,54.89%,36,$620000,2743,$226,14,82.09%,$1946,38.0%,44,1431,3.75%,4.51%,74.5%,Douglas County,36.60%,54.70%,2.19%,0.9%,79.37%,11.3%,5.4%,Mountain Standard Time,86,44,42,57,17,43%,36%,29,47,85,69%,71%,70%,18.8,6.94,2.51,21.78%,31.43%,17.56%,58.4,24,8.0,41.1,81,5799,4.8,34.29,CO-12415,39.3762525,-104.8534735
Cathedral,Colorado,26,1,None,N/A,N/A,0.0%,64,N/A,N/A,N/A,47,81.82%,N/A,73.08%,N/A,N/A,11.54%,0.0%,34.62%,Hinsdale County,33.40%,57.60%,0.0%,0.0%,50.0%,0.0%,0.0%,N/A,78,31,47,45,-1,40%,34%,27,43,77,69%,79%,60%,24.55,4.91,7.08,31.18%,24.95%,36.56%,60.6,45,7.7,33.0,100,10461,5.4,21.28,CO-12450,38.0836419,-107.0306741
Cattle Creek,Colorado,339,261,Glenwood Springs,78692,$43208,47.69%,56,$664000,1562,$425,40,73.81%,N/A,62.03%,N/A,N/A,7.08%,5.33%,77.22%,Garfield County,42.60%,49.60%,0.0%,0.0%,89.09%,8.55%,8.55%,N/A,89,36,53,55,12,36%,21%,29,41,85,69%,79%,60%,19.04,4.33,5.21,29.73%,30.33%,33.22%,27.6,25,7.7,33.0,92,5964,6,1.3,CO-12470,39.4666336,-107.2599169
Cedaredge,Colorado,2394,1221,None,N/A,$41944,24.28%,53,N/A,N/A,N/A,38,62.39%,$1106,51.43%,N/A,N/A,24.69%,7.19%,42.15%,Delta County,24.30%,69.40%,0.21%,0.0%,92.44%,4.3%,2.51%,N/A,86,36,50,60,18,36%,21%,29,41,83,69%,79%,60%,14.56,3.65,3.89,32.3%,20.88%,43.44%,65.4,32,7.7,33.0,96,6252,6.1,1.96,CO-12635,38.8940985,-107.9254855
Centennial,Colorado,107386,3613,Denver-Aurora-Lakewood,2936665,$128167,61.85%,42,$600000,2449,$245,38,83.48%,$2061,39.19%,N/A,N/A,3.15%,3.65%,69.56%,Arapahoe County,52.80%,38.60%,6.01%,2.57%,75.64%,10.0%,9.38%,Mountain Standard Time,88,44,44,59,18,43%,36%,29,47,87,69%,71%,70%,14.78,5.63,1.28,23.04%,29.34%,16.78%,65.3,29,8.0,41.1,54,5379,5.2,29.72,CO-12815,39.5925549,-104.8673391
Center,Colorado,2312,2688,None,N/A,$50057,19.93%,36,N/A,N/A,N/A,48,52.46%,$478,48.34%,259,2724,26.04%,8.81%,68.04%,Saguache County,50.00%,40.50%,0.0%,2.08%,5.41%,90.61%,14.19%,N/A,80,31,49,49,3,40%,34%,27,43,80,78%,82%,74%,8.16,2.76,1.41,17.56%,27.14%,12.11%,39.9,21,N/A,35.4,95,6972,5.3,0.86,CO-12855,37.7512357,-106.1105642
Central City,Colorado,576,267,Denver-Aurora-Lakewood,2936665,$62094,30.85%,36,$377000,1139,$331,40,N/A,$1604,84.94%,N/A,N/A,6.6%,3.25%,77.2%,Gilpin County,45.70%,43.80%,0.0%,0.0%,70.31%,26.74%,0.0%,Mountain Standard Time,73,32,41,48,14,43%,36%,29,47,72,69%,71%,70%,19.21,6.22,2.55,37.56%,46.04%,34.89%,203.1,77,8.0,41.1,96,7983,5.8,2.16,CO-12900,39.7946146,-105.511958
Cimarron Hills,Colorado,18808,3166,Colorado Springs,747343,$75853,27.5%,33,N/A,N/A,N/A,32,72.99%,$1439,45.68%,N/A,N/A,9.52%,5.15%,70.09%,El Paso County,33.90%,56.20%,1.9%,4.88%,57.79%,28.79%,6.87%,Mountain Standard Time,87,44,43,59,18,40%,39%,27,45,87,78%,82%,74%,17.04,8.62,1.23,24.77%,39.78%,17.44%,31.4,21,8.0,35.4,67,5931,5.3,5.94,CO-14587,38.8597484,-104.6995525
Clifton,Colorado,19746,3280,Grand Junction,154685,$54301,11.8%,35,$305000,1393,$219,33,67.16%,$1035,56.32%,N/A,N/A,15.43%,9.53%,62.64%,Mesa County,28.00%,64.10%,1.65%,0.57%,67.55%,25.45%,8.73%,Mountain Standard Time,94,38,56,66,17,36%,21%,29,41,91,69%,79%,60%,10.47,2.92,1.88,19.18%,16.81%,21.33%,18.5,14,7.7,33.0,72,4353,5.8,6.02,CO-15165,39.0763918,-108.4605235
Coaldale,Colorado,276,9,None,N/A,N/A,10.51%,59,N/A,N/A,N/A,27,97.62%,N/A,46.01%,N/A,N/A,38.77%,0.0%,47.46%,Fremont County,24.10%,68.80%,0.0%,0.0%,100.0%,0.0%,0.0%,N/A,82,39,43,46,9,40%,34%,27,43,81,78%,82%,74%,25.91,5.82,7.02,26.66%,28.24%,32.22%,81.2,25,8.0,35.4,96,9804,5.4,31.05,CO-15440,38.3557385,-105.8130743
Collbran,Colorado,444,793,Grand Junction,154685,$49375,16.48%,29,N/A,N/A,N/A,47,68.73%,$725,60.3%,N/A,N/A,42.15%,29.32%,47.75%,Mesa County,28.00%,64.10%,4.5%,1.35%,80.63%,10.14%,5.18%,Mountain Standard Time,89,36,53,55,10,36%,21%,29,41,85,69%,79%,60%,14.05,3.52,2.84,26.25%,26.26%,28.0%,65.4,32,7.7,33.0,87,5526,5.8,0.56,CO-15605,39.2400085,-107.9635163
Colorado City,Colorado,1791,119,Pueblo,167453,$48692,22.2%,50,$148000,1057,$140,23,67.55%,$1270,37.41%,N/A,N/A,6.31%,0.0%,44.04%,Pueblo County,45.60%,46.10%,0.0%,0.0%,82.13%,12.51%,0.0%,Mountain Standard Time,82,43,39,58,22,36%,32%,31,49,81,78%,82%,74%,17.48,6.38,2.61,29.26%,40.22%,24.0%,126.5,36,8.0,35.4,94,5586,5,15.01,CO-15935,37.938118,-104.8451485
Colorado Springs,Colorado,483099,2472,Colorado Springs,747343,$83198,41.88%,36,N/A,N/A,N/A,34,62.49%,$1562,47.77%,585,3666,9.31%,5.55%,68.78%,El Paso County,33.90%,56.20%,2.98%,5.81%,66.17%,18.69%,7.38%,Mountain Standard Time,87,44,43,59,18,40%,39%,27,45,87,78%,82%,74%,18.73,8.78,1.7,24.77%,39.78%,17.44%,31.4,21,8.0,35.4,69,5781,5.3,195.4,CO-16000,38.8674312,-104.7604623
Columbine,Colorado,25681,3873,Denver-Aurora-Lakewood,2936665,$129480,52.05%,41,$633000,2269,$279,44,89.88%,$2391,36.27%,N/A,N/A,5.26%,3.49%,67.56%,Jefferson County,48.90%,42.00%,1.13%,1.62%,83.8%,10.04%,4.01%,Mountain Standard Time,87,45,42,60,19,43%,36%,29,47,86,69%,71%,70%,18.83,5.53,2.67,26.58%,34.95%,19.89%,60.0,19,8.0,41.1,68,5079,5.7,6.63,CO-16110,39.587867,-105.0693787
Columbine Valley,Colorado,2084,2127,Denver-Aurora-Lakewood,2936665,$250001,83.77%,52,$1425000,3571,$399,41,97.93%,N/A,19.4%,0,460,0.1%,0.44%,54.25%,Arapahoe County,52.80%,38.60%,1.39%,0.0%,90.55%,3.84%,2.69%,Mountain Standard Time,87,45,42,60,19,43%,36%,29,47,86,69%,71%,70%,17.79,5.57,2.47,24.11%,31.98%,17.56%,65.3,29,8.0,41.1,70,5130,5.2,0.98,CO-16385,39.5993404,-105.0352118
Comanche Creek,Colorado,389,18,Denver-Aurora-Lakewood,2936665,$225175,34.78%,56,N/A,N/A,N/A,11,100.0%,N/A,17.75%,N/A,N/A,0.0%,0.0%,57.96%,Arapahoe County,52.80%,38.60%,4.88%,0.0%,78.92%,14.14%,0.0%,Mountain Standard Time,90,42,48,58,15,43%,36%,29,47,89,69%,71%,70%,18.0,6.48,2.15,19.42%,27.69%,13.44%,43.6,16,8.0,41.1,88,5361,5.2,21.69,CO-16465,39.6150138,-104.3267972
Conejos,Colorado,7,15,None,N/A,N/A,N/A,N/A,N/A,N/A,N/A,N/A,100.0%,N/A,0.0%,N/A,N/A,0.0%,0.0%,0.0%,Conejos County,44.00%,47.60%,0.0%,0.0%,0.0%,0.0%,0.0%,N/A,81,33,48,50,4,40%,34%,27,43,80,78%,82%,74%,9.34,3.56,1.09,19.04%,29.23%,12.89%,32.5,19,N/A,35.4,95,7035,5.5,0.48,CO-16715,37.0872571,-106.0159931
Copper Mountain,Colorado,321,10,Breckenridge,31042,$123940,29.43%,57,$895000,929,$963,34,40.51%,N/A,63.55%,N/A,N/A,20.87%,11.02%,79.13%,Summit County,59.10%,31.50%,0.0%,0.0%,87.85%,0.0%,0.0%,N/A,68,26,42,41,2,43%,36%,29,47,66,69%,71%,70%,28.5,4.66,8.89,37.59%,24.84%,50.11%,301.7,104,8.0,41.1,93,9648,5.8,32.06,CO-17150,39.476901,-106.2011173
Cortez,Colorado,8898,1428,None,N/A,$51377,29.22%,39,N/A,N/A,N/A,47,59.95%,$1028,51.65%,491,3223,13.84%,5.64%,57.15%,Montezuma County,30.90%,61.10%,2.03%,1.9%,61.77%,18.58%,4.05%,N/A,91,43,48,58,15,36%,21%,29,41,87,69%,79%,60%,11.75,3.23,3.42,20.58%,21.1%,25.0%,62.7,22,7.7,33.0,87,5640,6.2,6.23,CO-17375,37.3503728,-108.5766627
Craig,Colorado,9022,1779,Craig,13240,$69256,20.78%,38,$339000,1894,$179,45,62.28%,$1060,50.16%,157,2824,12.59%,1.61%,65.74%,Moffat County,13.40%,81.30%,0.44%,0.19%,75.32%,16.3%,5.97%,N/A,90,29,61,49,1,36%,21%,29,41,86,69%,79%,60%,13.8,2.65,2.83,28.9%,22.75%,33.22%,119.0,54,7.7,33.0,79,5658,5.8,5.07,CO-17760,40.5170589,-107.5553944
Crested Butte,Colorado,1436,1710,None,N/A,$71923,75.71%,45,N/A,N/A,N/A,36,58.28%,$1437,53.8%,117,644,5.92%,5.41%,76.92%,Gunnison County,54.50%,34.90%,0.0%,0.0%,90.39%,9.61%,1.04%,N/A,77,26,51,40,-7,36%,21%,29,41,75,69%,79%,60%,22.58,4.34,8.03,31.01%,27.47%,41.0%,175.3,67,7.7,33.0,98,8109,5.4,0.84,CO-18310,38.8676107,-106.9772429
Crook,Colorado,145,1036,Sterling,21765,$31964,10.42%,53,N/A,N/A,N/A,76,25.9%,$864,61.7%,N/A,N/A,26.9%,3.85%,56.12%,Logan County,19.00%,74.90%,0.0%,0.0%,92.41%,7.59%,0.0%,N/A,93,43,50,59,12,47%,40%,32,52,95,64%,67%,60%,16.45,6.21,1.32,22.49%,29.12%,13.56%,28.9,14,8.0,43.5,92,3393,4.7,0.14,CO-18640,40.8587686,-102.8014045
Crowley,Colorado,199,865,None,N/A,$47188,5.37%,39,N/A,N/A,N/A,74,91.34%,N/A,53.7%,N/A,N/A,7.25%,2.06%,61.01%,Crowley County,22.20%,70.70%,0.0%,0.0%,40.7%,58.79%,0.0%,N/A,94,45,49,62,12,36%,32%,31,49,94,78%,82%,74%,11.5,5.37,0.93,10.0%,16.37%,6.0%,25.1,8,8.0,35.4,90,3948,5.4,0.23,CO-18750,38.193506,-103.8597436
Dacono,Colorado,6419,730,Greeley,322424,$99389,29.73%,33,$500000,1953,$256,10,75.08%,$1823,35.09%,82,1135,5.3%,1.82%,75.54%,Weld County,34.30%,56.60%,5.5%,5.27%,61.46%,29.27%,11.72%,Mountain Standard Time,88,44,44,60,16,43%,36%,29,47,87,69%,71%,70%,14.41,3.83,1.64,22.96%,25.93%,18.0%,67.5,28,8.0,41.1,62,4539,5.2,8.79,CO-19080,40.0623171,-104.9476434
Dakota Ridge,Colorado,34159,3638,Denver-Aurora-Lakewood,2936665,$120368,50.8%,41,$595000,2179,$273,32,85.49%,$2103,43.33%,N/A,N/A,4.09%,2.77%,71.53%,Jefferson County,48.90%,42.00%,2.81%,1.22%,73.94%,16.01%,4.94%,Mountain Standard Time,87,45,42,60,19,43%,36%,29,47,86,69%,71%,70%,18.87,5.12,2.81,26.58%,34.95%,19.89%,60.0,19,8.0,41.1,71,5268,5.7,9.39,CO-19150,39.6192343,-105.1343366
De Beque,Colorado,466,171,Grand Junction,154685,$63646,15.71%,43,$219000,1153,$190,33,67.4%,$1319,46.99%,N/A,N/A,13.3%,8.97%,65.18%,Mesa County,28.00%,64.10%,0.0%,0.0%,81.76%,11.37%,3.22%,Mountain Standard Time,89,36,53,55,10,36%,21%,29,41,85,69%,79%,60%,14.26,3.41,3.09,26.25%,26.26%,28.0%,65.4,32,7.7,33.0,87,5496,5.8,2.73,CO-19355,39.3102794,-108.2049748
Deer Trail,Colorado,1180,1000,Denver-Aurora-Lakewood,2936665,$76250,14.41%,31,$383000,2059,$186,10,75.76%,$938,39.19%,N/A,N/A,15.25%,0.68%,68.37%,Arapahoe County,52.80%,38.60%,0.51%,0.0%,71.69%,26.02%,7.2%,Mountain Standard Time,90,42,48,58,15,43%,36%,29,47,89,69%,71%,70%,18.16,6.68,2.0,19.42%,27.69%,13.44%,43.6,16,8.0,41.1,88,5034,5.2,1.18,CO-19630,39.6151248,-104.0432065
Del Norte,Colorado,1576,1608,None,N/A,$39861,23.03%,52,N/A,N/A,N/A,48,71.81%,$812,52.7%,N/A,N/A,13.44%,6.58%,58.4%,Rio Grande County,36.20%,55.70%,0.0%,1.33%,54.95%,38.58%,1.65%,N/A,80,31,49,49,3,40%,34%,27,43,80,78%,82%,74%,10.77,4.42,1.66,19.15%,30.0%,14.33%,39.9,21,N/A,35.4,94,7209,5.5,0.98,CO-19795,37.6784621,-106.3539356
Denver,Colorado,713734,4663,Denver-Aurora-Lakewood,2936665,$91681,55.65%,35,$565000,1503,$376,46,54.05%,$1770,59.31%,748,3743,11.21%,4.6%,74.29%,Denver County,73.70%,18.90%,3.62%,8.8%,54.57%,27.94%,13.85%,Mountain Standard Time,90,45,45,60,17,43%,36%,29,47,89,69%,71%,70%,14.89,4.82,1.67,22.93%,27.91%,18.11%,46.1,27,8.0,41.1,31,4833,4.8,153.07,CO-20000,39.7619783,-104.8757688
Dillon,Colorado,933,626,Breckenridge,31042,$95750,65.66%,51,$782000,879,$890,40,51.15%,$1682,50.17%,305,2548,5.47%,2.8%,65.11%,Summit County,59.10%,31.50%,1.71%,3.86%,76.74%,13.83%,9.54%,N/A,76,30,46,39,2,43%,36%,29,47,75,69%,71%,70%,15.66,4.95,3.09,35.67%,36.04%,40.78%,122.9,61,8.0,41.1,95,8289,5.8,1.49,CO-20440,39.6212995,-106.0393134
Dinosaur,Colorado,614,660,Craig,13240,$51086,8.06%,33,N/A,N/A,N/A,19,66.67%,$879,50.24%,N/A,N/A,1.79%,54.59%,58.51%,Moffat County,13.40%,81.30%,0.0%,0.0%,29.64%,70.36%,0.0%,N/A,91,29,62,62,13,36%,21%,29,41,87,69%,79%,60%,10.77,2.12,2.46,22.6%,17.58%,26.33%,24.8,11,7.7,33.0,94,5544,5.8,0.93,CO-20495,40.239861,-109.0067951
Divide,Colorado,88,259,Colorado Springs,747343,N/A,0.0%,47,N/A,N/A,N/A,N/A,100.0%,N/A,26.14%,N/A,N/A,0.0%,0.0%,73.86%,Teller County,24.90%,67.50%,0.0%,0.0%,31.82%,68.18%,0.0%,Mountain Standard Time,74,32,42,46,10,40%,39%,27,45,73,78%,82%,74%,20.06,8.47,2.63,28.85%,37.36%,19.56%,114.3,34,8.0,35.4,94,8352,5.4,0.34,CO-20605,38.9450062,-105.1619493
Dolores,Colorado,947,1435,None,N/A,$33438,33.21%,39,N/A,N/A,N/A,44,36.18%,$749,40.98%,N/A,N/A,14.26%,0.0%,69.05%,Montezuma County,30.90%,61.10%,0.0%,13.73%,62.72%,4.22%,16.05%,N/A,91,43,48,58,15,36%,21%,29,41,87,69%,79%,60%,18.6,3.96,6.01,25.4%,27.03%,29.0%,62.7,22,7.7,33.0,96,6522,6.2,0.66,CO-20770,37.4740928,-108.4998885
Dotsero,Colorado,1321,971,Edwards,55693,$93000,20.55%,27,$515000,1247,$413,15,83.68%,N/A,46.49%,N/A,N/A,1.74%,3.86%,95.43%,Eagle County,55.90%,35.60%,0.0%,0.0%,19.76%,77.74%,33.01%,N/A,90,35,55,60,14,36%,21%,29,41,86,69%,79%,60%,19.04,4.33,5.21,41.84%,25.49%,54.22%,169.9,66,7.7,33.0,94,5478,5.7,1.36,CO-21155,39.6461288,-107.0651735
Dove Creek,Colorado,680,1193,None,N/A,$69659,13.41%,36,N/A,N/A,N/A,44,74.82%,N/A,46.05%,N/A,N/A,30.15%,6.65%,59.4%,Dolores County,19.30%,75.20%,0.0%,0.0%,75.44%,15.88%,0.0%,N/A,88,37,51,53,10,36%,21%,29,41,85,69%,79%,60%,14.9,2.96,4.85,18.96%,19.23%,24.0%,26.7,15,7.7,33.0,96,6108,6,0.57,CO-21265,37.7668418,-108.9071734
Dove Valley,Colorado,5313,1484,Denver-Aurora-Lakewood,2936665,$85772,43.41%,32,$420000,1364,$308,16,45.67%,$1892,61.81%,N/A,N/A,13.25%,3.7%,79.62%,Arapahoe County,52.80%,38.60%,5.35%,17.71%,51.27%,25.71%,15.4%,Mountain Standard Time,88,44,44,59,18,43%,36%,29,47,87,69%,71%,70%,14.78,5.63,1.28,23.04%,29.34%,16.78%,65.3,29,8.0,41.1,63,5379,5.2,3.58,CO-21330,39.57771,-104.8294
Downieville-Lawson-Dumont,Colorado,478,613,Denver-Aurora-Lakewood,2936665,$68214,17.9%,55,N/A,N/A,N/A,44,95.07%,N/A,39.52%,N/A,N/A,4.6%,0.0%,62.23%,Clear Creek County,46.50%,43.90%,0.0%,0.0%,63.39%,33.68%,12.34%,Mountain Standard Time,77,36,41,49,15,43%,36%,29,47,76,69%,71%,70%,17.95,5.85,2.75,32.63%,38.46%,29.33%,101.2,57,8.0,41.1,98,7791,5.8,0.78,CO-21390,39.7662462,-105.6125866
Durango,Colorado,19257,1309,Durango,55673,$79545,58.27%,37,$637000,1376,$463,34,58.95%,$1562,58.15%,389,3170,14.88%,2.63%,66.4%,La Plata County,49.80%,40.40%,1.07%,0.49%,78.07%,9.16%,1.7%,N/A,81,35,46,52,12,40%,34%,27,43,80,69%,79%,60%,18.43,4.67,5.51,26.9%,33.52%,27.44%,127.3,38,7.7,33.0,85,6057,6.2,14.71,CO-22035,37.265873,-107.8782945
Eads,Colorado,647,1348,None,N/A,$58542,23.43%,42,N/A,N/A,N/A,61,76.94%,$880,47.27%,N/A,N/A,5.48%,0.0%,68.11%,Kiowa County,10.60%,85.10%,0.0%,0.0%,89.95%,7.57%,0.62%,N/A,92,44,48,62,16,49%,41%,35,55,94,78%,82%,74%,15.25,7.52,1.14,15.07%,22.86%,8.78%,16.0,8,8.0,45.5,90,3849,5.2,0.48,CO-22145,38.4814227,-102.7796615
Eagle,Colorado,7479,1326,Edwards,55693,$103850,51.95%,36,$1185000,2570,$461,21,68.82%,$1706,51.42%,N/A,N/A,7.21%,1.55%,75.01%,Eagle County,55.90%,35.60%,0.0%,0.09%,66.31%,31.73%,9.29%,N/A,90,35,55,60,14,36%,21%,29,41,86,69%,79%,60%,16.02,4.06,3.26,33.89%,22.97%,41.89%,169.9,66,7.7,33.0,94,6606,5.7,5.64,CO-22200,39.6247697,-106.7992605
East Pleasant View,Colorado,625,5682,Denver-Aurora-Lakewood,2936665,$89167,4.52%,33,N/A,N/A,N/A,52,100.0%,N/A,66.74%,N/A,N/A,14.4%,23.16%,37.98%,Jefferson County,48.90%,42.00%,0.0%,0.0%,34.24%,4.8%,0.0%,Mountain Standard Time,86,44,42,60,20,43%,36%,29,47,85,69%,71%,70%,16.47,4.42,2.41,23.15%,27.47%,18.89%,76.0,33,8.0,41.1,61,5091,5.7,0.11,CO-22575,39.7276942,-105.1572359
Eaton,Colorado,5832,1846,Greeley,322424,$106146,39.07%,39,$463000,2194,$211,19,83.95%,$1710,32.48%,52,720,6.39%,3.01%,70.74%,Weld County,34.30%,56.60%,1.49%,0.0%,64.99%,30.62%,7.6%,Mountain Standard Time,92,42,50,60,16,45%,39%,29,47,93,64%,67%,60%,13.66,4.23,1.16,24.6%,32.75%,14.78%,34.8,17,8.0,41.1,76,4338,5.2,3.16,CO-22860,40.5256858,-104.7129856
Eckley,Colorado,353,751,None,N/A,$53125,27.97%,34,N/A,N/A,N/A,82,61.98%,$742,35.07%,N/A,N/A,19.55%,6.15%,72.76%,Yuma County,15.20%,80.40%,0.0%,0.0%,58.64%,34.56%,22.1%,N/A,93,43,50,63,17,49%,41%,35,55,95,69%,71%,70%,18.43,8.31,1.41,19.1%,26.92%,11.56%,29.9,11,8.0,45.5,89,3780,5.2,0.47,CO-23025,40.112353,-102.4882764
Edgewater,Colorado,4955,7079,Denver-Aurora-Lakewood,2936665,$74320,41.71%,34,$691000,1542,$448,61,42.11%,$1468,67.97%,167,6563,9.42%,6.15%,84.8%,Jefferson County,48.90%,42.00%,1.19%,0.93%,53.42%,40.89%,11.34%,Mountain Standard Time,86,44,42,60,20,43%,36%,29,47,85,69%,71%,70%,16.82,5.03,2.51,23.12%,28.68%,17.67%,76.0,33,8.0,41.1,34,4986,5.7,0.7,CO-23135,39.7508492,-105.0626196
Edwards,Colorado,10415,391,Edwards,55693,$90735,57.85%,38,$2295000,3020,$760,24,68.85%,$1885,49.12%,N/A,N/A,11.58%,8.47%,71.61%,Eagle County,55.90%,35.60%,2.05%,2.23%,60.28%,30.97%,17.66%,N/A,77,28,49,43,6,43%,36%,29,47,76,69%,71%,70%,27.76,4.71,7.8,33.89%,22.97%,41.89%,301.7,104,8.0,41.1,95,8670,5.7,26.64,CO-23300,39.6214932,-106.6183
El Jebel,Colorado,3935,741,Edwards,55693,$100518,50.18%,41,$1450000,2594,$559,26,77.33%,$3145,44.85%,N/A,N/A,9.62%,0.0%,79.02%,Eagle County,55.90%,35.60%,0.38%,0.0%,65.79%,31.05%,18.96%,N/A,90,35,55,60,14,36%,21%,29,41,86,69%,79%,60%,19.57,4.29,4.93,29.73%,30.33%,33.22%,169.9,66,7.7,33.0,89,5877,5.7,5.31,CO-23795,39.4050584,-107.0920467
El Moro,Colorado,203,18,None,N/A,$107625,23.23%,57,N/A,N/A,N/A,37,94.74%,N/A,40.76%,N/A,N/A,2.96%,5.96%,82.07%,Las Animas County,39.00%,54.60%,0.0%,0.0%,72.41%,27.59%,0.0%,N/A,89,49,40,61,21,36%,32%,31,49,87,78%,82%,74%,13.93,5.36,1.76,20.0%,30.0%,14.11%,51.1,15,N/A,35.4,89,5514,5.1,11.09,CO-24290,37.234956,-104.4491277
Elbert,Colorado,150,319,Denver-Aurora-Lakewood,2936665,$56500,23.58%,37,$850000,3761,$226,82,88.64%,$1188,42.02%,N/A,N/A,5.33%,5.19%,64.71%,Elbert County,19.60%,73.20%,0.0%,0.0%,89.33%,2.0%,0.0%,Mountain Standard Time,81,39,42,50,9,40%,39%,27,45,81,69%,71%,70%,21.41,9.74,2.22,26.77%,36.37%,22.78%,110.1,41,8.0,41.1,93,6594,5.2,0.47,CO-23520,39.2188562,-104.5404435
Eldora,Colorado,440,106,Boulder,328713,N/A,48.7%,33,N/A,N/A,N/A,82,0.0%,N/A,91.14%,N/A,N/A,56.36%,0.0%,83.64%,Boulder County,70.30%,22.00%,0.0%,0.0%,78.64%,21.36%,0.0%,Mountain Standard Time,68,28,40,43,11,43%,36%,29,47,66,69%,71%,70%,30.84,5.07,8.45,36.66%,23.63%,44.56%,206.3,70,8.0,41.1,92,8871,5.8,4.16,CO-23575,39.9536023,-105.578031
Eldorado Springs,Colorado,355,138,Boulder,328713,$127742,90.4%,45,N/A,N/A,N/A,55,94.67%,N/A,56.98%,N/A,N/A,8.17%,3.79%,63.36%,Boulder County,70.30%,22.00%,0.0%,0.0%,98.03%,0.0%,4.23%,Mountain Standard Time,89,46,43,57,20,43%,36%,29,47,88,69%,71%,70%,20.86,4.85,2.9,24.85%,31.21%,19.33%,97.1,32,8.0,41.1,82,5046,5.8,2.58,CO-23630,39.9367201,-105.2624928
Elizabeth,Colorado,1694,847,Denver-Aurora-Lakewood,2936665,$110227,39.56%,33,$624000,2943,$212,26,75.54%,$1526,32.56%,140,1053,3.2%,3.26%,68.89%,Elbert County,19.60%,73.20%,0.18%,0.0%,86.78%,5.73%,2.66%,Mountain Standard Time,85,42,43,57,18,43%,36%,29,47,84,69%,71%,70%,19.5,7.25,2.81,27.26%,37.14%,20.33%,58.4,24,8.0,41.1,90,6045,5.2,2.0,CO-23740,39.3526002,-104.6205795
Ellicott,Colorado,1337,122,Colorado Springs,747343,$55822,7.24%,35,N/A,N/A,N/A,42,42.98%,$597,30.5%,N/A,N/A,39.04%,1.18%,64.25%,El Paso County,33.90%,56.20%,3.74%,0.0%,37.77%,55.95%,18.85%,Mountain Standard Time,88,47,41,56,14,40%,39%,27,45,88,78%,82%,74%,14.55,7.25,0.93,23.15%,35.6%,15.33%,31.4,21,8.0,35.4,90,5247,5.3,10.92,CO-24235,38.8255902,-104.3828761
Empire,Colorado,549,2033,Denver-Aurora-Lakewood,2936665,$63092,18.44%,45,N/A,N/A,N/A,48,65.12%,$1566,55.85%,N/A,N/A,12.93%,4.36%,72.42%,Clear Creek County,46.50%,43.90%,0.36%,0.55%,88.34%,3.1%,0.55%,Mountain Standard Time,77,36,41,49,15,43%,36%,29,47,76,69%,71%,70%,17.95,5.85,2.75,32.63%,38.46%,29.33%,101.2,57,8.0,41.1,98,7791,5.8,0.27,CO-24620,39.7595255,-105.6821211
Englewood,Colorado,33774,5148,Denver-Aurora-Lakewood,2936665,$82016,46.4%,37,$570000,1707,$334,55,52.83%,$1563,59.53%,204,5224,8.11%,3.9%,74.88%,Arapahoe County,52.80%,38.60%,2.44%,3.88%,68.21%,19.34%,7.79%,Mountain Standard Time,87,45,42,60,19,43%,36%,29,47,86,69%,71%,70%,17.72,5.53,2.49,24.11%,31.98%,17.56%,65.3,29,8.0,41.1,29,4938,5.2,6.56,CO-24785,39.6467894,-104.994274
Erie,Colorado,31927,1617,Boulder,328713,$163644,66.45%,38,$695000,3145,$221,13,85.46%,$2775,32.92%,105,901,3.02%,3.61%,76.32%,Weld County,34.30%,56.60%,6.48%,0.13%,78.1%,10.35%,8.51%,Mountain Standard Time,88,44,44,60,16,43%,36%,29,47,87,69%,71%,70%,16.19,4.35,2.05,23.48%,27.47%,18.22%,67.5,28,8.0,41.1,66,4674,5.8,19.74,CO-24950,40.0402845,-105.0399105
Estes Park,Colorado,5879,862,Fort Collins,354670,$73313,56.24%,61,$730000,1891,$386,29,65.77%,$1431,41.43%,156,905,9.88%,0.46%,48.48%,Larimer County,47.50%,42.60%,2.84%,0.39%,88.89%,5.41%,5.48%,Mountain Standard Time,80,36,44,49,16,43%,36%,29,47,80,69%,71%,70%,18.02,5.52,2.45,31.26%,40.33%,26.56%,107.4,55,8.0,41.1,92,7143,4.7,6.82,CO-25115,40.3656455,-105.5080185
Evans,Colorado,22265,2187,Greeley,322424,$72926,20.24%,30,$396000,2095,$189,18,69.06%,$1497,52.44%,217,1880,14.2%,7.75%,72.69%,Weld County,34.30%,56.60%,1.37%,1.71%,44.85%,48.19%,15.1%,Mountain Standard Time,92,42,50,60,16,43%,36%,29,47,92,69%,71%,70%,14.84,4.6,1.42,21.67%,25.93%,14.56%,34.8,17,8.0,41.1,35,4347,5.2,10.18,CO-25280,40.3456164,-104.7720627
Evergreen,Colorado,8643,750,Denver-Aurora-Lakewood,2936665,$148665,69.38%,46,$975000,2739,$356,43,84.84%,$1955,35.73%,N/A,N/A,4.51%,1.05%,67.0%,Jefferson County,48.90%,42.00%,0.81%,0.84%,87.99%,6.83%,3.51%,Mountain Standard Time,81,44,37,49,13,43%,36%,29,47,80,69%,71%,70%,18.75,6.02,2.61,25.89%,36.7%,20.11%,140.5,42,8.0,41.1,92,6387,5.7,11.52,CO-25390,39.6348977,-105.3355612
Fairmount,Colorado,10521,1730,Denver-Aurora-Lakewood,2936665,$163785,61.58%,43,$855000,2599,$329,36,91.87%,$2505,31.83%,N/A,N/A,2.86%,1.78%,66.42%,Jefferson County,48.90%,42.00%,1.03%,0.28%,87.26%,7.92%,4.02%,Mountain Standard Time,88,45,43,58,16,43%,36%,29,47,87,69%,71%,70%,18.92,5.43,2.7,24.68%,31.65%,18.78%,76.0,33,8.0,41.1,75,5229,5.7,6.08,CO-25550,39.7930566,-105.1711771
Fairplay,Colorado,851,740,Denver-Aurora-Lakewood,2936665,$82031,33.11%,38,N/A,N/A,N/A,45,73.41%,$1634,58.86%,0,1423,3.53%,2.13%,80.56%,Park County,32.80%,58.90%,0.0%,1.76%,88.01%,6.35%,1.18%,Mountain Standard Time,71,30,41,43,9,43%,36%,29,47,69,69%,71%,70%,15.33,5.75,2.21,34.47%,31.32%,40.0%,301.7,104,8.0,41.1,99,9141,6.2,1.15,CO-25610,39.2245036,-105.9965392
Federal Heights,Colorado,14160,7955,Denver-Aurora-Lakewood,2936665,$57957,12.17%,32,$406000,1450,$280,30,52.74%,$1655,51.68%,N/A,N/A,20.78%,4.79%,68.67%,Adams County,49.90%,41.30%,3.45%,1.14%,28.23%,65.63%,27.55%,Mountain Standard Time,92,46,46,60,19,43%,36%,29,47,92,69%,71%,70%,17.48,4.64,2.62,20.93%,26.04%,14.44%,50.2,21,8.0,41.1,32,5064,5.1,1.78,CO-26270,39.8650549,-105.015428
Firestone,Colorado,17353,1279,Greeley,322424,$114591,33.74%,36,$568000,2654,$214,13,87.39%,$1916,44.0%,38,816,3.85%,4.37%,74.69%,Weld County,34.30%,56.60%,4.11%,1.19%,65.85%,24.87%,6.51%,Mountain Standard Time,88,44,44,60,16,43%,36%,29,47,87,69%,71%,70%,14.41,3.83,1.64,22.96%,25.93%,18.0%,49.4,27,8.0,41.1,59,4539,5.2,13.57,CO-26600,40.1564189,-104.9493933
Flagler,Colorado,597,436,None,N/A,$37941,20.04%,41,N/A,N/A,N/A,62,65.51%,$840,60.12%,N/A,N/A,8.54%,15.42%,46.9%,Kit Carson County,14.50%,80.10%,0.0%,0.0%,95.98%,3.18%,4.52%,N/A,90,43,47,60,16,49%,41%,35,55,91,69%,71%,70%,16.45,8.03,1.04,11.15%,16.7%,7.78%,25.4,7,8.0,45.5,93,4500,4.8,1.37,CO-26765,39.2941639,-103.065258
Fleming,Colorado,598,1220,Sterling,21765,$51875,18.57%,35,$79000,963,$82,56,82.88%,$937,44.44%,N/A,N/A,8.19%,1.82%,64.47%,Logan County,19.00%,74.90%,0.0%,0.0%,78.43%,16.72%,1.34%,N/A,91,41,50,61,16,47%,40%,32,52,91,64%,67%,60%,16.99,6.81,1.17,17.21%,22.64%,12.22%,40.5,21,8.0,43.5,89,3891,4.7,0.49,CO-26875,40.6820751,-102.8396309
Florence,Colorado,3870,904,None,N/A,$57239,19.67%,43,$204000,1046,$195,46,74.25%,$694,50.28%,75,1109,14.96%,1.83%,63.51%,Fremont County,24.10%,68.80%,4.42%,0.49%,79.69%,13.02%,3.26%,N/A,89,49,40,60,18,36%,32%,31,49,87,78%,82%,74%,14.26,5.89,1.63,19.62%,30.99%,14.11%,39.4,18,8.0,35.4,91,4968,5.4,4.28,CO-27040,38.3836314,-105.1114576
Florissant,Colorado,156,300,Colorado Springs,747343,$91838,40.59%,48,N/A,N/A,N/A,53,88.95%,N/A,21.05%,N/A,N/A,0.0%,0.0%,41.23%,Teller County,24.90%,67.50%,0.0%,0.0%,100.0%,0.0%,0.0%,Mountain Standard Time,80,38,42,43,5,40%,39%,27,45,80,78%,82%,74%,16.45,7.63,1.81,21.1%,33.96%,14.22%,48.3,20,8.0,35.4,94,7683,5.4,0.52,CO-27095,38.9445572,-105.2898697
Floyd Hill,Colorado,850,135,Denver-Aurora-Lakewood,2936665,$186420,68.07%,49,N/A,N/A,N/A,36,84.95%,$1157,30.85%,N/A,N/A,3.76%,5.3%,76.36%,Clear Creek County,46.50%,43.90%,9.53%,0.0%,83.18%,1.88%,6.0%,Mountain Standard Time,81,44,37,49,13,43%,36%,29,47,80,69%,71%,70%,19.21,6.22,2.55,32.93%,44.62%,26.67%,140.5,42,8.0,41.1,95,7983,5.8,6.29,CO-27175,39.721652,-105.4312596
Fort Carson,Colorado,18447,660,Colorado Springs,747343,$61783,27.19%,22,N/A,N/A,N/A,18,0.39%,$2046,53.77%,N/A,N/A,11.29%,2.99%,85.49%,El Paso County,33.90%,56.20%,3.01%,15.3%,52.01%,22.1%,4.09%,Mountain Standard Time,87,44,43,59,18,40%,39%,27,45,87,78%,82%,74%,17.25,8.91,1.35,23.15%,35.6%,15.33%,31.4,21,8.0,35.4,83,5244,5.3,27.97,CO-27370,38.7095257,-104.7719929
Fort Collins,Colorado,169705,2966,Fort Collins,354670,$83598,59.85%,31,$560000,2231,$251,28,57.79%,$1661,58.21%,217,2172,15.97%,5.16%,70.69%,Larimer County,47.50%,42.60%,3.35%,1.39%,77.85%,12.34%,6.61%,Mountain Standard Time,88,43,45,59,17,45%,39%,29,47,87,64%,67%,60%,15.79,4.47,1.83,24.08%,32.53%,16.11%,51.8,23,8.0,41.1,61,4575,4.7,57.21,CO-27425,40.547627,-105.065643
Fort Garland,Colorado,426,1121,None,N/A,$29750,5.29%,24,N/A,N/A,N/A,34,56.18%,$871,47.1%,N/A,N/A,33.33%,3.31%,52.61%,Costilla County,60.90%,31.80%,0.0%,10.09%,10.8%,72.77%,8.69%,N/A,81,32,49,53,10,40%,34%,27,43,80,78%,82%,74%,9.88,4.08,1.46,25.97%,22.09%,29.44%,30.4,20,N/A,35.4,96,7101,5.2,0.38,CO-27535,37.4279161,-105.4350075
Fort Lupton,Colorado,8494,699,Greeley,322424,$64850,12.9%,34,$462000,1933,$239,42,71.19%,$1296,49.56%,N/A,N/A,14.72%,7.4%,69.08%,Weld County,34.30%,56.60%,0.22%,0.4%,35.78%,60.22%,16.68%,Mountain Standard Time,91,43,48,59,16,43%,36%,29,47,90,69%,71%,70%,13.18,4.14,1.22,20.19%,25.38%,13.44%,33.2,18,8.0,41.1,52,4605,5.2,12.15,CO-27700,40.0826798,-104.806839
Fort Morgan,Colorado,11521,2162,Fort Morgan,28868,$59121,18.39%,33,$324000,2382,$136,52,56.22%,$1074,48.48%,378,2386,15.54%,6.31%,64.58%,Morgan County,26.30%,68.10%,1.02%,7.02%,41.65%,48.28%,18.18%,N/A,91,41,50,60,12,43%,36%,29,47,90,69%,71%,70%,14.63,6.4,0.93,17.53%,24.62%,10.89%,27.4,12,8.0,41.1,58,4002,4.9,5.33,CO-27810,40.2536832,-103.7902694
Fountain,Colorado,29327,1303,Colorado Springs,747343,$85246,32.55%,31,N/A,N/A,N/A,22,68.56%,$1778,43.07%,409,2142,8.73%,4.54%,69.15%,El Paso County,33.90%,56.20%,3.6%,9.83%,56.05%,25.22%,6.41%,Mountain Standard Time,87,44,43,59,18,40%,39%,27,45,87,78%,82%,74%,17.25,8.91,1.35,23.15%,35.6%,15.33%,31.4,21,8.0,35.4,73,5244,5.3,22.5,CO-27865,38.6884754,-104.6827748
Fowler,Colorado,1101,1966,None,N/A,$42083,23.16%,55,N/A,N/A,N/A,64,67.42%,$823,58.9%,0,614,21.98%,0.86%,51.05%,Otero County,34.80%,58.30%,0.0%,1.63%,82.02%,15.08%,2.82%,N/A,93,46,47,59,15,36%,32%,31,49,92,78%,82%,74%,11.44,5.82,0.67,10.9%,18.46%,6.0%,18.9,7,8.0,35.4,87,4464,5.3,0.56,CO-27975,38.1304313,-104.0264666
Foxfield,Colorado,739,560,Denver-Aurora-Lakewood,2936665,$195750,56.57%,55,N/A,N/A,N/A,38,99.35%,N/A,29.61%,N/A,N/A,2.33%,1.61%,58.99%,Arapahoe County,52.80%,38.60%,16.37%,3.52%,70.23%,7.98%,17.59%,Mountain Standard Time,88,44,44,59,18,43%,36%,29,47,87,69%,71%,70%,17.27,5.9,2.19,23.81%,30.11%,19.0%,65.3,29,8.0,41.1,67,5475,5.2,1.32,CO-28105,39.5881395,-104.7857409
Franktown,Colorado,405,138,Denver-Aurora-Lakewood,2936665,N/A,56.66%,45,$1553000,5507,$282,26,100.0%,N/A,10.24%,N/A,N/A,0.0%,0.0%,62.12%,Douglas County,36.60%,54.70%,0.0%,0.0%,100.0%,0.0%,0.0%,Mountain Standard Time,85,42,43,57,18,43%,36%,29,47,84,69%,71%,70%,18.1,6.56,2.28,27.26%,37.14%,20.33%,58.4,24,8.0,41.1,84,5949,4.8,2.94,CO-28250,39.3905358,-104.7486626
Fraser,Colorado,1189,344,None,N/A,$81786,39.38%,37,N/A,N/A,N/A,25,30.99%,$1658,65.7%,N/A,N/A,14.97%,9.92%,91.72%,Grand County,39.10%,52.30%,1.01%,2.52%,73.68%,11.1%,12.36%,N/A,77,30,47,39,-2,43%,36%,29,47,76,69%,71%,70%,20.49,5.42,4.96,30.41%,26.15%,37.11%,206.3,70,8.0,41.1,94,7827,6,3.46,CO-28305,39.930299,-105.8029209
Frederick,Colorado,15893,1053,Greeley,322424,$135316,36.54%,37,$545000,2290,$238,13,93.96%,$2252,33.36%,0,98,2.96%,3.06%,77.0%,Weld County,34.30%,56.60%,3.79%,0.16%,74.41%,17.49%,3.8%,Mountain Standard Time,88,44,44,60,16,43%,36%,29,47,87,69%,71%,70%,14.82,4.21,1.65,22.96%,25.93%,18.0%,49.4,27,8.0,41.1,58,4503,5.2,15.1,CO-28360,40.1088674,-104.970038
Frisco,Colorado,2865,1716,Breckenridge,31042,$113406,72.3%,44,$1090000,1341,$813,31,71.21%,$2582,48.96%,341,2608,1.12%,0.0%,69.88%,Summit County,59.10%,31.50%,0.98%,0.0%,74.69%,2.62%,9.81%,N/A,76,30,46,39,2,43%,36%,29,47,75,69%,71%,70%,15.66,4.95,3.09,35.67%,36.04%,40.78%,122.9,61,8.0,41.1,93,8289,5.8,1.67,CO-28690,39.5790964,-106.0915301
Fruita,Colorado,13578,1721,Grand Junction,154685,$77680,31.13%,41,$423000,1665,$254,22,67.38%,$1275,41.82%,162,1540,3.86%,1.97%,59.83%,Mesa County,28.00%,64.10%,0.32%,1.19%,83.65%,9.35%,0.74%,Mountain Standard Time,96,38,58,62,14,36%,21%,29,41,93,69%,79%,60%,10.72,2.31,2.42,19.18%,16.81%,21.33%,18.5,14,7.7,33.0,79,4113,5.8,7.89,CO-28745,39.1548346,-108.7304526
Fruitvale,Colorado,7998,2748,Grand Junction,154685,$76339,27.1%,42,$341000,1457,$234,36,88.73%,$1800,42.0%,N/A,N/A,10.0%,3.55%,62.53%,Mesa County,28.00%,64.10%,0.19%,0.0%,82.82%,13.14%,3.33%,Mountain Standard Time,95,37,58,67,18,36%,21%,29,41,92,69%,79%,60%,11.54,2.57,2.33,19.18%,16.81%,21.33%,18.5,14,7.7,33.0,69,4281,5.8,2.91,CO-28800,39.0932769,-108.4789132
Garden City,Colorado,293,2664,Greeley,322424,N/A,1.88%,38,N/A,N/A,N/A,54,25.0%,$1091,71.32%,N/A,N/A,12.63%,29.55%,64.71%,Weld County,34.30%,56.60%,0.0%,0.34%,28.67%,66.55%,17.75%,Mountain Standard Time,92,42,50,60,16,43%,36%,29,47,92,69%,71%,70%,15.57,5.13,1.68,24.6%,32.75%,14.78%,34.8,17,8.0,41.1,22,4311,5.2,0.11,CO-29185,40.3945914,-104.689494
Genesee,Colorado,3826,578,Denver-Aurora-Lakewood,2936665,$172692,73.38%,53,$835000,2500,$334,33,89.49%,$2797,25.73%,N/A,N/A,2.25%,2.01%,57.13%,Jefferson County,48.90%,42.00%,0.63%,0.42%,87.43%,4.13%,5.51%,Mountain Standard Time,81,44,37,49,13,43%,36%,29,47,80,69%,71%,70%,24.59,5.8,4.29,28.6%,38.57%,22.0%,140.5,42,8.0,41.1,88,6816,5.7,6.62,CO-29625,39.6872101,-105.2718632
Genoa,Colorado,179,577,None,N/A,$51750,24.31%,51,N/A,N/A,N/A,82,74.81%,$888,58.22%,N/A,N/A,17.88%,0.0%,57.53%,Lincoln County,16.80%,77.70%,0.0%,0.0%,91.06%,5.59%,0.0%,N/A,86,41,45,60,20,40%,39%,27,45,85,69%,71%,70%,16.0,7.72,0.9,21.64%,29.78%,15.33%,43.5,22,8.0,41.1,91,5115,5.3,0.31,CO-29680,39.2782183,-103.4987168
Georgetown,Colorado,1082,1082,Denver-Aurora-Lakewood,2936665,$75804,45.26%,51,$380000,1176,$323,50,63.72%,$1361,50.99%,N/A,N/A,13.73%,12.81%,68.02%,Clear Creek County,46.50%,43.90%,1.02%,0.37%,86.23%,6.56%,3.51%,Mountain Standard Time,77,36,41,49,15,43%,36%,29,47,76,69%,71%,70%,17.95,5.85,2.75,32.63%,38.46%,29.33%,101.2,57,8.0,41.1,98,7791,5.8,1.0,CO-29735,39.7179531,-105.6942448
Gerrard,Colorado,359,299,None,N/A,$90284,54.73%,39,N/A,N/A,N/A,35,57.93%,N/A,28.94%,N/A,N/A,6.13%,0.0%,47.27%,Rio Grande County,36.20%,55.70%,0.0%,0.0%,100.0%,0.0%,0.0%,N/A,80,31,49,49,3,40%,34%,27,43,80,78%,82%,74%,17.14,5.79,3.15,33.1%,33.3%,35.67%,39.9,21,7.7,35.4,96,8010,5.5,1.2,CO-29845,37.6783487,-106.575244
Gilcrest,Colorado,987,1219,Greeley,322424,$66771,5.9%,33,N/A,N/A,N/A,45,84.72%,$1900,44.55%,N/A,N/A,15.2%,0.0%,68.44%,Weld County,34.30%,56.60%,0.0%,0.91%,27.36%,72.54%,16.41%,Mountain Standard Time,92,42,50,60,16,43%,36%,29,47,92,69%,71%,70%,14.23,4.17,1.5,20.11%,24.95%,12.56%,34.8,17,8.0,41.1,54,4428,5.2,0.81,CO-29955,40.2841564,-104.7820236
Glendale,Colorado,4546,7975,Denver-Aurora-Lakewood,2936665,$68952,51.97%,31,N/A,N/A,N/A,37,7.83%,$1723,71.12%,945,17697,15.51%,1.91%,88.79%,Arapahoe County,52.80%,38.60%,1.03%,15.66%,50.33%,23.87%,17.53%,Mountain Standard Time,92,46,46,61,18,43%,36%,29,47,92,69%,71%,70%,16.49,5.35,2.03,21.37%,27.69%,16.67%,46.1,27,8.0,41.1,13,4959,5.2,0.57,CO-30340,39.7036256,-104.9352064
Glendale CDP,Colorado,71,57,Boulder,328713,$194375,100.0%,40,N/A,N/A,N/A,27,39.45%,N/A,0.0%,945,17697,0.0%,0.0%,85.37%,Boulder County,70.30%,22.00%,0.0%,0.0%,42.25%,46.48%,0.0%,Mountain Standard Time,89,46,43,57,20,43%,36%,29,47,88,69%,71%,70%,21.13,5.88,2.96,38.41%,44.29%,35.78%,184.6,70,8.0,41.1,86,6441,5.8,1.25,CO-30350,40.0869111,-105.371546
Gleneagle,Colorado,6207,2653,Colorado Springs,747343,$137105,65.49%,44,N/A,N/A,N/A,23,85.87%,$2051,28.55%,N/A,N/A,5.22%,2.58%,67.7%,El Paso County,33.90%,56.20%,5.4%,2.22%,80.83%,6.22%,8.55%,Mountain Standard Time,85,45,40,56,18,40%,39%,27,45,84,69%,71%,70%,18.16,7.49,2.04,31.1%,45.16%,24.44%,110.1,41,8.0,41.1,86,6327,5.3,2.34,CO-30420,39.0452775,-104.8287427
Glenwood Springs,Colorado,10171,1742,Glenwood Springs,78692,$87000,38.09%,36,$610000,1306,$467,37,53.24%,$1717,54.56%,269,4677,8.87%,3.64%,78.03%,Garfield County,42.60%,49.60%,0.49%,0.9%,56.78%,36.41%,18.21%,N/A,89,36,53,55,12,36%,21%,29,41,85,69%,79%,60%,19.15,3.59,4.99,29.73%,30.33%,33.22%,27.6,25,7.7,33.0,84,5325,6,5.84,CO-30780,39.5455947,-107.3347045
Gold Hill,Colorado,288,138,Boulder,328713,N/A,84.17%,43,N/A,N/A,N/A,82,49.74%,$1603,51.67%,N/A,N/A,18.4%,0.0%,91.67%,Boulder County,70.30%,22.00%,0.0%,0.0%,98.96%,0.0%,10.07%,Mountain Standard Time,68,28,40,43,11,43%,36%,29,47,66,69%,71%,70%,21.13,5.88,2.96,38.41%,44.29%,35.78%,184.6,70,8.0,41.1,86,6441,5.8,2.08,CO-30945,40.0597332,-105.4189204
Golden,Colorado,20467,2125,Denver-Aurora-Lakewood,2936665,$95913,59.0%,35,$910000,2514,$362,34,62.63%,$1854,60.24%,N/A,N/A,12.95%,4.53%,62.75%,Jefferson County,48.90%,42.00%,4.12%,1.58%,82.37%,7.26%,5.84%,Mountain Standard Time,86,44,42,60,20,43%,36%,29,47,85,69%,71%,70%,24.59,5.8,4.29,28.6%,38.57%,22.0%,140.5,42,8.0,41.1,82,6816,5.7,9.63,CO-30835,39.7406833,-105.2118321
Granada,Colorado,492,713,None,N/A,$46685,18.08%,42,N/A,N/A,N/A,41,72.26%,$713,48.3%,N/A,N/A,18.9%,0.0%,68.17%,Prowers County,23.60%,70.40%,0.0%,0.0%,30.49%,65.45%,18.09%,N/A,93,45,48,63,15,49%,41%,35,55,95,78%,82%,74%,16.8,8.04,1.34,16.0%,24.07%,9.11%,30.2,7,N/A,45.5,87,3111,5.1,0.69,CO-31550,38.0629732,-102.3115911
Granby,Colorado,2195,173,None,N/A,$82321,42.66%,40,N/A,N/A,N/A,25,67.34%,$1292,40.7%,0,1172,6.15%,2.35%,76.1%,Grand County,39.10%,52.30%,0.0%,0.32%,83.46%,3.23%,2.46%,N/A,75,25,50,45,2,43%,36%,29,47,74,69%,71%,70%,23.28,4.74,5.41,29.53%,32.75%,31.56%,206.3,70,8.0,41.1,90,7917,6,12.68,CO-31605,40.0648135,-105.9194003
Grand Junction,Colorado,67027,1691,Grand Junction,154685,$66676,36.08%,40,$395000,1586,$249,34,62.18%,$1101,54.75%,367,3851,13.02%,4.47%,61.41%,Mesa County,28.00%,64.10%,1.01%,0.76%,77.02%,16.58%,4.1%,Mountain Standard Time,95,37,58,67,18,36%,21%,29,41,92,69%,79%,60%,12.04,2.78,2.24,19.18%,16.81%,21.33%,18.5,14,7.7,33.0,68,4254,5.8,39.63,CO-31660,39.087711,-108.5675571
Grand Lake,Colorado,316,307,None,N/A,$100625,34.04%,60,N/A,N/A,N/A,42,63.57%,$810,60.0%,N/A,N/A,12.97%,2.04%,69.5%,Grand County,39.10%,52.30%,0.0%,0.0%,88.92%,0.0%,2.22%,N/A,77,30,47,41,4,43%,36%,29,47,76,69%,71%,70%,17.37,4.91,4.64,38.82%,42.75%,46.11%,118.0,55,8.0,41.1,89,7974,6,1.03,CO-31715,40.2530124,-105.8326483
Grand View Estates,Colorado,736,736,Denver-Aurora-Lakewood,2936665,$170375,46.94%,47,N/A,N/A,N/A,39,95.09%,N/A,40.68%,N/A,N/A,4.08%,5.62%,72.95%,Douglas County,36.60%,54.70%,0.0%,1.22%,79.62%,13.86%,2.85%,Mountain Standard Time,88,44,44,59,18,43%,36%,29,47,87,69%,71%,70%,18.29,6.44,2.2,23.04%,29.34%,16.78%,65.3,29,8.0,41.1,66,5394,4.8,1.0,CO-31935,39.5438904,-104.8205782
Green Mountain Falls,Colorado,717,652,Colorado Springs,747343,$96346,39.48%,46,N/A,N/A,N/A,68,71.45%,$1618,35.29%,0,280,4.22%,0.0%,71.32%,El Paso County,33.90%,56.20%,0.0%,0.0%,81.03%,17.43%,1.12%,Mountain Standard Time,73,38,35,44,10,40%,39%,27,45,72,78%,82%,74%,29.78,10.39,4.26,28.85%,37.36%,19.56%,114.3,34,8.0,35.4,94,10479,5.3,1.1,CO-32650,38.9344274,-105.0238072
Greenwood Village,Colorado,15485,1872,Denver-Aurora-Lakewood,2936665,$145781,78.92%,46,$1498000,3953,$379,27,69.31%,$2119,39.41%,N/A,N/A,4.88%,3.55%,63.44%,Arapahoe County,52.80%,38.60%,11.4%,0.5%,77.64%,7.06%,15.65%,Mountain Standard Time,88,44,44,59,18,43%,36%,29,47,87,69%,71%,70%,17.95,5.56,2.42,24.11%,31.98%,17.56%,65.3,29,8.0,41.1,47,5058,5.2,8.27,CO-33035,39.6152376,-104.9131156
Grover,Colorado,179,298,Greeley,322424,$41667,4.64%,60,N/A,N/A,N/A,48,65.57%,$675,35.58%,N/A,N/A,26.82%,0.0%,50.92%,Weld County,34.30%,56.60%,0.0%,0.0%,91.06%,0.56%,0.0%,Mountain Standard Time,90,40,50,58,10,45%,39%,32,52,90,64%,67%,60%,16.14,6.43,1.04,24.41%,31.87%,16.33%,44.7,24,8.0,43.5,88,4818,5.2,0.6,CO-33310,40.8691111,-104.2259322
Guffey,Colorado,29,3,Denver-Aurora-Lakewood,2936665,N/A,100.0%,N/A,N/A,N/A,N/A,42,0.0%,N/A,0.0%,N/A,N/A,0.0%,0.0%,0.0%,Park County,32.80%,58.90%,0.0%,0.0%,100.0%,0.0%,0.0%,Mountain Standard Time,77,36,41,51,16,40%,39%,27,45,76,78%,82%,74%,16.52,6.48,2.65,25.81%,43.96%,16.67%,77.7,29,8.0,35.4,97,8691,6.2,8.67,CO-33420,38.7591148,-105.5024275
Gunbarrel,Colorado,10424,1668,Boulder,328713,$111506,69.9%,42,$455000,1034,$440,41,63.45%,$1924,52.3%,N/A,N/A,9.41%,5.58%,70.56%,Boulder County,70.30%,22.00%,3.84%,0.22%,84.03%,4.09%,8.05%,Mountain Standard Time,89,46,43,57,20,43%,36%,29,47,88,69%,71%,70%,16.71,4.1,2.25,23.48%,28.02%,17.78%,67.5,28,8.0,41.1,74,4821,5.8,6.25,CO-33502,40.0632345,-105.171285
Gunnison,Colorado,6712,1384,None,N/A,$55313,54.59%,26,N/A,N/A,N/A,35,47.1%,$1120,73.29%,298,1360,26.05%,5.31%,75.49%,Gunnison County,54.50%,34.90%,1.33%,2.7%,78.9%,12.59%,2.16%,N/A,80,25,55,45,-7,40%,34%,27,43,80,69%,79%,60%,13.22,4.0,3.39,25.64%,29.78%,27.78%,60.6,45,7.7,33.0,87,7035,5.4,4.85,CO-33640,38.5479782,-106.9246049
Gypsum,Colorado,8481,958,Edwards,55693,$124534,30.33%,38,$580000,1432,$405,30,71.73%,$2198,41.86%,N/A,N/A,6.69%,0.77%,64.72%,Eagle County,55.90%,35.60%,0.26%,0.0%,44.1%,55.43%,23.59%,N/A,90,35,55,60,14,36%,21%,29,41,86,69%,79%,60%,16.02,4.06,3.26,33.89%,22.97%,41.89%,169.9,66,7.7,33.0,92,6606,5.7,8.85,CO-33695,39.6358535,-106.899099
Hartman,Colorado,63,233,None,N/A,N/A,10.91%,58,N/A,N/A,N/A,63,95.65%,N/A,22.03%,N/A,N/A,60.32%,0.0%,40.68%,Prowers County,23.60%,70.40%,0.0%,0.0%,65.08%,25.4%,0.0%,N/A,93,45,48,63,15,49%,41%,35,55,95,69%,78%,65%,16.8,8.04,1.34,16.0%,24.07%,9.11%,30.2,7,N/A,45.5,87,3111,5.1,0.27,CO-34520,38.1211277,-102.2216084
Hasty,Colorado,94,34,None,N/A,$24375,5.08%,56,N/A,N/A,N/A,44,87.58%,$825,84.62%,N/A,N/A,51.06%,0.0%,18.68%,Bent County,30.60%,61.70%,0.0%,0.0%,45.74%,51.06%,12.77%,N/A,95,46,49,65,17,36%,32%,31,49,95,78%,82%,74%,12.51,5.87,1.03,12.47%,18.79%,6.56%,12.3,3,N/A,35.4,87,3489,5.3,2.75,CO-34685,38.0998626,-102.9638929
Haswell,Colorado,50,63,None,N/A,$59583,23.68%,40,N/A,N/A,N/A,58,93.33%,$785,28.89%,N/A,N/A,6.0%,0.0%,62.22%,Kiowa County,10.60%,85.10%,0.0%,0.0%,100.0%,0.0%,0.0%,N/A,92,44,48,62,16,36%,32%,31,49,91,78%,82%,74%,14.91,6.93,1.29,15.07%,22.86%,8.78%,16.0,8,8.0,35.4,90,3852,5.2,0.8,CO-34740,38.4524924,-103.1649801
Haxtun,Colorado,957,1595,None,N/A,$53819,25.54%,45,N/A,N/A,N/A,53,89.6%,$570,37.94%,N/A,N/A,28.85%,2.33%,63.96%,Phillips County,18.70%,76.80%,0.63%,0.0%,86.83%,11.39%,3.97%,N/A,91,41,50,61,16,47%,40%,32,52,91,64%,67%,60%,17.1,7.01,1.28,20.36%,27.47%,12.89%,40.5,21,8.0,43.5,92,3690,4.9,0.6,CO-34960,40.6418724,-102.6297033
Hayden,Colorado,2010,613,Steamboat Springs,24899,$97917,25.81%,37,$519000,1622,$320,38,76.84%,$1680,34.71%,50,1506,7.81%,2.4%,66.69%,Routt County,54.30%,37.40%,0.65%,0.0%,80.25%,14.68%,6.77%,N/A,86,29,57,51,7,36%,21%,29,41,83,69%,79%,60%,18.92,3.16,5.37,31.97%,24.95%,39.0%,119.0,54,7.7,33.0,92,5913,5.7,3.28,CO-35070,40.4820113,-107.2156388
Heeney,Colorado,93,404,Breckenridge,31042,$74250,19.35%,33,N/A,N/A,N/A,51,0.0%,N/A,5.38%,N/A,N/A,5.38%,0.0%,61.29%,Summit County,59.10%,31.50%,0.0%,0.0%,100.0%,0.0%,0.0%,N/A,80,25,55,45,-1,43%,36%,29,47,80,69%,71%,70%,15.5,4.37,3.12,35.04%,21.98%,45.33%,93.1,45,8.0,41.1,95,7458,5.8,0.23,CO-35400,39.8740333,-106.3077645
Highlands Ranch,Colorado,101437,4180,Denver-Aurora-Lakewood,2936665,$155847,66.83%,41,$680000,2528,$269,23,82.93%,$2397,36.97%,N/A,N/A,2.41%,3.66%,71.71%,Douglas County,36.60%,54.70%,6.38%,1.02%,79.3%,9.06%,8.75%,Mountain Standard Time,88,44,44,59,18,43%,36%,29,47,87,69%,71%,70%,17.95,5.79,2.43,25.53%,31.87%,20.0%,65.3,29,8.0,41.1,62,5283,4.8,24.27,CO-36410,39.5419321,-104.9707663
Hillrose,Colorado,266,1400,Fort Morgan,28868,$72083,21.69%,34,N/A,N/A,N/A,33,76.92%,$1363,42.66%,N/A,N/A,5.26%,11.11%,66.06%,Morgan County,26.30%,68.10%,0.0%,0.0%,85.34%,12.41%,0.75%,N/A,92,41,51,57,9,43%,36%,29,47,92,69%,71%,70%,15.25,6.54,0.92,21.67%,29.01%,12.89%,35.3,18,8.0,41.1,84,3855,4.9,0.19,CO-36610,40.3244946,-103.5222063
Hoehne,Colorado,68,22,None,N/A,N/A,18.03%,60,N/A,N/A,N/A,74,72.8%,N/A,27.87%,N/A,N/A,0.0%,0.0%,22.95%,Las Animas County,39.00%,54.60%,0.0%,0.0%,83.82%,16.18%,0.0%,N/A,91,47,44,60,18,36%,32%,31,49,90,78%,82%,74%,12.18,5.14,1.23,19.29%,29.56%,11.89%,51.1,15,N/A,35.4,89,5250,5.1,3.11,CO-36940,37.2814489,-104.3890887
Holly,Colorado,556,772,None,N/A,N/A,9.96%,65,N/A,N/A,N/A,35,70.16%,$273,44.49%,N/A,N/A,22.99%,2.05%,56.24%,Prowers County,23.60%,70.40%,0.0%,0.0%,35.61%,59.71%,29.86%,N/A,93,45,48,63,15,49%,41%,35,55,95,69%,78%,65%,16.8,8.04,1.34,16.96%,23.96%,10.33%,30.2,7,N/A,45.5,87,3111,5.1,0.72,CO-37215,38.0553682,-102.124695
Holly Hills,Colorado,2652,4572,Denver-Aurora-Lakewood,2936665,$127989,62.38%,42,N/A,N/A,N/A,58,91.32%,$1458,44.4%,N/A,N/A,7.57%,0.0%,63.92%,Arapahoe County,52.80%,38.60%,3.7%,3.73%,73.72%,15.95%,6.86%,Mountain Standard Time,92,46,46,61,18,43%,36%,29,47,92,69%,71%,70%,17.88,5.56,2.42,21.37%,27.69%,16.67%,46.1,27,8.0,41.1,34,5049,4.8,0.58,CO-37220,39.66757,-104.91797
Holyoke,Colorado,2378,963,None,N/A,$54154,23.52%,39,N/A,N/A,N/A,50,69.34%,$1056,43.05%,0,272,14.6%,0.19%,58.01%,Phillips County,18.70%,76.80%,0.0%,0.0%,59.46%,38.69%,18.59%,N/A,89,41,48,59,12,49%,41%,35,55,89,64%,67%,60%,18.27,7.7,1.32,23.84%,31.54%,15.56%,29.8,21,8.0,45.5,90,3426,4.9,2.47,CO-37270,40.5819691,-102.2975153
Hooper,Colorado,168,672,None,N/A,$44844,29.63%,19,N/A,N/A,N/A,45,81.54%,N/A,48.48%,N/A,N/A,19.05%,0.0%,45.36%,Alamosa County,46.00%,43.90%,0.0%,2.38%,85.12%,11.9%,0.0%,N/A,83,35,48,48,-1,40%,34%,27,43,82,78%,82%,74%,8.16,2.76,1.41,17.56%,27.14%,12.11%,30.4,20,8.0,35.4,95,6972,5.2,0.25,CO-37380,37.7459759,-105.8777353
Hot Sulphur Springs,Colorado,977,1269,None,N/A,$90221,27.31%,40,N/A,N/A,N/A,43,90.89%,$1183,36.07%,N/A,N/A,4.84%,1.47%,70.7%,Grand County,39.10%,52.30%,3.07%,0.72%,82.19%,3.89%,3.28%,N/A,80,25,55,45,-1,43%,36%,29,47,80,69%,71%,70%,14.8,3.65,3.12,29.67%,27.8%,35.33%,93.1,45,8.0,41.1,94,7218,6,0.77,CO-37600,40.0749021,-106.1031706
Hotchkiss,Colorado,1147,1233,None,N/A,$58125,20.03%,43,N/A,N/A,N/A,42,65.85%,$1147,46.84%,214,2145,15.87%,3.8%,52.43%,Delta County,24.30%,69.40%,0.0%,0.0%,70.62%,18.13%,4.8%,N/A,90,38,52,58,14,36%,21%,29,41,86,69%,79%,60%,12.07,3.55,2.66,30.08%,25.49%,37.22%,65.4,32,7.7,33.0,95,5202,6.1,0.93,CO-37545,38.7989916,-107.7133828
Hudson,Colorado,1844,313,Greeley,322424,$71429,10.1%,36,$765000,4005,$191,40,64.88%,$1152,42.83%,387,1827,19.45%,3.44%,58.77%,Weld County,34.30%,56.60%,0.0%,0.38%,44.63%,53.96%,23.59%,Mountain Standard Time,91,43,48,59,16,43%,36%,29,47,90,69%,71%,70%,13.18,4.14,1.22,20.19%,25.38%,13.44%,33.2,18,8.0,41.1,57,4605,5.2,5.9,CO-37820,40.0865462,-104.6077778
Hugo,Colorado,915,1005,None,N/A,$47222,26.11%,34,N/A,N/A,N/A,82,65.1%,$1008,60.59%,N/A,N/A,12.39%,5.63%,54.85%,Lincoln County,16.80%,77.70%,0.0%,1.42%,81.86%,5.14%,0.77%,N/A,90,44,46,57,12,40%,39%,27,45,91,78%,82%,74%,16.4,7.76,0.89,21.64%,29.78%,15.33%,25.0,13,8.0,35.4,93,4608,5.3,0.91,CO-37875,39.1361789,-103.4731381
Idaho Springs,Colorado,1968,875,Denver-Aurora-Lakewood,2936665,$85450,50.0%,40,$388000,1049,$370,82,65.6%,$1175,58.67%,776,5102,11.08%,3.08%,72.43%,Clear Creek County,46.50%,43.90%,0.0%,3.61%,77.13%,15.19%,9.65%,Mountain Standard Time,77,36,41,49,15,43%,36%,29,47,76,69%,71%,70%,19.21,6.22,2.55,32.36%,33.63%,29.33%,101.2,57,8.0,41.1,94,7983,5.8,2.25,CO-38370,39.7427627,-105.51184
Idalia,Colorado,94,1044,None,N/A,$144453,80.6%,45,N/A,N/A,N/A,62,0.0%,$898,37.84%,N/A,N/A,0.0%,0.0%,97.1%,Yuma County,15.20%,80.40%,0.0%,0.0%,80.85%,19.15%,1.06%,N/A,90,42,48,61,16,49%,41%,35,55,91,69%,71%,70%,19.25,8.73,1.53,20.27%,29.23%,11.78%,38.2,14,8.0,45.5,89,3627,5.2,0.09,CO-38425,39.7029168,-102.2938271
Idledale,Colorado,306,1093,Denver-Aurora-Lakewood,2936665,N/A,66.42%,36,N/A,N/A,N/A,68,67.81%,N/A,47.45%,N/A,N/A,0.0%,13.45%,86.86%,Jefferson County,48.90%,42.00%,0.0%,0.0%,100.0%,0.0%,0.0%,Mountain Standard Time,81,44,37,49,13,43%,36%,29,47,80,69%,71%,70%,24.59,5.8,4.29,28.6%,38.57%,22.0%,140.5,42,8.0,41.1,88,6816,5.7,0.28,CO-38480,39.6689278,-105.2431911
Ignacio,Colorado,1255,2461,Durango,55673,$65759,17.55%,41,N/A,N/A,N/A,44,54.71%,$1146,51.08%,448,1569,14.34%,6.74%,66.09%,La Plata County,49.80%,40.40%,0.96%,0.0%,42.95%,36.57%,1.75%,N/A,87,38,49,53,10,40%,34%,27,43,86,69%,79%,60%,14.97,4.12,3.37,21.04%,24.84%,22.0%,35.0,22,7.7,33.0,81,6108,6.2,0.51,CO-38535,37.1180044,-107.6375572
Iliff,Colorado,276,1453,Sterling,21765,$73750,8.54%,41,N/A,N/A,N/A,43,85.8%,$1104,43.08%,N/A,N/A,7.25%,6.01%,70.38%,Logan County,19.00%,74.90%,0.0%,2.9%,87.68%,9.42%,1.81%,N/A,91,41,50,61,16,47%,40%,32,52,91,64%,67%,60%,16.91,7.07,1.13,22.74%,30.11%,14.44%,40.5,21,8.0,43.5,90,3600,4.7,0.19,CO-38590,40.7591774,-103.0661023
Indian Hills,Colorado,1320,243,Denver-Aurora-Lakewood,2936665,$173125,51.38%,48,N/A,N/A,N/A,55,98.68%,N/A,15.03%,N/A,N/A,5.0%,0.0%,70.45%,Jefferson County,48.90%,42.00%,1.82%,0.0%,86.21%,6.21%,4.09%,Mountain Standard Time,81,44,37,49,13,43%,36%,29,47,80,69%,71%,70%,21.9,6.59,3.32,27.62%,38.46%,21.67%,140.5,42,8.0,41.1,87,7425,5.7,5.43,CO-38810,39.6294462,-105.2508713
Inverness,Colorado,3088,2757,Denver-Aurora-Lakewood,2936665,$104636,74.95%,33,$587000,1421,$413,9,15.35%,$2036,52.19%,N/A,N/A,5.93%,4.53%,87.95%,Arapahoe County,52.80%,38.60%,20.56%,3.63%,53.08%,12.34%,27.1%,Mountain Standard Time,88,44,44,59,18,43%,36%,29,47,87,69%,71%,70%,14.78,5.63,1.28,23.04%,29.34%,16.78%,65.3,29,8.0,41.1,59,5379,5.2,1.12,CO-38910,39.57738,-104.86135
Jackson Lake,Colorado,218,71,Fort Morgan,28868,N/A,8.75%,54,N/A,N/A,N/A,20,92.03%,N/A,35.6%,N/A,N/A,22.48%,5.06%,41.36%,Morgan County,26.30%,68.10%,0.0%,0.0%,92.66%,2.29%,1.38%,N/A,91,41,50,60,12,43%,36%,29,47,90,69%,71%,70%,14.63,6.4,0.93,17.53%,24.62%,10.89%,27.4,12,8.0,41.1,83,4002,4.9,3.06,CO-39160,40.3642098,-104.071907
Jamestown,Colorado,255,447,Boulder,328713,$175125,55.39%,48,$779000,2427,$321,68,76.4%,$1208,56.02%,N/A,N/A,6.67%,0.0%,82.57%,Boulder County,70.30%,22.00%,1.96%,0.0%,90.59%,5.1%,8.63%,Mountain Standard Time,68,28,40,43,11,43%,36%,29,47,66,69%,71%,70%,25.27,6.59,4.03,38.41%,44.29%,35.78%,184.6,70,8.0,41.1,86,7827,5.8,0.57,CO-39195,40.1183368,-105.3916332
Jansen,Colorado,94,80,None,N/A,$34301,36.17%,71,N/A,N/A,N/A,82,100.0%,N/A,60.64%,N/A,N/A,10.64%,34.48%,30.85%,Las Animas County,39.00%,54.60%,0.0%,0.0%,29.79%,70.21%,0.0%,N/A,87,47,40,55,14,40%,34%,27,43,86,78%,82%,74%,17.0,7.02,2.17,21.7%,33.19%,14.78%,51.1,15,N/A,35.4,89,5769,5.1,1.17,CO-39250,37.1581757,-104.5501066
Joes,Colorado,107,51,None,N/A,N/A,23.81%,41,N/A,N/A,N/A,70,86.9%,N/A,29.23%,N/A,N/A,42.11%,6.06%,50.77%,Yuma County,15.20%,80.40%,24.3%,0.0%,53.27%,37.38%,1.87%,N/A,91,43,48,61,15,49%,41%,35,55,92,69%,71%,70%,18.08,8.18,1.53,20.41%,29.34%,13.78%,30.5,12,8.0,45.5,89,3909,5.2,2.09,CO-39745,39.6559436,-102.6784948
Johnson Village,Colorado,199,663,None,N/A,$45757,52.76%,78,N/A,N/A,N/A,26,79.96%,N/A,57.79%,N/A,N/A,9.05%,26.87%,33.67%,Chaffee County,43.40%,47.90%,0.0%,0.0%,94.47%,5.53%,0.0%,N/A,84,40,44,50,10,40%,39%,27,45,83,78%,82%,74%,10.13,3.96,1.48,24.08%,35.93%,18.44%,53.5,32,8.0,35.4,98,7272,5.4,0.3,CO-39800,38.8118945,-106.1071117
Johnstown,Colorado,18075,1311,Fort Collins,354670,$130851,37.0%,34,$496000,2740,$181,13,90.53%,$1767,36.04%,109,1871,2.21%,4.24%,79.35%,Weld County,34.30%,56.60%,0.85%,0.46%,74.69%,19.82%,3.97%,Mountain Standard Time,89,42,47,56,12,43%,36%,29,47,88,69%,71%,70%,14.64,4.16,1.92,22.14%,27.58%,16.22%,58.0,23,8.0,41.1,72,4539,5.2,13.79,CO-39855,40.3459931,-104.9711892
Julesburg,Colorado,1193,790,None,N/A,$48056,24.11%,42,N/A,N/A,N/A,64,57.39%,$708,45.76%,N/A,N/A,20.38%,2.09%,58.59%,Sedgwick County,19.60%,74.40%,1.93%,1.76%,80.89%,13.66%,2.1%,N/A,88,39,49,62,13,47%,40%,32,52,87,64%,67%,60%,19.15,7.88,1.34,21.01%,27.14%,13.11%,33.8,13,N/A,43.5,92,3180,4.8,1.51,CO-39965,40.9848646,-102.2627084
Keenesburg,Colorado,1866,247,Greeley,322424,$83490,7.92%,32,$409000,1957,$209,22,62.97%,$1438,52.41%,N/A,N/A,8.88%,1.94%,71.76%,Weld County,34.30%,56.60%,0.0%,0.21%,64.63%,30.98%,6.27%,Mountain Standard Time,90,43,47,61,17,43%,36%,29,47,89,69%,71%,70%,13.18,4.14,1.22,20.19%,25.38%,13.44%,33.2,18,8.0,41.1,65,4605,5.2,7.54,CO-40185,40.1130334,-104.4967178
Ken Caryl,Colorado,33407,3398,Denver-Aurora-Lakewood,2936665,$116838,49.8%,41,$505000,1724,$293,33,83.02%,$1950,44.43%,N/A,N/A,3.45%,3.32%,71.33%,Jefferson County,48.90%,42.00%,1.81%,0.81%,80.73%,11.62%,4.89%,Mountain Standard Time,87,45,42,60,19,43%,36%,29,47,86,69%,71%,70%,18.88,5.44,2.86,26.58%,34.95%,19.89%,60.0,19,8.0,41.1,70,5163,5.7,9.83,CO-40377,39.5770164,-105.1143018
Kersey,Colorado,1318,652,Greeley,322424,$61136,20.59%,41,$455000,2676,$170,41,68.92%,$923,47.59%,178,59,15.71%,7.75%,60.54%,Weld County,34.30%,56.60%,0.0%,0.0%,63.13%,27.92%,10.62%,Mountain Standard Time,92,42,50,60,16,43%,36%,29,47,92,69%,71%,70%,15.17,4.71,1.43,20.11%,24.95%,12.56%,34.8,17,8.0,41.1,72,4245,5.2,2.02,CO-40515,40.3833611,-104.5565118
Keystone,Colorado,1111,27,Breckenridge,31042,$51369,50.45%,30,$1140000,1315,$867,29,46.74%,$861,78.96%,N/A,N/A,39.24%,1.93%,81.94%,Summit County,59.10%,31.50%,2.43%,3.24%,54.73%,34.47%,14.49%,N/A,76,30,46,39,2,43%,36%,29,47,75,69%,71%,70%,15.98,4.81,3.08,39.23%,26.81%,46.78%,122.9,61,8.0,41.1,95,8319,5.8,41.4,CO-40550,39.5900613,-105.9383153
Kim,Colorado,63,166,None,N/A,$28750,22.22%,53,N/A,N/A,N/A,50,45.07%,N/A,50.79%,N/A,N/A,19.05%,0.0%,55.56%,Las Animas County,39.00%,54.60%,0.0%,0.0%,80.95%,17.46%,4.76%,N/A,90,49,41,61,24,41%,39%,32,51,91,78%,82%,74%,15.27,7.29,1.46,16.38%,25.93%,11.67%,24.4,9,N/A,35.4,89,4806,5.1,0.38,CO-40570,37.2470624,-103.3534114
Kiowa,Colorado,704,819,Denver-Aurora-Lakewood,2936665,$62917,14.62%,31,$843000,2937,$287,27,77.55%,$1104,61.04%,N/A,N/A,25.74%,0.0%,60.91%,Elbert County,19.60%,73.20%,0.14%,1.28%,69.18%,16.9%,8.66%,Mountain Standard Time,85,42,43,57,18,43%,36%,29,47,84,69%,71%,70%,21.99,8.93,2.44,27.26%,37.14%,20.33%,110.1,41,8.0,41.1,92,6021,5.2,0.86,CO-40790,39.3436912,-104.4578805
Kirk,Colorado,29,7,None,N/A,$95833,6.9%,67,N/A,N/A,N/A,82,93.83%,N/A,10.34%,N/A,N/A,3.45%,0.0%,68.97%,Yuma County,15.20%,80.40%,0.0%,0.0%,100.0%,0.0%,0.0%,N/A,91,43,48,61,15,49%,41%,35,55,92,69%,71%,70%,18.08,8.18,1.53,20.27%,29.23%,11.78%,30.5,12,8.0,45.5,89,3909,5.2,4.1,CO-40900,39.6126891,-102.5919946
Kit Carson,Colorado,210,362,None,N/A,$57273,23.84%,42,N/A,N/A,N/A,42,65.8%,$621,51.63%,N/A,N/A,1.49%,3.36%,64.67%,Cheyenne County,12.00%,83.90%,0.0%,4.29%,85.71%,1.9%,0.0%,N/A,94,45,49,60,12,49%,41%,35,55,97,78%,82%,74%,15.61,7.47,1.16,15.07%,22.86%,8.78%,16.0,8,8.0,45.5,91,3933,5,0.58,CO-41010,38.7628232,-102.7953661
Kittredge,Colorado,843,448,Denver-Aurora-Lakewood,2936665,$149758,72.07%,41,N/A,N/A,N/A,35,88.89%,N/A,45.98%,N/A,N/A,5.1%,5.42%,80.52%,Jefferson County,48.90%,42.00%,0.0%,0.0%,85.65%,14.35%,2.14%,Mountain Standard Time,81,44,37,49,13,43%,36%,29,47,80,69%,71%,70%,18.75,6.02,2.61,25.89%,36.7%,20.11%,140.5,42,8.0,41.1,90,6387,5.7,1.88,CO-41065,39.6592976,-105.3045189
Kremmling,Colorado,1844,1408,None,N/A,$72650,20.47%,23,N/A,N/A,N/A,45,82.02%,$1631,60.59%,N/A,N/A,21.5%,12.86%,65.35%,Grand County,39.10%,52.30%,0.0%,0.0%,51.46%,30.53%,4.34%,N/A,82,25,57,45,-3,43%,36%,29,47,81,69%,71%,70%,12.59,3.43,2.64,22.6%,26.7%,23.44%,53.1,35,8.0,41.1,93,6822,6,1.31,CO-41560,40.056546,-106.3782123
La Jara,Colorado,593,1446,None,N/A,$39630,17.24%,34,N/A,N/A,N/A,46,64.49%,$692,48.37%,N/A,N/A,28.16%,10.36%,64.37%,Conejos County,44.00%,47.60%,0.0%,0.0%,32.72%,65.77%,1.69%,N/A,81,33,48,50,4,40%,34%,27,43,80,78%,82%,74%,9.96,4.22,1.44,19.04%,29.23%,12.89%,32.5,19,N/A,35.4,95,7080,5.5,0.41,CO-42055,37.2735236,-105.9597208
La Junta,Colorado,7211,2261,None,N/A,$54253,18.03%,40,N/A,N/A,N/A,62,62.75%,$709,52.26%,458,5527,26.0%,5.28%,59.43%,Otero County,34.80%,58.30%,0.62%,1.19%,49.13%,44.14%,2.94%,N/A,93,46,47,63,16,36%,32%,31,49,92,78%,82%,74%,13.75,5.59,1.58,16.16%,21.76%,13.22%,33.3,13,8.0,35.4,73,3738,5.3,3.19,CO-42110,37.9790626,-103.5470855
La Junta Gardens,Colorado,122,230,None,N/A,$81136,4.92%,61,N/A,N/A,N/A,34,72.02%,N/A,0.0%,N/A,N/A,0.0%,0.0%,29.51%,Otero County,34.80%,58.30%,0.0%,0.0%,36.07%,63.93%,0.0%,N/A,93,46,47,63,16,36%,32%,31,49,92,78%,82%,74%,13.75,5.59,1.58,16.16%,21.76%,13.22%,33.3,13,8.0,35.4,87,3738,5.3,0.53,CO-42165,38.0013489,-103.5548504
La Salle,Colorado,3119,3249,Greeley,322424,$91635,20.81%,36,$335000,1588,$211,46,82.41%,$1213,47.06%,250,1250,8.27%,2.11%,68.14%,Weld County,34.30%,56.60%,0.13%,1.89%,57.2%,37.74%,6.06%,Mountain Standard Time,92,42,50,60,16,43%,36%,29,47,92,69%,71%,70%,14.84,4.6,1.42,21.67%,25.93%,14.56%,34.8,17,8.0,41.1,54,4347,5.2,0.96,CO-43605,40.3484691,-104.7061386
La Veta,Colorado,751,548,None,N/A,$50975,37.12%,68,N/A,N/A,N/A,49,74.15%,N/A,38.42%,N/A,N/A,14.65%,4.9%,40.4%,Huerfano County,43.20%,49.80%,0.0%,0.0%,94.81%,4.13%,3.06%,N/A,88,46,42,58,20,40%,34%,27,43,87,78%,82%,74%,19.49,6.55,3.59,28.16%,25.49%,33.78%,72.0,25,N/A,35.4,95,6495,5.2,1.37,CO-44100,37.5085631,-105.0084864
Lafayette,Colorado,30471,3305,Boulder,328713,$110431,65.55%,39,$675000,1957,$345,27,71.62%,$2042,48.79%,213,2476,6.07%,3.83%,74.63%,Boulder County,70.30%,22.00%,3.93%,0.73%,73.0%,16.21%,10.63%,Mountain Standard Time,92,46,46,60,19,43%,36%,29,47,92,69%,71%,70%,15.75,3.85,2.16,23.48%,27.47%,18.22%,67.5,28,8.0,41.1,66,4833,5.8,9.22,CO-41835,39.9946971,-105.0998292
Laird,Colorado,5,33,None,N/A,N/A,0.0%,N/A,N/A,N/A,N/A,N/A,75.0%,N/A,100.0%,N/A,N/A,0.0%,0.0%,0.0%,Yuma County,15.20%,80.40%,0.0%,0.0%,100.0%,0.0%,0.0%,N/A,91,42,49,62,15,49%,41%,35,55,92,69%,71%,70%,18.97,8.14,1.63,19.1%,26.92%,11.56%,29.9,11,8.0,45.5,89,3249,5.2,0.15,CO-42000,40.0818012,-102.1018978
Lake City,Colorado,474,571,None,N/A,$62422,43.12%,54,N/A,N/A,N/A,37,75.57%,$965,36.14%,N/A,N/A,3.8%,0.0%,56.87%,Hinsdale County,33.40%,57.60%,0.0%,0.0%,86.5%,3.38%,1.27%,N/A,78,31,47,45,-1,40%,34%,27,43,77,69%,79%,60%,17.06,5.28,3.69,31.18%,24.95%,36.56%,174.6,59,7.7,33.0,100,7968,5.4,0.83,CO-42330,38.0301374,-107.310595
Lakeside,Colorado,8,42,Denver-Aurora-Lakewood,2936665,N/A,25.0%,73,N/A,N/A,N/A,42,0.0%,$667,100.0%,0,2562500,25.0%,0.0%,75.0%,Jefferson County,48.90%,42.00%,0.0%,0.0%,100.0%,0.0%,0.0%,Mountain Standard Time,88,45,43,58,16,43%,36%,29,47,87,69%,71%,70%,16.82,5.03,2.51,23.12%,28.68%,17.67%,76.0,33,8.0,41.1,38,4986,5.7,0.19,CO-42495,39.780219,-105.0579083
Lakewood,Colorado,156309,3596,Denver-Aurora-Lakewood,2936665,$85789,45.31%,38,$560000,1951,$287,43,61.53%,$1746,56.3%,N/A,N/A,9.12%,4.51%,68.8%,Jefferson County,48.90%,42.00%,4.06%,1.39%,68.06%,22.35%,8.48%,Mountain Standard Time,86,44,42,60,20,43%,36%,29,47,85,69%,71%,70%,17.79,5.02,2.71,23.89%,30.0%,18.0%,76.0,33,8.0,41.1,59,5097,5.7,43.47,CO-43000,39.6977587,-105.117229
Lamar,Colorado,7629,1464,None,N/A,$58487,19.17%,33,N/A,N/A,N/A,47,59.48%,$844,47.03%,0,1076,19.99%,6.38%,62.65%,Prowers County,23.60%,70.40%,0.76%,1.1%,52.77%,42.48%,11.12%,N/A,94,45,49,63,13,49%,41%,35,55,97,78%,82%,74%,15.25,7.92,1.34,16.0%,24.07%,9.11%,30.2,7,N/A,45.5,76,3318,5.1,5.21,CO-43110,38.0739444,-102.6154114
Laporte,Colorado,2123,347,Fort Collins,354670,$67697,37.21%,47,N/A,N/A,N/A,44,74.03%,$1107,40.4%,N/A,N/A,16.82%,4.22%,69.04%,Larimer County,47.50%,42.60%,1.7%,0.0%,83.98%,12.67%,3.82%,Mountain Standard Time,88,43,45,59,17,45%,39%,29,47,87,64%,67%,60%,16.39,4.58,1.82,24.96%,31.98%,16.78%,55.0,26,8.0,41.1,82,4674,4.7,6.12,CO-43220,40.6385058,-105.1443479
Larkspur,Colorado,171,108,Denver-Aurora-Lakewood,2936665,$88125,42.45%,58,$1150000,5251,$219,36,88.52%,$1281,46.41%,N/A,N/A,9.7%,0.0%,58.28%,Douglas County,36.60%,54.70%,0.0%,0.0%,89.47%,9.94%,1.17%,Mountain Standard Time,84,42,42,53,14,40%,39%,27,45,83,69%,71%,70%,18.67,6.41,2.65,31.1%,45.16%,24.44%,58.4,24,8.0,41.1,91,6054,4.8,1.59,CO-43550,39.2236577,-104.8934895
Las Animas,Colorado,2480,1521,None,N/A,$48917,13.13%,40,N/A,N/A,N/A,59,42.65%,$1005,57.59%,N/A,N/A,37.88%,7.82%,47.53%,Bent County,30.60%,61.70%,0.2%,0.0%,43.27%,45.97%,0.4%,N/A,95,47,48,64,16,36%,32%,31,49,95,78%,82%,74%,13.34,6.28,1.19,14.38%,20.66%,9.0%,16.2,6,8.0,35.4,87,3558,5.3,1.63,CO-43660,38.0695102,-103.2235845
Lazy Acres,Colorado,1056,200,Boulder,328713,$147344,82.08%,57,N/A,N/A,N/A,41,100.0%,N/A,28.73%,N/A,N/A,12.59%,6.61%,54.71%,Boulder County,70.30%,22.00%,0.0%,0.0%,97.44%,2.56%,7.01%,Mountain Standard Time,89,46,43,57,20,43%,36%,29,47,88,69%,71%,70%,21.13,5.88,2.96,26.82%,34.51%,20.67%,184.6,70,8.0,41.1,86,6441,5.8,5.29,CO-44270,40.0836973,-105.3312669
Leadville,Colorado,2634,2251,None,N/A,$83875,61.91%,39,N/A,N/A,N/A,82,87.49%,$1651,60.37%,287,969,9.65%,2.42%,85.0%,Lake County,50.50%,39.70%,0.53%,0.0%,64.39%,28.74%,2.24%,N/A,72,29,43,40,5,43%,36%,29,47,71,69%,71%,70%,20.23,5.11,5.18,35.1%,35.38%,39.44%,301.7,104,8.0,41.1,97,9114,5.9,1.17,CO-44320,39.2472772,-106.2934599
Leadville North,Colorado,1470,600,None,N/A,$96447,37.08%,38,N/A,N/A,N/A,47,70.05%,$1705,46.47%,N/A,N/A,3.3%,4.75%,70.88%,Lake County,50.50%,39.70%,0.0%,0.0%,59.52%,21.09%,0.95%,N/A,72,29,43,40,5,43%,36%,29,47,71,69%,71%,70%,20.23,5.11,5.18,35.1%,35.38%,39.44%,301.7,104,8.0,41.1,97,9114,5.9,2.45,CO-44375,39.2600175,-106.3112898
Lewis,Colorado,349,112,None,N/A,N/A,17.79%,30,N/A,N/A,N/A,30,85.48%,N/A,35.6%,N/A,N/A,0.0%,0.0%,77.73%,Montezuma County,30.90%,61.10%,0.0%,0.0%,77.65%,22.35%,0.0%,N/A,87,40,47,56,16,36%,21%,29,41,84,69%,79%,60%,16.36,4.34,4.38,20.58%,21.1%,25.0%,62.7,22,7.7,33.0,94,6483,6.2,3.11,CO-44595,37.5017155,-108.6600594
Leyner,Colorado,24,120,Boulder,328713,N/A,N/A,N/A,N/A,N/A,N/A,N/A,0.0%,N/A,0.0%,N/A,N/A,0.0%,0.0%,0.0%,Boulder County,70.30%,22.00%,0.0%,0.0%,0.0%,0.0%,0.0%,Mountain Standard Time,88,44,44,60,16,43%,36%,29,47,87,69%,71%,70%,16.38,4.27,2.18,23.48%,27.47%,18.22%,67.5,28,8.0,41.1,70,4692,5.8,0.2,CO-44695,40.0510789,-105.107429
Limon,Colorado,1572,497,None,N/A,$46950,39.44%,47,N/A,N/A,N/A,39,61.61%,$889,47.46%,0,103,7.62%,1.95%,57.79%,Lincoln County,16.80%,77.70%,0.0%,0.0%,91.73%,5.53%,8.33%,N/A,88,42,46,55,9,40%,39%,27,45,88,69%,71%,70%,17.97,7.33,1.75,21.64%,29.78%,15.33%,25.0,13,8.0,41.1,91,4935,5.3,3.16,CO-44980,39.2653127,-103.6856269
Lincoln Park,Colorado,4315,1139,None,N/A,$64750,22.55%,55,$300000,1829,$164,48,81.77%,$1120,47.58%,N/A,N/A,19.53%,5.28%,39.69%,Fremont County,24.10%,68.80%,0.07%,1.92%,83.99%,9.46%,1.34%,N/A,89,49,40,60,18,36%,32%,31,49,87,78%,82%,74%,11.55,4.77,1.23,19.78%,30.77%,13.67%,39.4,18,8.0,35.4,87,4932,5.4,3.79,CO-45145,38.4255068,-105.2131551
Littleton,Colorado,45092,3570,Denver-Aurora-Lakewood,2936665,$96611,56.36%,40,$617000,2204,$280,39,64.6%,$1731,49.7%,88,2809,6.31%,3.76%,70.77%,Arapahoe County,52.80%,38.60%,2.9%,1.63%,78.54%,12.59%,6.68%,Mountain Standard Time,87,45,42,60,19,43%,36%,29,47,86,69%,71%,70%,18.15,5.58,2.35,24.11%,31.98%,17.56%,65.3,29,8.0,41.1,56,5028,5.2,12.63,CO-45255,39.5915294,-105.0187834
Lochbuie,Colorado,8142,2207,Denver-Aurora-Lakewood,2936665,$88548,16.0%,33,$468000,1926,$243,15,91.88%,$1609,41.97%,N/A,N/A,2.45%,1.07%,75.04%,Weld County,34.30%,56.60%,0.0%,4.35%,44.15%,49.57%,12.27%,Mountain Standard Time,91,43,48,59,16,43%,36%,29,47,90,69%,71%,70%,13.18,4.14,1.22,20.19%,25.38%,13.44%,33.2,18,8.0,41.1,45,4605,5.2,3.69,CO-45530,40.0117619,-104.7271693
Log Lane Village,Colorado,948,4740,Fort Morgan,28868,$64688,2.59%,25,$340000,1683,$202,42,63.29%,$800,54.07%,N/A,N/A,7.91%,8.08%,74.37%,Morgan County,26.30%,68.10%,1.05%,1.58%,42.62%,50.74%,19.09%,N/A,91,41,50,60,12,43%,36%,29,47,90,69%,71%,70%,14.63,6.4,0.93,17.53%,24.62%,10.89%,27.4,12,8.0,41.1,77,4002,4.9,0.2,CO-45695,40.2697341,-103.8289606
Loghill Village,Colorado,665,107,None,N/A,$86544,67.03%,67,$915000,2322,$394,19,85.71%,N/A,10.8%,N/A,N/A,6.92%,0.89%,35.0%,Ouray County,51.30%,40.80%,0.0%,0.0%,92.18%,2.41%,4.66%,N/A,86,39,47,48,8,36%,21%,29,41,83,69%,79%,60%,17.51,4.44,4.06,26.74%,31.98%,26.78%,174.6,59,7.7,33.0,98,6972,5.2,6.21,CO-45680,38.1994104,-107.7753416
Loma,Colorado,1365,125,Grand Junction,154685,$133456,27.7%,20,N/A,N/A,N/A,19,47.74%,N/A,58.38%,N/A,N/A,4.45%,0.0%,81.48%,Mesa County,28.00%,64.10%,0.0%,0.0%,99.49%,0.0%,0.0%,Mountain Standard Time,96,38,58,62,14,36%,21%,29,41,93,69%,79%,60%,11.19,2.82,2.46,16.0%,13.96%,16.78%,18.5,14,7.7,33.0,86,4131,5.8,10.89,CO-45750,39.2075123,-108.8050226
Lone Tree,Colorado,14136,1441,Denver-Aurora-Lakewood,2936665,$125699,69.8%,41,$1073000,4034,$266,17,64.75%,$2030,46.79%,310,6946,4.59%,2.94%,72.08%,Douglas County,36.60%,54.70%,12.37%,5.08%,72.36%,5.16%,13.83%,Mountain Standard Time,88,44,44,59,18,43%,36%,29,47,87,69%,71%,70%,19.49,6.26,2.58,24.96%,32.97%,19.56%,65.3,29,8.0,41.1,62,5370,4.8,9.81,CO-45955,39.5308567,-104.8709661
Longmont,Colorado,98958,3438,Boulder,328713,$89724,46.33%,40,$590000,2428,$243,30,64.17%,$1755,50.6%,430,2601,8.56%,4.34%,68.66%,Boulder County,70.30%,22.00%,2.98%,1.01%,67.53%,24.2%,10.52%,Mountain Standard Time,88,44,44,60,16,43%,36%,29,47,87,69%,71%,70%,16.32,4.39,2.09,22.19%,26.81%,15.56%,49.4,27,8.0,41.1,61,4584,5.8,28.78,CO-45970,40.1686117,-105.1004937
Louisville,Colorado,20788,2612,Boulder,328713,$149159,68.13%,42,$933000,2501,$373,29,77.52%,$2069,43.43%,74,1397,4.94%,3.42%,69.55%,Boulder County,70.30%,22.00%,5.22%,0.87%,79.1%,10.41%,7.66%,Mountain Standard Time,89,46,43,57,20,43%,36%,29,47,88,69%,71%,70%,18.5,4.37,2.73,23.48%,27.47%,18.22%,67.5,28,8.0,41.1,67,5043,5.8,7.96,CO-46355,39.9709871,-105.1441253
Louviers,Colorado,274,173,Denver-Aurora-Lakewood,2936665,$84000,19.19%,39,N/A,N/A,N/A,82,75.07%,N/A,27.93%,N/A,N/A,5.11%,0.0%,68.02%,Douglas County,36.60%,54.70%,0.0%,0.0%,58.03%,17.52%,2.19%,Mountain Standard Time,87,45,42,59,16,43%,36%,29,47,86,69%,71%,70%,18.64,5.59,2.47,22.52%,29.34%,17.22%,60.0,19,8.0,41.1,87,5109,4.8,1.58,CO-46410,39.4798662,-105.0033404
Loveland,Colorado,77350,2247,Fort Collins,354670,$82592,39.11%,41,$495000,2162,$229,27,65.43%,$1683,48.5%,281,1992,7.7%,4.93%,64.7%,Larimer County,47.50%,42.60%,1.09%,0.59%,80.21%,14.53%,3.52%,Mountain Standard Time,89,42,47,56,12,43%,36%,29,47,88,69%,71%,70%,15.3,4.31,1.85,22.14%,27.58%,16.22%,58.0,23,8.0,41.1,65,4557,4.7,34.42,CO-46465,40.4165798,-105.0622861
Lynn,Colorado,6,8,None,N/A,N/A,100.0%,N/A,N/A,N/A,N/A,N/A,100.0%,N/A,100.0%,N/A,N/A,0.0%,50.0%,100.0%,Las Animas County,39.00%,54.60%,0.0%,0.0%,0.0%,100.0%,0.0%,N/A,88,46,42,58,20,36%,32%,31,49,86,78%,82%,74%,19.14,7.44,2.95,24.33%,38.46%,18.22%,72.0,25,N/A,35.4,89,6600,5.1,0.72,CO-47015,37.421909,-104.6430611
Lyons,Colorado,1927,1427,Boulder,328713,$132589,76.24%,45,$1175000,3730,$315,22,84.36%,$1962,37.45%,N/A,N/A,8.73%,4.11%,62.83%,Boulder County,70.30%,22.00%,0.21%,1.04%,83.65%,8.98%,5.71%,Mountain Standard Time,88,44,44,60,16,43%,36%,29,47,87,69%,71%,70%,16.81,4.59,1.98,25.4%,31.65%,19.0%,49.4,27,8.0,41.1,85,4938,5.8,1.35,CO-47070,40.2230483,-105.2691579
Manassa,Colorado,926,996,None,N/A,$56484,22.1%,36,N/A,N/A,N/A,45,86.91%,$693,44.38%,N/A,N/A,12.74%,2.71%,69.36%,Conejos County,44.00%,47.60%,0.0%,0.0%,49.03%,49.89%,3.89%,N/A,81,33,48,50,4,40%,34%,27,43,80,78%,82%,74%,9.34,3.56,1.09,19.04%,29.23%,12.89%,32.5,19,N/A,35.4,95,7035,5.5,0.93,CO-48060,37.1738413,-105.9372749
Mancos,Colorado,1016,1588,None,N/A,$62361,39.14%,52,N/A,N/A,N/A,34,61.44%,$962,45.79%,139,1189,8.52%,2.86%,59.48%,Montezuma County,30.90%,61.10%,0.0%,0.98%,84.94%,9.74%,2.56%,N/A,86,40,46,52,12,36%,21%,29,41,83,69%,79%,60%,14.28,3.78,3.89,22.66%,26.26%,26.44%,62.7,22,7.7,33.0,96,6306,6.2,0.64,CO-48115,37.3466252,-108.2938931
Manitou Springs,Colorado,4796,1523,Colorado Springs,747343,$76550,53.41%,45,N/A,N/A,N/A,69,65.21%,$1175,50.5%,92,1336,9.85%,11.84%,72.4%,El Paso County,33.90%,56.20%,2.67%,0.58%,88.16%,6.07%,6.63%,Mountain Standard Time,73,38,35,44,10,40%,39%,27,45,72,78%,82%,74%,17.39,7.9,1.8,29.1%,47.03%,19.22%,114.3,34,8.0,35.4,89,5844,5.3,3.15,CO-48445,38.8575399,-104.9128609
Manzanola,Colorado,382,1364,None,N/A,$29457,8.49%,43,N/A,N/A,N/A,69,66.44%,$721,62.25%,N/A,N/A,9.16%,5.11%,39.83%,Otero County,34.80%,58.30%,0.0%,3.4%,48.43%,47.91%,4.71%,N/A,93,48,45,61,15,36%,32%,31,49,92,78%,82%,74%,13.75,6.14,1.33,13.59%,20.22%,9.56%,25.1,8,8.0,35.4,90,3864,5.3,0.28,CO-48500,38.1087581,-103.8668039
Marble,Colorado,236,656,None,N/A,$166000,55.22%,37,N/A,N/A,N/A,29,60.83%,N/A,61.26%,N/A,N/A,1.27%,0.64%,81.68%,Gunnison County,54.50%,34.90%,0.0%,0.0%,98.73%,0.0%,0.0%,N/A,77,26,51,40,-7,36%,21%,29,41,75,69%,79%,60%,27.44,5.49,7.91,34.68%,21.98%,46.11%,379.9,101,7.7,33.0,98,7695,5.4,0.36,CO-48555,39.0716645,-107.190749
Maybell,Colorado,38,72,Craig,13240,N/A,48.15%,41,N/A,N/A,N/A,43,100.0%,N/A,54.84%,N/A,N/A,34.21%,0.0%,19.35%,Moffat County,13.40%,81.30%,0.0%,0.0%,55.26%,44.74%,0.0%,N/A,87,30,57,48,-1,36%,21%,29,41,84,69%,79%,60%,13.21,2.17,3.37,19.81%,13.85%,22.44%,60.2,24,7.7,33.0,94,5436,5.8,0.53,CO-49325,40.5188271,-108.0884952
Maysville,Colorado,190,15,None,N/A,N/A,52.23%,49,N/A,N/A,N/A,45,76.24%,N/A,47.8%,N/A,N/A,22.11%,0.0%,66.67%,Chaffee County,43.40%,47.90%,0.0%,0.0%,79.47%,20.53%,0.0%,N/A,82,32,50,40,-6,40%,34%,27,43,81,78%,82%,74%,16.72,4.75,3.77,29.23%,21.76%,39.44%,53.5,32,8.0,35.4,98,7704,5.4,12.42,CO-49490,38.5304687,-106.2156379
McCoy,Colorado,50,172,Edwards,55693,N/A,N/A,N/A,N/A,N/A,N/A,N/A,100.0%,N/A,0.0%,N/A,N/A,0.0%,0.0%,0.0%,Eagle County,55.90%,35.60%,0.0%,0.0%,0.0%,0.0%,0.0%,N/A,80,31,49,47,6,43%,36%,29,47,80,69%,71%,70%,22.49,3.78,6.99,30.9%,19.45%,42.0%,135.3,66,8.0,41.1,94,8121,5.7,0.29,CO-47345,39.9143819,-106.7257229
Mead,Colorado,5503,423,Greeley,322424,$116074,48.78%,38,$580000,2648,$219,17,96.85%,$1583,36.34%,81,1116,0.98%,2.43%,77.38%,Weld County,34.30%,56.60%,1.71%,0.0%,73.89%,21.64%,4.13%,Mountain Standard Time,88,44,44,60,16,43%,36%,29,47,87,69%,71%,70%,15.27,4.16,1.89,22.19%,26.81%,15.56%,49.4,27,8.0,41.1,71,4662,5.2,13.0,CO-49600,40.2317699,-104.9911341
Meeker,Colorado,2528,704,None,N/A,$71301,34.86%,38,N/A,N/A,N/A,44,65.17%,$992,50.73%,223,983,9.01%,0.55%,57.2%,Rio Blanco County,12.60%,80.90%,0.44%,0.0%,76.74%,15.47%,7.4%,N/A,88,34,54,51,6,36%,21%,29,41,85,69%,79%,60%,15.59,3.45,2.91,30.08%,26.59%,33.0%,60.2,24,7.7,33.0,95,5844,5.6,3.59,CO-49875,40.0499534,-107.8945801
Meridian,Colorado,2768,5427,Denver-Aurora-Lakewood,2936665,$198707,78.34%,39,$556000,1986,$280,6,96.62%,$3125,35.9%,N/A,N/A,5.06%,1.89%,83.48%,Douglas County,36.60%,54.70%,23.99%,0.0%,69.04%,5.17%,18.14%,Mountain Standard Time,88,44,44,59,18,43%,36%,29,47,87,69%,71%,70%,18.29,6.44,2.2,23.04%,29.34%,16.78%,65.3,29,8.0,41.1,71,5394,4.8,0.51,CO-50026,39.5310105,-104.8261231
Midland,Colorado,178,103,Colorado Springs,747343,$81591,38.13%,63,N/A,N/A,N/A,32,44.24%,N/A,41.57%,N/A,N/A,21.35%,0.0%,51.12%,Teller County,24.90%,67.50%,0.0%,0.0%,100.0%,0.0%,0.0%,Mountain Standard Time,75,34,41,49,14,40%,39%,27,45,74,78%,82%,74%,17.59,8.1,1.85,28.85%,37.36%,19.56%,114.3,34,8.0,35.4,94,8445,5.4,1.72,CO-50380,38.846806,-105.1579119
Milliken,Colorado,8695,678,Greeley,322424,$100567,27.77%,32,$420000,2360,$178,16,87.04%,N/A,30.27%,12,363,2.65%,0.0%,79.69%,Weld County,34.30%,56.60%,0.1%,0.0%,81.66%,16.81%,2.21%,Mountain Standard Time,92,42,50,60,16,43%,36%,29,47,92,69%,71%,70%,14.23,4.17,1.5,21.67%,25.93%,14.56%,34.8,17,8.0,41.1,69,4428,5.2,12.82,CO-50480,40.311433,-104.8561463
Minturn,Colorado,987,123,Edwards,55693,$113519,58.93%,38,N/A,N/A,N/A,48,57.01%,$2167,40.16%,N/A,N/A,6.79%,5.82%,84.02%,Eagle County,55.90%,35.60%,0.0%,0.0%,74.27%,17.43%,9.22%,N/A,77,28,49,43,6,43%,36%,29,47,76,69%,71%,70%,31.15,4.19,9.62,36.66%,20.66%,51.11%,301.7,104,8.0,41.1,96,9417,5.7,8.02,CO-50920,39.5462529,-106.3870809
Moffat,Colorado,57,34,None,N/A,N/A,51.85%,59,N/A,N/A,N/A,46,26.92%,N/A,78.18%,N/A,N/A,24.56%,16.0%,46.3%,Saguache County,50.00%,40.50%,0.0%,0.0%,87.72%,0.0%,0.0%,N/A,83,31,52,51,8,40%,34%,27,43,82,78%,82%,74%,12.38,4.55,1.79,24.66%,33.08%,22.67%,62.2,39,8.0,35.4,97,7320,5.3,1.67,CO-51250,38.002667,-105.9065211
Monte Vista,Colorado,4178,1589,None,N/A,$49339,29.08%,38,N/A,N/A,N/A,54,71.57%,$657,57.85%,465,3844,29.26%,14.73%,61.07%,Rio Grande County,36.20%,55.70%,0.0%,0.22%,31.79%,62.97%,8.69%,N/A,80,31,49,46,-4,40%,34%,27,43,80,78%,82%,74%,11.2,4.32,1.46,17.89%,28.35%,12.89%,39.9,21,N/A,35.4,91,7020,5.5,2.63,CO-51635,37.5788887,-106.1500786
Montezuma,Colorado,83,1038,Breckenridge,31042,$127083,36.17%,31,$1150000,2018,$570,18,72.85%,$1667,46.15%,N/A,N/A,2.41%,23.81%,96.92%,Summit County,59.10%,31.50%,0.0%,0.0%,100.0%,0.0%,0.0%,N/A,76,30,46,39,2,43%,36%,29,47,75,69%,71%,70%,31.11,5.92,8.71,38.03%,28.79%,47.22%,122.9,61,8.0,41.1,95,10023,5.8,0.08,CO-51690,39.581483,-105.8676525
Montrose,Colorado,20703,1120,Montrose,47178,$63177,33.57%,46,$460000,1673,$275,26,70.91%,$1117,46.8%,204,3521,12.88%,4.57%,55.01%,Montrose County,25.80%,67.90%,0.99%,0.25%,74.99%,20.68%,6.36%,N/A,90,39,51,59,16,36%,21%,29,41,86,69%,79%,60%,10.46,2.62,2.31,21.7%,21.43%,23.22%,174.6,59,7.7,33.0,78,5331,6,18.48,CO-51745,38.4689219,-107.8590175
Monument,Colorado,11035,1613,Colorado Springs,747343,$114654,57.53%,38,N/A,N/A,N/A,14,84.44%,$1947,38.25%,N/A,N/A,5.51%,5.31%,70.28%,El Paso County,33.90%,56.20%,2.08%,0.16%,84.59%,8.87%,3.79%,Mountain Standard Time,84,42,42,53,14,40%,39%,27,45,83,69%,71%,70%,18.93,7.03,2.35,31.1%,45.16%,24.44%,110.1,41,8.0,41.1,89,6618,5.3,6.84,CO-51800,39.0734918,-104.8467889
Morgan Heights,Colorado,261,932,Fort Morgan,28868,$142083,53.33%,38,N/A,N/A,N/A,19,100.0%,N/A,54.55%,N/A,N/A,1.53%,0.0%,55.24%,Morgan County,26.30%,68.10%,0.0%,0.0%,62.07%,34.1%,0.0%,N/A,91,41,50,60,12,43%,36%,29,47,90,69%,71%,70%,14.63,6.4,0.93,17.53%,24.62%,10.89%,27.4,12,8.0,41.1,83,4002,4.9,0.28,CO-51975,40.2874922,-103.8274456
Morrison,Colorado,415,252,Denver-Aurora-Lakewood,2936665,$116667,43.73%,58,$1200000,3846,$312,73,84.21%,$1724,70.56%,N/A,N/A,2.63%,8.33%,44.8%,Jefferson County,48.90%,42.00%,0.0%,5.06%,88.92%,4.82%,0.48%,Mountain Standard Time,81,44,37,49,13,43%,36%,29,47,80,69%,71%,70%,19.07,5.14,2.89,26.58%,34.95%,19.89%,140.5,42,8.0,41.1,88,5349,5.7,1.65,CO-52075,39.6370008,-105.2006569
Mount Crested Butte,Colorado,829,400,None,N/A,$93182,80.8%,41,N/A,N/A,N/A,34,55.33%,$1717,53.12%,814,1746,10.49%,0.0%,79.43%,Gunnison County,54.50%,34.90%,0.0%,0.0%,93.73%,0.0%,2.65%,N/A,77,26,51,40,-7,36%,21%,29,41,75,69%,79%,60%,24.74,4.21,8.67,29.81%,22.09%,39.11%,175.3,67,7.7,33.0,98,9291,5.4,2.07,CO-52570,38.908303,-106.9605869
Mountain Meadows,Colorado,205,119,Boulder,328713,$166761,83.6%,62,N/A,N/A,N/A,39,100.0%,N/A,17.99%,N/A,N/A,0.0%,0.0%,69.84%,Boulder County,70.30%,22.00%,0.0%,0.0%,97.07%,0.0%,4.88%,Mountain Standard Time,79,39,40,50,17,43%,36%,29,47,78,69%,71%,70%,22.47,5.52,3.46,26.82%,34.51%,20.67%,184.6,70,8.0,41.1,92,7206,5.8,1.72,CO-52210,40.0270385,-105.3831365
Mountain View,Colorado,500,5556,Denver-Aurora-Lakewood,2936665,$108269,56.2%,36,N/A,N/A,N/A,82,60.35%,$1476,58.92%,0,2033,9.8%,1.28%,73.24%,Jefferson County,48.90%,42.00%,0.0%,0.0%,65.8%,29.2%,7.8%,Mountain Standard Time,88,45,43,58,16,43%,36%,29,47,87,69%,71%,70%,16.82,5.03,2.51,23.12%,28.68%,17.67%,76.0,33,8.0,41.1,38,4986,5.7,0.09,CO-52350,39.7747762,-105.056711
Mountain Village,Colorado,1713,519,None,N/A,$59881,54.25%,36,N/A,N/A,N/A,21,31.19%,$885,59.53%,68,1310,16.87%,6.36%,80.84%,San Miguel County,68.70%,23.90%,0.99%,1.23%,63.11%,25.34%,18.86%,N/A,77,36,41,42,4,36%,21%,29,41,75,69%,79%,60%,20.99,5.89,4.74,39.84%,29.78%,52.11%,174.6,59,7.7,33.0,99,7905,5.4,3.3,CO-52550,37.9324166,-107.8577372
Mulford,Colorado,537,801,Glenwood Springs,78692,$136923,60.75%,41,N/A,N/A,N/A,41,79.69%,N/A,17.99%,N/A,N/A,0.0%,0.0%,75.47%,Garfield County,42.60%,49.60%,1.49%,3.91%,83.05%,11.55%,5.4%,N/A,89,36,53,55,12,36%,21%,29,41,85,69%,79%,60%,14.46,3.71,3.28,29.73%,30.33%,33.22%,169.9,66,7.7,33.0,91,5643,6,0.67,CO-52820,39.408696,-107.168505
Naturita,Colorado,520,839,Montrose,47178,$28021,6.11%,54,$206000,986,$209,45,66.08%,$836,55.25%,N/A,N/A,27.31%,0.0%,45.89%,Montrose County,25.80%,67.90%,0.0%,0.0%,98.27%,1.54%,0.19%,N/A,83,37,46,52,9,36%,21%,29,41,81,69%,79%,60%,16.45,4.98,3.15,29.67%,19.23%,39.44%,26.7,15,7.7,33.0,93,6411,6,0.62,CO-53120,38.2183439,-108.5666329
Nederland,Colorado,1523,1029,Boulder,328713,$103452,61.05%,46,$812000,2077,$391,44,72.34%,$1469,31.47%,128,256,2.5%,2.36%,74.92%,Boulder County,70.30%,22.00%,0.0%,0.0%,91.2%,4.2%,7.62%,Mountain Standard Time,68,28,40,43,11,43%,36%,29,47,66,69%,71%,70%,22.11,6.12,3.75,36.66%,23.63%,44.56%,203.1,77,8.0,41.1,92,7353,5.8,1.48,CO-53175,39.9633205,-105.5071875
New Castle,Colorado,4878,1936,Glenwood Springs,78692,$88421,36.43%,37,$580000,1921,$302,18,70.08%,$1627,40.45%,78,902,6.52%,1.31%,58.68%,Garfield County,42.60%,49.60%,1.03%,0.0%,65.19%,29.13%,13.9%,N/A,89,36,53,53,7,36%,21%,29,41,85,69%,79%,60%,19.24,3.75,5.23,26.16%,24.73%,26.11%,27.6,25,7.7,33.0,91,5532,6,2.52,CO-53395,39.5775149,-107.5266812
Niwot,Colorado,3773,943,Boulder,328713,$141621,64.62%,56,$1694000,5133,$330,39,92.22%,$1395,27.1%,N/A,N/A,6.31%,2.4%,50.26%,Boulder County,70.30%,22.00%,1.22%,0.0%,92.18%,5.3%,5.96%,Mountain Standard Time,88,44,44,60,16,43%,36%,29,47,87,69%,71%,70%,16.23,3.95,2.12,23.48%,28.02%,17.78%,49.4,27,8.0,41.1,72,4644,5.8,4.0,CO-53780,40.0980012,-105.1552332
No Name,Colorado,248,1378,Glenwood Springs,78692,$153361,24.32%,35,N/A,N/A,N/A,48,100.0%,N/A,12.84%,N/A,N/A,0.0%,0.0%,45.27%,Garfield County,42.60%,49.60%,0.0%,0.0%,100.0%,0.0%,0.0%,N/A,89,36,53,55,12,36%,21%,29,41,85,69%,79%,60%,19.15,3.59,4.99,29.73%,30.33%,33.22%,27.6,25,7.7,33.0,94,5325,6,0.18,CO-53875,39.5597304,-107.2927865
North La Junta,Colorado,512,376,None,N/A,$50125,13.87%,41,N/A,N/A,N/A,82,60.73%,$969,51.2%,N/A,N/A,2.93%,2.54%,66.35%,Otero County,34.80%,58.30%,0.0%,0.98%,40.82%,35.94%,2.15%,N/A,93,46,47,63,16,36%,32%,31,49,92,78%,82%,74%,13.75,5.59,1.58,16.16%,21.76%,13.22%,33.3,13,8.0,35.4,87,3738,5.3,1.36,CO-54495,37.9985205,-103.5226951
North Washington,Colorado,311,60,Denver-Aurora-Lakewood,2936665,N/A,24.07%,51,N/A,N/A,N/A,62,68.78%,$959,68.64%,N/A,N/A,29.81%,6.42%,65.16%,Adams County,49.90%,41.30%,1.93%,0.0%,60.77%,35.37%,11.25%,Mountain Standard Time,92,46,46,61,18,43%,36%,29,47,92,69%,71%,70%,16.57,4.8,2.28,23.12%,28.68%,17.67%,50.2,21,8.0,41.1,35,4665,5.1,5.2,CO-54750,39.8084251,-104.9792199
Northglenn,Colorado,37953,5157,Denver-Aurora-Lakewood,2936665,$79530,24.22%,35,$472000,1950,$242,46,57.82%,$1778,53.53%,456,3117,9.22%,4.54%,71.12%,Adams County,49.90%,41.30%,3.94%,3.05%,50.51%,37.01%,10.97%,Mountain Standard Time,92,46,46,60,19,43%,36%,29,47,92,69%,71%,70%,16.47,4.67,2.3,19.97%,22.86%,15.22%,50.2,21,8.0,41.1,30,4794,5.1,7.36,CO-54330,39.910806,-104.9782442
Norwood,Colorado,565,2018,None,N/A,$56324,38.89%,35,N/A,N/A,N/A,41,54.97%,$1357,46.21%,N/A,N/A,10.14%,9.82%,79.81%,San Miguel County,68.70%,23.90%,0.0%,0.0%,66.37%,29.73%,9.56%,N/A,83,37,46,52,9,36%,21%,29,41,81,69%,79%,60%,16.45,4.98,3.15,30.68%,22.42%,41.78%,174.6,59,7.7,33.0,96,6411,5.4,0.28,CO-54880,38.1290421,-108.2918133
Nucla,Colorado,634,919,Montrose,47178,$44038,14.47%,46,N/A,N/A,N/A,48,81.38%,$775,41.32%,N/A,N/A,12.15%,12.61%,42.29%,Montrose County,25.80%,67.90%,0.0%,2.21%,90.85%,6.94%,0.0%,N/A,83,37,46,52,9,36%,21%,29,41,81,69%,79%,60%,31.59,3.89,12.47,29.67%,19.23%,39.44%,26.7,15,7.7,33.0,93,8595,6,0.69,CO-54935,38.266687,-108.5486944
Nunn,Colorado,427,108,Greeley,322424,$86875,7.47%,45,N/A,N/A,N/A,45,87.77%,N/A,57.22%,N/A,N/A,6.09%,3.42%,65.0%,Weld County,34.30%,56.60%,0.0%,0.0%,66.04%,29.04%,0.0%,Mountain Standard Time,88,40,48,55,12,45%,39%,29,47,87,64%,67%,60%,14.31,4.87,1.03,22.11%,27.8%,13.89%,48.6,21,8.0,41.1,88,4758,5.2,3.96,CO-55045,40.7137548,-104.7888832
Oak Creek,Colorado,652,1811,Steamboat Springs,24899,$88512,37.09%,45,$650000,1970,$330,71,66.45%,$1167,34.88%,410,717,4.75%,2.94%,72.99%,Routt County,54.30%,37.40%,0.0%,0.0%,87.12%,5.06%,2.45%,N/A,80,31,49,47,6,43%,36%,29,47,80,69%,71%,70%,17.28,4.04,4.16,32.96%,28.35%,40.67%,135.3,66,8.0,41.1,95,7185,5.7,0.36,CO-55155,40.2740492,-106.9573638
Olathe,Colorado,1788,1192,Montrose,47178,$65170,6.83%,40,$99000,576,$172,41,61.63%,$962,58.1%,0,328,24.08%,6.64%,51.54%,Montrose County,25.80%,67.90%,0.0%,0.0%,41.11%,51.85%,18.4%,N/A,90,38,52,59,15,36%,21%,29,41,86,69%,79%,60%,10.8,3.27,1.59,19.7%,20.88%,18.89%,65.4,32,7.7,33.0,93,4827,6,1.5,CO-55540,38.6083848,-107.9833005
Olney Springs,Colorado,550,2292,None,N/A,$52031,12.66%,33,N/A,N/A,N/A,82,79.65%,$975,69.63%,N/A,N/A,18.18%,5.12%,53.93%,Crowley County,22.20%,70.70%,0.0%,0.0%,56.55%,42.73%,0.0%,N/A,94,45,49,62,12,36%,32%,31,49,94,78%,82%,74%,11.5,5.37,0.93,10.0%,16.37%,6.0%,18.9,7,8.0,35.4,90,3948,5.4,0.24,CO-55705,38.1662739,-103.9444914
Ophir,Colorado,144,600,None,N/A,$125938,84.62%,36,N/A,N/A,N/A,30,92.66%,$1188,51.24%,N/A,N/A,11.81%,3.45%,98.31%,San Miguel County,68.70%,23.90%,0.0%,0.0%,100.0%,0.0%,1.39%,N/A,77,36,41,42,4,36%,21%,29,41,75,69%,79%,60%,29.11,5.95,8.82,35.7%,29.89%,42.22%,174.6,59,7.7,33.0,99,9180,5.4,0.24,CO-55870,37.8568101,-107.8312422
Orchard,Colorado,87,544,Fort Morgan,28868,$38393,4.05%,56,N/A,N/A,N/A,82,82.88%,N/A,57.69%,N/A,N/A,17.24%,3.13%,41.03%,Morgan County,26.30%,68.10%,0.0%,0.0%,77.01%,22.99%,0.0%,N/A,91,41,50,60,12,43%,36%,29,47,90,69%,71%,70%,14.63,6.4,0.93,17.53%,24.62%,10.89%,27.4,12,8.0,41.1,83,4002,4.9,0.16,CO-55925,40.3320011,-104.117799
Orchard City,Colorado,3193,277,None,N/A,$65282,19.88%,54,N/A,N/A,N/A,40,74.81%,$1511,44.15%,N/A,N/A,17.18%,4.72%,54.77%,Delta County,24.30%,69.40%,0.56%,0.0%,91.45%,5.36%,2.72%,N/A,94,39,55,59,14,36%,21%,29,41,91,69%,79%,60%,9.85,2.8,1.77,32.3%,20.88%,43.44%,65.4,32,7.7,33.0,93,4596,6.1,11.52,CO-55980,38.8144508,-107.9704605
Orchard Mesa,Colorado,6597,1783,Grand Junction,154685,$76173,21.19%,45,$359000,1588,$226,42,74.98%,$1588,31.99%,N/A,N/A,5.14%,6.16%,58.57%,Mesa County,28.00%,64.10%,1.42%,0.52%,85.75%,9.32%,5.23%,Mountain Standard Time,94,38,56,66,17,36%,21%,29,41,91,69%,79%,60%,10.47,2.92,1.88,19.18%,16.81%,21.33%,18.5,14,7.7,33.0,74,4353,5.8,3.7,CO-56035,39.0366533,-108.510884
Ordway,Colorado,1718,2231,None,N/A,$55313,23.28%,40,N/A,N/A,N/A,50,68.51%,$1045,63.1%,N/A,N/A,18.94%,7.97%,38.95%,Crowley County,22.20%,70.70%,0.17%,3.61%,51.4%,27.71%,3.84%,N/A,94,45,49,62,12,36%,32%,31,49,94,78%,82%,74%,11.5,5.37,0.93,10.0%,16.37%,6.0%,25.1,8,8.0,35.4,90,3948,5.4,0.77,CO-56145,38.2208995,-103.7566804
Otis,Colorado,582,1420,None,N/A,$52237,19.25%,34,N/A,N/A,N/A,62,51.14%,$875,38.69%,N/A,N/A,13.97%,9.44%,56.14%,Washington County,10.80%,84.10%,0.0%,0.0%,85.05%,12.71%,4.3%,N/A,90,41,49,60,16,49%,41%,35,55,91,69%,71%,70%,17.26,7.74,1.37,19.18%,26.59%,13.0%,29.5,14,8.0,45.5,92,3759,4.8,0.41,CO-56365,40.1501258,-102.9621382
Ouray,Colorado,1031,1199,None,N/A,$76458,65.35%,54,N/A,N/A,N/A,42,71.51%,$962,36.16%,N/A,N/A,2.04%,2.19%,58.53%,Ouray County,51.30%,40.80%,1.07%,5.92%,85.94%,11.15%,5.14%,N/A,80,36,44,53,15,36%,21%,29,41,79,69%,79%,60%,23.19,5.98,5.46,36.71%,41.32%,38.0%,174.6,59,7.7,33.0,98,7056,5.2,0.86,CO-56420,38.0275441,-107.6733492
Ovid,Colorado,378,2363,None,N/A,$40000,21.4%,40,N/A,N/A,N/A,82,82.94%,$697,53.23%,N/A,N/A,10.58%,4.57%,57.95%,Sedgwick County,19.60%,74.40%,0.26%,0.0%,79.37%,18.25%,7.14%,N/A,88,39,49,62,13,47%,40%,32,52,87,64%,67%,60%,19.15,7.88,1.34,19.37%,25.16%,11.89%,33.3,15,N/A,43.5,92,3180,4.8,0.16,CO-56475,40.9607551,-102.3883361
Padroni,Colorado,23,28,Sterling,21765,N/A,26.09%,55,N/A,N/A,N/A,82,79.37%,N/A,78.26%,N/A,N/A,73.91%,38.89%,78.26%,Logan County,19.00%,74.90%,0.0%,0.0%,78.26%,21.74%,0.0%,N/A,91,41,50,61,16,47%,40%,32,52,91,64%,67%,60%,17.12,7.11,1.34,22.74%,30.11%,14.44%,40.5,21,8.0,43.5,90,3657,4.7,0.81,CO-56695,40.781814,-103.1732967
Pagosa Springs,Colorado,1718,342,None,N/A,$36712,23.27%,35,N/A,N/A,N/A,41,37.19%,$1068,66.84%,244,2152,22.97%,4.19%,65.0%,Archuleta County,34.10%,58.10%,0.64%,0.12%,43.71%,47.21%,3.55%,N/A,88,43,45,51,12,40%,34%,27,43,87,78%,82%,74%,47.78,6.24,19.33,36.68%,29.12%,46.56%,62.6,27,N/A,35.4,94,9327,6.1,5.03,CO-56860,37.2649745,-107.0082643
