City,State,Population,People per sq mi,Metro Name,Metro population,Median household income,% with at least Bachelor's degree,Median age,Median home price,Median home sqft,Median home cost per sqft,Median home age,Homeownership Rate,Avg Apartment Monthly Rent,Single Population,Num Violent Crimes Per 100k residents,Num Property Crimes Per 100k residents,Poverty Rate,Unemployment rate,Labor Force Participation rate,County,% Democrat,% Republican,% Asian,% Black,% Non-Hispanic White,% Hispanic,Foreign Born %,Timezone,Hottest month's avg high (F),Coldest month's avg high (F),Hottest high minus coldest high,Hottest month's avg low (F),Coldest month's avg low (F),Annual Relative Humidity (afternoon),Summer Relative Humidity (afternoon),Annual dew point (F),Average summer dew point (F),Hottest month's avg heat index high (F),Annual Sunshine - Percentage of Possible,Summer Sunshine - Percentage of Possible,Winter Sunshine - Percentage of Possible,Annual rainfall (in),Summer rainfall (in),Winter rainfall (in),Percent of days that include precipitation,Percent of Summer days that include precipitation,Percent of Winter days that include precipitation,Annual snowfall (in),Days of snow per year,Average yearly windspeed (mph),Number of days with thunder per year,Air quality Index,Elevation (ft),UV Index,Land Area (sq mi),Fips Code,Latitude,Longitude
Aberdeen,Maryland,16831,2550,Baltimore-Columbia-Towson,2837237,$76019,25.62%,39,$228000,1318,$173,44,66.81%,$1339,51.07%,741,2013,14.11%,3.58%,65.66%,Harford County,35.20%,58.20%,2.48%,29.6%,51.4%,9.83%,8.95%,Eastern Standard Time,87,42,45,68,25,53%,53%,43,63,90,55%,61%,52%,49.41,15.65,10.11,37.7%,38.24%,36.89%,29.4,11,7.2,26.6,58,51,3.9,6.6,MD-00125,39.5150449,-76.1731787
Aberdeen Proving Ground,Maryland,2343,211,Baltimore-Columbia-Towson,2837237,$123125,51.93%,32,N/A,N/A,N/A,37,0.0%,$1960,46.18%,N/A,N/A,0.27%,4.14%,83.19%,Harford County,35.20%,58.20%,1.92%,38.28%,50.28%,7.81%,2.35%,Eastern Standard Time,87,42,45,68,25,53%,53%,43,63,90,55%,61%,52%,49.41,15.65,10.11,37.7%,38.24%,36.89%,29.4,11,7.2,26.6,70,51,3.9,11.13,MD-00175,39.4670142,-76.130683
Accident,Maryland,436,890,None,N/A,$58750,18.94%,32,N/A,N/A,N/A,40,68.75%,N/A,52.81%,N/A,N/A,24.77%,2.86%,69.21%,Garrett County,18.30%,76.90%,0.23%,0.23%,92.66%,4.36%,0.23%,N/A,79,34,45,57,17,58%,59%,40,59,81,42%,52%,29%,53.82,14.65,14.16,49.42%,45.6%,59.56%,62.0,32,4.9,34.4,87,1866,3.5,0.49,MD-00225,39.6256879,-79.3199583
Accokeek,Maryland,13226,482,Washington-Arlington-Alexandria,6332069,$144719,42.5%,42,$498000,2649,$188,23,94.93%,$3066,51.96%,N/A,N/A,3.2%,8.85%,73.34%,Prince George's County,88.10%,8.40%,4.53%,64.34%,17.31%,6.96%,15.43%,Eastern Standard Time,89,44,45,70,28,53%,53%,43,63,94,55%,61%,52%,48.89,15.21,9.48,35.04%,35.27%,36.78%,13.4,5,7.2,26.6,59,45,4.3,27.43,MD-00250,38.6745152,-77.0023182
Adamstown,Maryland,2381,2246,Washington-Arlington-Alexandria,6332069,$198993,52.21%,46,N/A,N/A,N/A,18,97.0%,N/A,36.23%,N/A,N/A,0.71%,1.13%,74.99%,Frederick County,45.00%,47.40%,1.55%,5.63%,81.6%,6.43%,8.86%,Eastern Standard Time,85,40,45,66,25,53%,53%,43,63,87,55%,61%,52%,47.44,13.55,9.82,37.4%,38.24%,37.22%,32.6,13,7.2,26.6,66,321,4.2,1.06,MD-00350,39.3070006,-77.4692952
Adelphi,Maryland,17210,6327,Washington-Arlington-Alexandria,6332069,$80833,27.36%,33,$169000,977,$173,53,39.2%,$1757,64.18%,N/A,N/A,17.17%,6.03%,74.67%,Prince George's County,88.10%,8.40%,7.83%,30.16%,10.59%,50.37%,55.69%,Eastern Standard Time,88,43,45,68,26,53%,53%,43,63,92,55%,61%,52%,48.88,15.0,9.66,38.41%,39.78%,36.22%,15.2,6,7.2,26.6,24,225,4.3,2.72,MD-00400,39.0017468,-76.9649428
Algonquin,Maryland,1027,1369,Cambridge,32486,$72917,35.1%,57,$324000,1940,$167,61,92.25%,N/A,32.39%,N/A,N/A,12.56%,0.0%,54.33%,Dorchester County,41.00%,55.30%,0.0%,0.0%,89.19%,6.72%,3.6%,N/A,89,45,44,71,30,53%,53%,43,63,94,55%,61%,52%,48.34,14.16,9.68,34.0%,32.42%,37.22%,15.0,6,7.2,26.6,75,9,4.2,0.75,MD-00712,38.5913796,-76.0937936
Allen,Maryland,125,291,Salisbury,414424,$133201,58.4%,69,N/A,N/A,N/A,27,100.0%,N/A,0.0%,N/A,N/A,0.0%,0.0%,32.8%,Wicomico County,42.40%,52.20%,0.0%,0.0%,98.4%,0.0%,0.0%,Eastern Standard Time,89,48,41,70,29,53%,53%,43,63,94,55%,61%,52%,48.36,14.36,10.03,33.56%,33.74%,35.22%,8.1,3,7.2,26.6,78,15,3.8,0.43,MD-00800,38.2893568,-75.6904666
Andrews AFB,Maryland,3075,444,Washington-Arlington-Alexandria,6332069,$91905,37.27%,24,N/A,N/A,N/A,25,0.0%,$2747,27.76%,N/A,N/A,2.85%,3.92%,79.43%,Prince George's County,88.10%,8.40%,2.44%,29.5%,41.37%,21.79%,5.07%,Eastern Standard Time,89,44,45,70,28,53%,53%,43,63,94,55%,61%,52%,48.42,14.72,9.71,35.04%,35.27%,36.78%,13.5,7,7.2,26.6,50,234,4.3,6.93,MD-01450,38.8053316,-76.8743937
Annapolis,Maryland,40744,5651,Baltimore-Columbia-Towson,2837237,$104257,53.74%,41,$575000,1873,$307,46,56.09%,$1855,51.79%,641,2352,7.16%,4.04%,68.86%,Anne Arundel County,47.50%,45.30%,2.68%,18.72%,56.93%,18.64%,10.87%,Eastern Standard Time,87,44,43,73,30,53%,53%,43,63,90,55%,61%,52%,45.15,14.32,7.99,33.23%,35.27%,32.78%,19.1,6,7.2,26.6,58,6,4,7.21,MD-01600,38.9706731,-76.503936
Annapolis Neck,Maryland,12484,1801,Baltimore-Columbia-Towson,2837237,$171833,73.48%,51,$635000,2055,$309,39,88.36%,$2805,33.93%,N/A,N/A,3.06%,1.9%,64.1%,Anne Arundel County,47.50%,45.30%,0.57%,4.97%,84.82%,5.74%,4.94%,Eastern Standard Time,87,44,43,73,30,53%,53%,43,63,90,55%,61%,52%,45.15,14.32,7.99,33.23%,35.27%,32.78%,19.1,6,7.2,26.6,65,6,4,6.93,MD-01635,38.9370604,-76.4975192
Antietam,Maryland,51,340,Hagerstown-Martinsburg,291560,N/A,51.22%,60,N/A,N/A,N/A,16,100.0%,N/A,12.77%,N/A,N/A,0.0%,0.0%,29.79%,Washington County,32.00%,62.10%,0.0%,0.0%,100.0%,0.0%,0.0%,Eastern Standard Time,87,42,45,63,22,53%,53%,43,63,90,55%,61%,52%,44.86,12.33,9.28,33.84%,35.6%,31.67%,32.6,13,7.2,26.6,72,366,3.9,0.15,MD-01750,39.4150817,-77.7364839
Aquasco,Maryland,672,34,Washington-Arlington-Alexandria,6332069,$61875,20.05%,42,N/A,N/A,N/A,42,89.13%,N/A,37.96%,N/A,N/A,18.9%,2.55%,56.12%,Prince George's County,88.10%,8.40%,3.72%,38.54%,33.04%,10.42%,1.34%,Eastern Standard Time,86,44,42,67,25,53%,53%,43,63,88,55%,61%,52%,49.01,14.77,9.61,32.36%,33.63%,33.33%,13.5,7,7.2,26.6,68,135,4.3,19.78,MD-01925,38.5913274,-76.707375
Arbutus,Maryland,20869,3196,Baltimore-Columbia-Towson,2837237,$97215,39.15%,36,$310000,1574,$197,64,73.63%,$1238,51.19%,N/A,N/A,10.21%,4.27%,73.62%,Baltimore County,55.90%,38.30%,8.39%,14.31%,66.96%,5.8%,10.35%,Eastern Standard Time,91,44,47,74,31,53%,53%,43,63,98,55%,61%,52%,52.8,15.36,10.35,32.52%,32.75%,34.11%,19.1,6,7.2,26.6,42,423,4.1,6.53,MD-01975,39.2428025,-76.6921648
Arden on the Severn,Maryland,1691,1183,Baltimore-Columbia-Towson,2837237,$117188,42.37%,58,$520000,1962,$265,46,76.39%,N/A,38.6%,N/A,N/A,0.0%,3.5%,62.56%,Anne Arundel County,47.50%,45.30%,10.05%,13.13%,67.06%,1.95%,9.4%,Eastern Standard Time,89,44,45,69,26,53%,53%,43,63,94,55%,61%,52%,50.97,14.88,10.5,33.64%,35.27%,33.78%,19.1,6,7.2,26.6,57,39,4,1.43,MD-02025,39.0676578,-76.5963461
Arnold,Maryland,23866,2206,Baltimore-Columbia-Towson,2837237,$137799,59.38%,38,$523000,2245,$233,40,83.41%,$2177,38.7%,N/A,N/A,3.01%,3.07%,69.95%,Anne Arundel County,47.50%,45.30%,3.97%,4.58%,75.25%,10.3%,8.07%,Eastern Standard Time,87,44,43,73,30,53%,53%,43,63,90,55%,61%,52%,47.84,14.69,9.63,33.64%,35.27%,33.78%,19.1,6,7.2,26.6,65,33,4,10.82,MD-02275,39.0436503,-76.4973522
Ashton-Sandy Spring,Maryland,5418,528,Washington-Arlington-Alexandria,6332069,$178214,59.88%,49,$1028000,4569,$225,35,91.35%,$1415,47.65%,N/A,N/A,1.72%,2.58%,62.12%,Montgomery County,74.70%,19.40%,9.52%,10.5%,65.84%,9.23%,12.57%,Eastern Standard Time,88,43,45,68,26,53%,53%,43,63,92,55%,61%,52%,49.63,13.99,10.35,37.34%,36.59%,38.33%,15.2,6,7.2,26.6,55,489,4.1,10.26,MD-02762,39.1514763,-77.0065276
Aspen Hill,Maryland,53752,5658,Washington-Arlington-Alexandria,6332069,$109026,43.99%,38,$526000,1879,$280,50,61.06%,$1925,49.1%,N/A,N/A,8.76%,6.55%,73.04%,Montgomery County,74.70%,19.40%,9.6%,15.79%,33.11%,34.95%,39.44%,Eastern Standard Time,88,43,45,68,26,53%,53%,43,63,92,55%,61%,52%,47.36,13.63,9.9,37.34%,36.59%,38.33%,15.2,6,7.2,26.6,41,402,4.1,9.5,MD-02825,39.0927435,-77.0826569
Baden,Maryland,1968,71,Washington-Arlington-Alexandria,6332069,$146486,34.06%,54,N/A,N/A,N/A,35,95.48%,$2275,43.05%,N/A,N/A,0.1%,6.51%,71.61%,Prince George's County,88.10%,8.40%,0.91%,48.93%,42.84%,1.88%,2.34%,Eastern Standard Time,86,44,42,67,25,53%,53%,43,63,88,55%,61%,52%,49.01,14.77,9.61,32.36%,33.63%,33.33%,13.5,7,7.2,26.6,66,135,4.3,27.6,MD-03500,38.6719413,-76.7428502
Bagtown,Maryland,226,411,Hagerstown-Martinsburg,291560,$89688,0.0%,60,$350000,1733,$202,43,75.5%,N/A,44.61%,N/A,N/A,12.39%,1.8%,54.41%,Washington County,32.00%,62.10%,0.0%,0.0%,69.03%,22.12%,12.39%,Eastern Standard Time,85,39,46,63,22,53%,53%,43,63,87,55%,61%,52%,44.98,11.8,9.84,34.08%,36.15%,31.78%,35.0,10,7.2,26.6,70,612,3.9,0.55,MD-03514,39.5829818,-77.6138853
Ballenger Creek,Maryland,25866,2395,Washington-Arlington-Alexandria,6332069,$108385,48.27%,34,$385000,1833,$210,22,66.38%,$1913,55.02%,N/A,N/A,11.92%,3.66%,72.25%,Frederick County,45.00%,47.40%,10.0%,20.87%,49.24%,14.84%,20.83%,Eastern Standard Time,85,40,45,66,25,53%,53%,43,63,87,55%,61%,52%,47.44,13.55,9.82,34.08%,35.05%,34.78%,31.2,12,7.2,26.6,57,321,4.2,10.8,MD-03800,39.380713,-77.4206053
Baltimore,Maryland,577193,7130,Baltimore-Columbia-Towson,2837237,$59623,35.43%,36,$215000,1378,$156,72,51.21%,$1290,69.92%,1858,4311,20.08%,6.55%,62.45%,Baltimore County,84.70%,10.50%,2.53%,60.04%,26.17%,7.87%,8.84%,Eastern Standard Time,91,44,47,74,31,53%,53%,43,63,98,55%,61%,52%,45.67,13.9,9.36,32.52%,32.75%,34.11%,19.1,6,7.2,26.6,42,18,4.1,80.95,MD-04000,39.3009792,-76.6106471
Baltimore Highlands,Maryland,8564,4950,Baltimore-Columbia-Towson,2837237,$64284,18.13%,34,$260000,1413,$184,59,49.91%,$1352,49.56%,N/A,N/A,22.63%,6.31%,62.98%,Baltimore County,55.90%,38.30%,2.83%,26.37%,34.45%,29.03%,28.96%,Eastern Standard Time,91,44,47,74,31,53%,53%,43,63,98,55%,61%,52%,45.67,13.9,9.36,32.52%,32.75%,34.11%,19.1,6,7.2,26.6,44,18,4.1,1.73,MD-04050,39.2354482,-76.6367721
Barclay,Maryland,203,781,Baltimore-Columbia-Towson,2837237,$57083,12.71%,38,$320000,1788,$179,36,63.6%,$1637,67.68%,N/A,N/A,8.87%,7.69%,57.96%,Queen Anne's County,30.10%,64.10%,0.0%,18.72%,29.06%,52.22%,9.36%,Eastern Standard Time,88,45,43,70,28,53%,53%,43,63,92,55%,61%,52%,50.94,14.67,11.03,35.75%,35.16%,38.11%,15.0,6,7.2,26.6,79,18,4.1,0.26,MD-04250,39.1450586,-75.8655108
Barnesville,Maryland,207,422,Washington-Arlington-Alexandria,6332069,$223750,69.17%,45,N/A,N/A,N/A,82,100.0%,N/A,50.0%,N/A,N/A,1.45%,2.11%,57.58%,Montgomery County,74.70%,19.40%,0.48%,0.48%,86.96%,12.08%,1.93%,Eastern Standard Time,85,40,45,66,25,53%,53%,43,63,87,55%,61%,52%,48.85,14.25,10.25,37.4%,38.24%,37.22%,32.6,13,7.2,26.6,63,339,4.1,0.49,MD-04475,39.2211293,-77.3798455
Barrelville,Maryland,103,2575,Cumberland,95729,$33542,7.32%,53,N/A,N/A,N/A,48,86.36%,$1214,79.27%,N/A,N/A,7.77%,0.0%,62.2%,Allegany County,25.70%,69.40%,0.0%,0.0%,100.0%,0.0%,0.0%,Eastern Standard Time,80,34,46,60,19,58%,59%,40,59,82,42%,52%,29%,46.71,12.52,9.93,42.68%,42.42%,44.22%,55.0,32,4.9,34.4,85,1983,3.5,0.04,MD-04525,39.7026528,-78.8424536
Barton,Maryland,761,3624,Cumberland,95729,$54063,6.2%,36,$146000,1738,$84,74,84.71%,$917,52.51%,N/A,N/A,10.12%,18.59%,52.82%,Allegany County,25.70%,69.40%,0.0%,0.0%,98.03%,0.53%,0.79%,Eastern Standard Time,81,36,45,60,21,58%,59%,40,59,83,42%,52%,29%,44.21,12.89,9.26,41.84%,41.65%,44.11%,30.7,20,4.9,34.4,87,1368,3.5,0.21,MD-04625,39.5322913,-79.0170933
Bartonsville,Maryland,2760,1290,Washington-Arlington-Alexandria,6332069,$146641,60.79%,38,$568000,2718,$209,8,94.57%,$1645,29.84%,N/A,N/A,5.22%,3.03%,78.92%,Frederick County,45.00%,47.40%,14.06%,13.77%,60.43%,10.87%,18.66%,Eastern Standard Time,85,40,45,66,25,53%,53%,43,63,87,55%,61%,52%,47.44,13.55,9.82,34.08%,35.05%,34.78%,31.2,12,7.2,26.6,64,321,4.2,2.14,MD-04650,39.3901319,-77.351344
Beaver Creek,Maryland,521,453,Hagerstown-Martinsburg,291560,N/A,47.0%,45,N/A,N/A,N/A,21,93.88%,N/A,38.53%,N/A,N/A,5.57%,0.0%,72.17%,Washington County,32.00%,62.10%,0.0%,49.52%,42.99%,1.15%,24.76%,Eastern Standard Time,87,40,47,67,23,53%,53%,43,63,90,55%,61%,52%,44.98,11.8,9.84,34.08%,36.15%,31.78%,35.0,10,7.2,26.6,70,486,3.9,1.15,MD-05250,39.5815453,-77.6513386
Bel Air,Maryland,10616,3504,Baltimore-Columbia-Towson,2837237,$69912,39.78%,41,$352000,2035,$173,42,64.77%,$1526,53.7%,209,1744,15.37%,4.11%,63.54%,Harford County,35.20%,58.20%,4.61%,4.34%,72.5%,12.67%,12.56%,Eastern Standard Time,87,42,45,68,25,53%,53%,43,63,90,55%,61%,52%,52.77,16.21,10.62,37.7%,38.24%,36.89%,29.4,11,7.2,26.6,59,372,3.9,3.03,MD-05550,39.5347299,-76.3460305
Bel Air CDP,Maryland,1894,2745,Cumberland,95729,$87636,25.07%,46,$352000,2035,$173,49,83.38%,$761,22.92%,209,1744,0.42%,0.0%,54.88%,Allegany County,25.70%,69.40%,3.7%,0.0%,88.12%,0.0%,3.7%,Eastern Standard Time,88,39,49,65,23,58%,59%,40,59,95,42%,52%,29%,42.33,11.88,8.86,41.86%,42.53%,41.44%,30.8,16,4.9,34.4,84,690,3.5,0.69,MD-05525,39.5812621,-78.855471
Bel Air North,Maryland,31599,1979,Baltimore-Columbia-Towson,2837237,$137995,47.69%,41,$458000,2279,$201,29,92.9%,$1651,36.43%,N/A,N/A,3.25%,3.17%,69.84%,Harford County,35.20%,58.20%,1.58%,4.6%,86.38%,1.9%,3.51%,Eastern Standard Time,87,42,45,68,25,53%,53%,43,63,90,55%,61%,52%,52.77,16.21,10.62,37.7%,38.24%,36.89%,29.4,11,7.2,26.6,65,372,3.9,15.97,MD-05825,39.5543363,-76.3732157
Bel Air South,Maryland,57702,2712,Baltimore-Columbia-Towson,2837237,$120721,47.17%,38,$350000,1777,$197,29,83.9%,$1666,42.79%,N/A,N/A,4.18%,3.42%,68.53%,Harford County,35.20%,58.20%,5.77%,10.49%,74.21%,5.95%,7.55%,Eastern Standard Time,87,42,45,68,25,53%,53%,43,63,90,55%,61%,52%,52.77,16.21,10.62,37.7%,38.24%,36.89%,29.4,11,7.2,26.6,62,372,3.9,21.28,MD-05950,39.5022048,-76.3112992
Beltsville,Maryland,19086,2647,Washington-Arlington-Alexandria,6332069,$97115,35.72%,40,$385000,1833,$210,44,58.22%,$1989,52.91%,N/A,N/A,11.6%,6.59%,62.0%,Prince George's County,88.10%,8.40%,8.53%,29.25%,17.95%,42.47%,40.46%,Eastern Standard Time,88,43,45,68,26,53%,53%,43,63,92,55%,61%,52%,44.55,13.32,8.56,32.99%,34.18%,33.0%,15.2,6,7.2,26.6,43,132,4.3,7.21,MD-06400,39.0394388,-76.9210876
Benedict,Maryland,68,296,Washington-Arlington-Alexandria,6332069,N/A,0.0%,75,N/A,N/A,N/A,82,100.0%,N/A,0.0%,N/A,N/A,51.47%,0.0%,17.65%,Charles County,63.00%,32.70%,0.0%,0.0%,100.0%,0.0%,0.0%,Eastern Standard Time,86,44,42,67,25,53%,53%,43,63,88,55%,61%,52%,50.57,14.83,10.23,32.36%,33.63%,33.33%,13.4,5,7.2,26.6,70,93,4.2,0.23,MD-06550,38.5115291,-76.6796702
Bensville,Maryland,14792,875,Washington-Arlington-Alexandria,6332069,$161568,37.22%,40,$540000,3034,$178,19,85.99%,$2680,46.77%,N/A,N/A,9.28%,4.21%,70.69%,Charles County,63.00%,32.70%,4.3%,61.51%,23.06%,4.46%,8.59%,Eastern Standard Time,89,44,45,70,28,53%,53%,43,63,94,55%,61%,52%,47.93,14.04,9.92,31.86%,33.3%,32.11%,13.4,5,7.2,26.6,63,183,4.2,16.9,MD-06662,38.6176479,-77.0076535
Berlin,Maryland,5161,1527,Salisbury,414424,$78883,37.57%,40,N/A,N/A,N/A,24,67.36%,$1079,42.28%,61,1378,8.85%,2.27%,63.11%,Worcester County,34.50%,60.90%,0.7%,15.46%,73.55%,3.43%,5.54%,Eastern Standard Time,85,45,40,69,28,56%,57%,43,63,88,53%,59%,47%,43.63,11.4,9.64,33.78%,33.3%,36.56%,8.1,3,7.2,27.2,80,12,3.9,3.38,MD-06800,38.3310628,-75.2148452
Berwyn Heights,Maryland,3306,4791,Washington-Arlington-Alexandria,6332069,$145833,41.38%,34,$500000,1131,$442,62,80.27%,$2632,52.86%,213,1952,6.18%,5.12%,68.69%,Prince George's County,88.10%,8.40%,6.02%,8.92%,27.4%,55.38%,38.2%,Eastern Standard Time,88,43,45,68,26,53%,53%,43,63,92,55%,61%,52%,44.55,13.32,8.56,32.99%,34.18%,33.0%,15.2,6,7.2,26.6,44,132,4.3,0.69,MD-06925,38.9928664,-76.9131099
Bethesda,Maryland,67403,5083,Washington-Arlington-Alexandria,6332069,$191348,87.06%,43,$1111000,2384,$466,50,72.36%,$2437,39.02%,N/A,N/A,3.98%,3.24%,68.44%,Montgomery County,74.70%,19.40%,12.63%,5.45%,67.67%,8.98%,25.32%,Eastern Standard Time,89,44,45,69,26,53%,53%,43,63,94,55%,61%,52%,48.57,14.49,10.25,38.41%,39.78%,36.22%,15.2,6,7.2,26.6,30,138,4.1,13.26,MD-07125,38.9865889,-77.1187597
Betterton,Maryland,358,362,None,N/A,$74375,38.17%,46,N/A,N/A,N/A,72,74.27%,$1063,46.36%,N/A,N/A,13.6%,13.67%,47.28%,Kent County,45.70%,48.70%,0.0%,7.26%,84.08%,6.7%,2.79%,N/A,87,42,45,68,25,53%,53%,43,63,90,55%,61%,52%,49.41,15.65,10.11,35.75%,35.16%,38.11%,22.0,9,7.2,26.6,78,51,3.8,0.99,MD-07200,39.3649671,-76.0693604
Bier,Maryland,72,49,Cumberland,95729,$78167,37.93%,67,N/A,N/A,N/A,72,79.91%,N/A,79.17%,N/A,N/A,0.0%,0.0%,59.72%,Allegany County,25.70%,69.40%,0.0%,0.0%,100.0%,0.0%,0.0%,Eastern Standard Time,80,34,46,60,19,58%,59%,40,59,82,42%,52%,29%,42.33,11.88,8.86,41.86%,42.53%,41.44%,30.8,16,4.9,34.4,84,690,3.5,1.46,MD-07285,39.5524704,-78.8692026
Big Pool,Maryland,39,355,Hagerstown-Martinsburg,291560,N/A,100.0%,N/A,N/A,N/A,N/A,N/A,67.06%,N/A,0.0%,N/A,N/A,0.0%,0.0%,100.0%,Washington County,32.00%,62.10%,0.0%,0.0%,100.0%,0.0%,0.0%,Eastern Standard Time,88,42,46,64,23,53%,53%,41,62,92,55%,61%,52%,43.89,12.46,9.15,37.42%,39.01%,35.67%,25.4,9,7.2,30.2,74,447,3.9,0.11,MD-07375,39.6250938,-78.0161681
Big Spring,Maryland,23,164,Hagerstown-Martinsburg,291560,N/A,0.0%,N/A,N/A,N/A,N/A,N/A,100.0%,N/A,100.0%,N/A,N/A,0.0%,0.0%,100.0%,Washington County,32.00%,62.10%,0.0%,0.0%,100.0%,0.0%,0.0%,Eastern Standard Time,88,42,46,64,23,53%,53%,41,62,92,55%,61%,52%,43.89,12.46,9.15,37.42%,39.01%,35.67%,25.4,9,7.2,30.2,74,447,3.9,0.14,MD-07400,39.6259019,-77.9396325
Bishopville,Maryland,665,233,Salisbury,414424,N/A,5.71%,55,N/A,N/A,N/A,41,82.81%,N/A,17.29%,N/A,N/A,0.0%,0.0%,74.06%,Worcester County,34.50%,60.90%,0.15%,9.62%,88.27%,1.95%,2.11%,Eastern Standard Time,85,45,40,69,28,56%,57%,43,63,88,53%,59%,47%,53.92,15.53,11.81,41.26%,40.55%,41.89%,8.1,3,7.2,27.2,83,3,3.9,2.86,MD-07625,38.4413089,-75.2090973
Bivalve,Maryland,164,113,Salisbury,414424,N/A,0.0%,44,N/A,N/A,N/A,55,100.0%,N/A,67.68%,N/A,N/A,27.44%,0.0%,32.32%,Wicomico County,42.40%,52.20%,0.0%,0.0%,27.44%,72.56%,14.02%,Eastern Standard Time,89,48,41,70,29,53%,53%,43,63,94,55%,61%,52%,48.43,13.85,9.99,33.56%,33.74%,35.22%,15.0,6,7.2,26.6,78,6,3.8,1.45,MD-07675,38.3054493,-75.8849079
Bladensburg,Maryland,9552,9648,Washington-Arlington-Alexandria,6332069,$62400,14.12%,31,$70000,921,$76,52,19.19%,$1652,56.62%,622,3250,13.6%,12.3%,67.84%,Prince George's County,88.10%,8.40%,0.65%,58.09%,0.49%,39.05%,36.86%,Eastern Standard Time,90,45,45,72,28,53%,53%,43,63,96,55%,61%,52%,47.62,14.03,9.43,38.41%,39.78%,36.22%,15.2,6,7.2,26.6,32,45,4.3,0.99,MD-07850,38.9423051,-76.9263949
Bloomington,Maryland,165,266,None,N/A,$70347,32.73%,38,N/A,N/A,N/A,58,50.0%,N/A,29.46%,N/A,N/A,9.09%,11.24%,68.99%,Garrett County,18.30%,76.90%,10.91%,0.0%,81.21%,0.0%,10.91%,N/A,81,36,45,60,21,58%,59%,40,59,83,42%,52%,29%,44.21,12.89,9.26,41.84%,41.65%,44.11%,30.7,20,4.9,34.4,89,1368,3.5,0.62,MD-08050,39.4794062,-79.0768484
Boonsboro,Maryland,3799,1246,Hagerstown-Martinsburg,291560,$93730,24.46%,39,$322000,1928,$167,52,73.5%,$1197,54.81%,27,444,5.19%,3.69%,65.2%,Washington County,32.00%,62.10%,0.92%,5.37%,91.05%,1.55%,2.05%,Eastern Standard Time,87,42,45,63,22,53%,53%,43,63,90,55%,61%,52%,47.02,12.5,9.75,34.08%,36.15%,31.78%,35.0,10,7.2,26.6,72,714,3.9,3.05,MD-08625,39.5079055,-77.6585842
Bowie,Maryland,57771,2826,Washington-Arlington-Alexandria,6332069,$141831,50.07%,44,$460000,1885,$244,39,86.93%,$2240,50.12%,99,1516,4.15%,4.54%,72.26%,Prince George's County,88.10%,8.40%,3.04%,57.22%,26.85%,8.47%,15.1%,Eastern Standard Time,88,43,45,68,26,53%,53%,43,63,92,55%,61%,52%,47.53,13.93,9.53,32.99%,34.18%,33.0%,15.2,6,7.2,26.6,51,138,4.3,20.44,MD-08775,38.9548646,-76.7405559
Bowleys Quarters,Maryland,6795,2157,Baltimore-Columbia-Towson,2837237,$107339,28.55%,41,$315000,1641,$192,34,85.58%,$1455,39.07%,N/A,N/A,8.52%,1.92%,71.38%,Baltimore County,55.90%,38.30%,4.55%,17.95%,69.93%,5.59%,9.96%,Eastern Standard Time,91,44,47,74,31,53%,53%,43,63,98,55%,61%,52%,52.29,15.31,10.67,32.52%,32.75%,34.11%,19.1,6,7.2,26.6,59,186,4.1,3.15,MD-08800,39.3140672,-76.3826756
Bowling Green,Maryland,1096,1142,Cumberland,95729,$71875,17.69%,43,$105000,1750,$60,61,62.3%,$852,65.27%,N/A,N/A,9.22%,5.17%,59.23%,Allegany County,25.70%,69.40%,0.0%,0.09%,96.99%,0.0%,0.0%,Eastern Standard Time,88,39,49,65,23,58%,59%,40,59,95,42%,52%,29%,39.42,11.34,8.32,38.03%,39.34%,38.89%,30.8,16,4.9,34.4,78,669,3.5,0.96,MD-08850,39.6271304,-78.8050451
Bowmans Addition,Maryland,1149,1026,Cumberland,95729,$80489,7.99%,33,$40000,1379,$29,41,88.19%,$1290,53.4%,N/A,N/A,29.85%,1.49%,54.76%,Allegany County,25.70%,69.40%,0.0%,0.0%,99.83%,0.0%,0.0%,Eastern Standard Time,88,39,49,65,23,58%,59%,40,59,95,42%,52%,29%,39.42,11.34,8.32,38.03%,39.34%,38.89%,30.8,16,4.9,34.4,80,669,3.5,1.12,MD-08862,39.6863447,-78.7550279
Braddock Heights,Maryland,2606,488,Washington-Arlington-Alexandria,6332069,$114750,41.87%,45,$375000,1697,$221,47,88.12%,N/A,34.14%,N/A,N/A,2.9%,0.52%,55.74%,Frederick County,45.00%,47.40%,1.23%,1.42%,90.79%,4.76%,5.91%,Eastern Standard Time,87,42,45,63,22,53%,53%,43,63,90,55%,61%,52%,47.02,12.5,9.75,34.08%,35.05%,34.78%,31.2,12,7.2,26.6,66,714,4.2,5.34,MD-09100,39.4118189,-77.4990566
Brandywine,Maryland,10989,522,Washington-Arlington-Alexandria,6332069,$158258,42.38%,43,$617000,2883,$214,13,91.4%,N/A,49.81%,N/A,N/A,7.27%,5.99%,70.1%,Prince George's County,88.10%,8.40%,1.69%,78.08%,10.44%,6.68%,8.04%,Eastern Standard Time,89,44,45,70,28,53%,53%,43,63,94,55%,61%,52%,47.93,14.04,9.92,35.04%,35.27%,36.78%,13.5,7,7.2,26.6,63,183,4.3,21.04,MD-09325,38.696331,-76.8845725
Breathedsville,Maryland,346,935,Hagerstown-Martinsburg,291560,N/A,12.08%,33,N/A,N/A,N/A,31,32.03%,N/A,66.18%,N/A,N/A,69.08%,0.0%,28.5%,Washington County,32.00%,62.10%,0.0%,69.08%,30.92%,0.0%,0.0%,Eastern Standard Time,87,40,47,67,23,53%,53%,43,63,90,55%,61%,52%,44.98,11.8,9.84,37.42%,39.01%,35.67%,35.0,10,7.2,26.6,66,486,3.9,0.37,MD-09400,39.5460095,-77.7245479
Brentwood,Maryland,3753,9623,Washington-Arlington-Alexandria,6332069,$70573,20.98%,36,$425000,1269,$335,72,38.28%,$1564,64.96%,429,1459,11.9%,4.21%,74.45%,Prince George's County,88.10%,8.40%,0.93%,35.89%,9.91%,53.34%,39.54%,Eastern Standard Time,90,45,45,72,28,53%,53%,43,63,96,55%,61%,52%,47.62,14.03,9.43,38.41%,39.78%,36.22%,15.2,6,7.2,26.6,26,45,4.3,0.39,MD-09500,38.9438499,-76.9570455
Brock Hall,Maryland,13400,1347,Washington-Arlington-Alexandria,6332069,$190896,61.71%,39,$550000,2582,$213,12,96.73%,$3138,48.65%,N/A,N/A,3.83%,5.73%,77.44%,Prince George's County,88.10%,8.40%,1.69%,89.04%,4.51%,1.1%,12.28%,Eastern Standard Time,90,45,45,72,28,53%,53%,43,63,96,55%,61%,52%,47.53,13.93,9.53,35.04%,35.27%,36.78%,15.2,6,7.2,26.6,42,138,4.3,9.95,MD-10150,38.8603565,-76.7459406
Brookeville,Maryland,148,1057,Washington-Arlington-Alexandria,6332069,$137500,61.17%,45,$1030000,5099,$202,80,84.77%,N/A,43.86%,N/A,N/A,9.46%,0.0%,62.28%,Montgomery County,74.70%,19.40%,0.0%,0.0%,89.86%,8.78%,1.35%,Eastern Standard Time,85,40,45,66,25,53%,53%,43,63,87,55%,61%,52%,49.63,13.99,10.35,37.34%,36.59%,38.33%,31.2,12,7.2,26.6,56,489,4.1,0.14,MD-10225,39.180898,-77.0590992
Brooklyn Park,Maryland,15799,3753,Baltimore-Columbia-Towson,2837237,$84276,19.44%,40,$302000,1452,$208,65,82.16%,$1453,52.38%,N/A,N/A,7.82%,5.43%,62.6%,Anne Arundel County,47.50%,45.30%,3.18%,23.89%,50.1%,16.64%,13.18%,Eastern Standard Time,91,44,47,74,31,53%,53%,43,63,98,55%,61%,52%,45.67,13.9,9.36,32.52%,32.75%,34.11%,19.1,6,7.2,26.6,47,18,4,4.21,MD-10475,39.2169853,-76.6174143
Brookmont,Maryland,3825,2920,Washington-Arlington-Alexandria,6332069,$250001,88.15%,47,$1531000,3080,$497,58,90.47%,$3000,28.33%,N/A,N/A,0.92%,4.07%,75.23%,Montgomery County,74.70%,19.40%,5.57%,3.5%,89.1%,1.18%,10.69%,Eastern Standard Time,89,44,45,69,26,53%,53%,43,63,94,55%,61%,52%,48.57,14.49,10.25,38.41%,39.78%,36.22%,13.5,7,7.2,26.6,45,138,4.1,1.31,MD-10500,38.9547361,-77.1291911
Brookview,Maryland,34,850,Cambridge,32486,$77500,25.0%,57,N/A,N/A,N/A,72,96.08%,N/A,56.67%,N/A,N/A,8.82%,0.0%,56.67%,Dorchester County,41.00%,55.30%,0.0%,5.88%,88.24%,0.0%,0.0%,N/A,89,48,41,70,29,53%,53%,43,63,94,55%,61%,52%,49.27,15.29,9.88,33.56%,33.74%,35.22%,15.0,6,7.2,26.6,78,24,4.2,0.04,MD-10575,38.5740107,-75.7929629
Broomes Island,Maryland,422,578,Washington-Arlington-Alexandria,6332069,$191944,27.3%,50,$180000,2769,$65,37,100.0%,N/A,33.17%,N/A,N/A,0.0%,0.0%,62.16%,Calvert County,38.40%,55.20%,0.0%,0.0%,94.55%,0.0%,0.0%,Eastern Standard Time,89,46,43,73,30,53%,53%,43,63,94,55%,61%,52%,50.57,14.83,10.23,32.36%,33.63%,33.33%,15.0,6,7.2,26.6,74,12,3.9,0.73,MD-10650,38.4202976,-76.5475429
Brunswick,Maryland,7994,2437,Washington-Arlington-Alexandria,6332069,$115972,36.56%,37,$402000,2271,$177,32,79.84%,$1139,46.82%,233,1929,6.41%,5.62%,76.32%,Frederick County,45.00%,47.40%,2.99%,7.37%,71.83%,10.46%,8.79%,Eastern Standard Time,87,42,45,63,22,53%,53%,43,63,90,55%,61%,52%,44.86,12.33,9.28,33.84%,35.6%,31.67%,32.6,13,7.2,26.6,64,366,4.2,3.28,MD-10900,39.3181223,-77.6252167
Bryans Road,Maryland,9174,596,Washington-Arlington-Alexandria,6332069,$117117,27.89%,37,$400000,2162,$185,30,85.31%,$2044,54.6%,N/A,N/A,2.25%,8.46%,71.76%,Charles County,63.00%,32.70%,1.16%,67.99%,19.25%,6.85%,6.06%,Eastern Standard Time,89,44,45,70,28,53%,53%,43,63,94,55%,61%,52%,48.89,15.21,9.48,31.86%,33.3%,32.11%,13.4,5,7.2,26.6,62,45,4.2,15.38,MD-10925,38.6144036,-77.0849628
Bryantown,Maryland,359,87,Washington-Arlington-Alexandria,6332069,$113580,58.25%,52,N/A,N/A,N/A,41,95.47%,N/A,15.53%,N/A,N/A,0.0%,0.0%,56.96%,Charles County,63.00%,32.70%,0.0%,40.39%,59.61%,0.0%,0.0%,Eastern Standard Time,86,44,42,67,25,53%,53%,43,63,88,55%,61%,52%,47.93,14.04,9.92,32.36%,33.63%,33.33%,13.4,5,7.2,26.6,70,183,4.2,4.14,MD-10950,38.5498153,-76.8429086
Buckeystown,Maryland,1317,1447,Washington-Arlington-Alexandria,6332069,$141250,48.61%,61,N/A,N/A,N/A,25,56.29%,$2398,51.81%,N/A,N/A,7.91%,3.29%,44.02%,Frederick County,45.00%,47.40%,5.39%,8.43%,70.54%,7.59%,7.97%,Eastern Standard Time,85,40,45,66,25,53%,53%,43,63,87,55%,61%,52%,47.44,13.55,9.82,37.4%,38.24%,37.22%,32.6,13,7.2,26.6,66,321,4.2,0.91,MD-11050,39.3263345,-77.4278409
Burkittsville,Maryland,143,318,Washington-Arlington-Alexandria,6332069,$102708,48.7%,55,N/A,N/A,N/A,82,79.04%,$1104,40.63%,N/A,N/A,4.9%,9.3%,68.25%,Frederick County,45.00%,47.40%,0.0%,0.0%,91.61%,0.0%,6.29%,Eastern Standard Time,87,42,45,63,22,53%,53%,43,63,90,55%,61%,52%,44.86,12.33,9.28,33.84%,35.6%,31.67%,32.6,13,7.2,26.6,70,366,4.2,0.45,MD-11400,39.3922662,-77.6275264
Burtonsville,Maryland,10063,1284,Washington-Arlington-Alexandria,6332069,$130000,46.03%,38,$398000,1392,$286,35,82.62%,$2222,41.54%,N/A,N/A,3.54%,4.4%,75.85%,Montgomery County,74.70%,19.40%,23.77%,34.08%,22.08%,13.7%,37.3%,Eastern Standard Time,88,43,45,68,26,53%,53%,43,63,92,55%,61%,52%,46.13,13.67,9.45,32.99%,34.18%,33.0%,15.2,6,7.2,26.6,51,375,4.1,7.84,MD-11750,39.1165791,-76.9355923
Butlertown,Maryland,522,637,None,N/A,$70875,20.54%,47,N/A,N/A,N/A,22,78.96%,N/A,48.83%,N/A,N/A,28.93%,2.72%,76.86%,Kent County,45.70%,48.70%,0.0%,60.73%,39.27%,0.0%,0.0%,N/A,87,42,45,68,25,53%,53%,43,63,90,55%,61%,52%,49.41,15.65,10.11,37.7%,38.24%,36.89%,19.1,6,7.2,26.6,78,51,3.8,0.82,MD-11900,39.2816986,-76.0994362
Cabin John,Maryland,2096,1718,Washington-Arlington-Alexandria,6332069,$222500,88.16%,49,$1300000,2808,$463,44,95.21%,N/A,30.33%,N/A,N/A,0.1%,0.0%,60.01%,Montgomery County,74.70%,19.40%,10.02%,5.1%,59.4%,10.73%,22.23%,Eastern Standard Time,89,44,45,69,26,53%,53%,43,63,94,55%,61%,52%,48.57,14.49,10.25,38.41%,39.78%,36.22%,13.5,7,7.2,26.6,45,138,4.1,1.22,MD-12075,38.9739941,-77.1631612
California,Maryland,13223,1027,California-Lexington Park,113209,$112717,40.78%,35,$360000,2105,$171,26,61.03%,$1805,46.97%,N/A,N/A,4.85%,2.73%,73.95%,St. Mary's County,35.20%,57.50%,3.96%,22.44%,58.4%,9.2%,7.68%,Eastern Standard Time,89,46,43,73,30,53%,53%,43,63,94,55%,61%,52%,45.03,13.43,8.76,33.23%,34.51%,32.33%,15.0,6,7.2,26.6,68,12,4,12.87,MD-12150,38.297679,-76.4934501
Calvert Beach,Maryland,911,1111,Washington-Arlington-Alexandria,6332069,$85667,11.17%,29,$220000,1189,$185,40,92.33%,N/A,36.72%,N/A,N/A,0.0%,4.99%,67.14%,Calvert County,38.40%,55.20%,1.87%,3.95%,79.69%,0.0%,4.28%,Eastern Standard Time,89,46,43,73,30,53%,53%,43,63,94,55%,61%,52%,45.03,13.43,8.76,33.23%,34.51%,32.33%,15.0,6,7.2,26.6,72,12,3.9,0.82,MD-12300,38.4727995,-76.4896763
Calverton,Maryland,17721,3869,Washington-Arlington-Alexandria,6332069,$108315,43.48%,42,$367000,1401,$262,37,75.88%,$2208,53.12%,N/A,N/A,9.64%,5.0%,62.64%,Montgomery County,74.70%,19.40%,11.17%,39.46%,18.24%,26.29%,40.46%,Eastern Standard Time,88,43,45,68,26,53%,53%,43,63,92,55%,61%,52%,44.55,13.32,8.56,32.99%,34.18%,33.0%,15.2,6,7.2,26.6,46,132,4.1,4.58,MD-12350,39.0577882,-76.9487949
Cambridge,Maryland,13094,1229,Cambridge,32486,$46261,19.1%,39,$280000,1795,$156,53,38.61%,$971,66.9%,970,5373,24.15%,6.74%,58.97%,Dorchester County,41.00%,55.30%,2.13%,44.17%,37.2%,7.5%,3.93%,N/A,89,45,44,71,30,53%,53%,43,63,94,55%,61%,52%,48.34,14.16,9.68,34.0%,32.42%,37.22%,15.0,6,7.2,26.6,69,9,4.2,10.65,MD-12400,38.5556598,-76.0755682
Camp Springs,Maryland,22174,2887,Washington-Arlington-Alexandria,6332069,$115157,31.06%,41,$393000,1566,$251,49,75.3%,$2175,58.85%,N/A,N/A,6.53%,4.44%,69.49%,Prince George's County,88.10%,8.40%,1.56%,77.36%,7.29%,10.73%,11.59%,Eastern Standard Time,89,44,45,70,28,53%,53%,43,63,94,55%,61%,52%,48.42,14.72,9.71,35.04%,35.27%,36.78%,13.5,7,7.2,26.6,42,234,4.3,7.68,MD-12600,38.8052586,-76.9197843
Cape St. Claire,Maryland,9016,4508,Baltimore-Columbia-Towson,2837237,$136064,55.71%,40,$528000,2444,$216,42,89.21%,$1868,41.37%,N/A,N/A,3.04%,5.8%,71.07%,Anne Arundel County,47.50%,45.30%,2.65%,3.97%,80.31%,5.91%,5.77%,Eastern Standard Time,87,44,43,73,30,53%,53%,43,63,90,55%,61%,52%,45.15,14.32,7.99,33.64%,35.27%,33.78%,19.1,6,7.2,26.6,65,6,4,2.0,MD-12912,39.043958,-76.4460363
Capitol Heights,Maryland,4014,5146,Washington-Arlington-Alexandria,6332069,$91938,19.72%,34,$325000,1152,$282,53,77.25%,$1379,60.85%,417,1318,7.46%,9.17%,73.18%,Prince George's County,88.10%,8.40%,0.0%,76.76%,0.75%,25.04%,16.62%,Eastern Standard Time,90,45,45,72,28,53%,53%,43,63,96,55%,61%,52%,48.42,14.72,9.71,32.44%,32.75%,33.0%,13.5,7,7.2,26.6,44,234,4.3,0.78,MD-13000,38.8766903,-76.9075645
Carlos,Maryland,57,197,Cumberland,95729,$45500,0.0%,56,N/A,N/A,N/A,82,100.0%,N/A,64.91%,N/A,N/A,0.0%,0.0%,66.67%,Allegany County,25.70%,69.40%,0.0%,0.0%,100.0%,0.0%,0.0%,Eastern Standard Time,80,34,46,60,19,58%,59%,40,59,82,42%,52%,29%,46.71,12.52,9.93,42.68%,42.42%,44.22%,30.8,16,4.9,34.4,86,1983,3.5,0.29,MD-13225,39.6237427,-78.9566803
Carney,Maryland,28624,4083,Baltimore-Columbia-Towson,2837237,$84619,40.19%,40,$268000,1531,$175,40,64.01%,$1786,55.35%,N/A,N/A,9.88%,3.3%,60.77%,Baltimore County,55.90%,38.30%,9.44%,18.4%,64.6%,4.42%,12.73%,Eastern Standard Time,87,43,44,70,26,53%,53%,43,63,90,55%,61%,52%,50.35,13.98,10.31,37.7%,38.24%,36.89%,19.1,6,7.2,26.6,51,282,4.1,7.01,MD-13325,39.4049569,-76.5235631
Catonsville,Maryland,42717,3060,Baltimore-Columbia-Towson,2837237,$110051,51.94%,40,$409000,1885,$217,56,75.06%,$1697,55.98%,N/A,N/A,6.86%,3.9%,62.4%,Baltimore County,55.90%,38.30%,9.11%,18.58%,60.77%,6.68%,12.21%,Eastern Standard Time,91,44,47,74,31,53%,53%,43,63,98,55%,61%,52%,52.8,15.36,10.35,34.68%,35.49%,37.33%,28.5,11,7.2,26.6,50,423,4.1,13.96,MD-14125,39.2646078,-76.7424048
Cavetown,Maryland,909,478,Hagerstown-Martinsburg,291560,$103866,25.27%,55,$330000,1803,$183,59,87.86%,$1102,26.61%,N/A,N/A,2.09%,2.12%,55.5%,Washington County,32.00%,62.10%,0.0%,2.64%,93.62%,1.65%,0.0%,Eastern Standard Time,85,39,46,63,22,53%,53%,43,63,87,55%,61%,52%,44.98,11.8,9.84,34.08%,36.15%,31.78%,35.0,10,7.2,26.6,73,612,3.9,1.9,MD-14225,39.6426573,-77.5932
Cearfoss,Maryland,141,705,Hagerstown-Martinsburg,291560,$2499,0.0%,24,N/A,N/A,N/A,7,47.83%,N/A,55.32%,N/A,N/A,55.32%,0.0%,23.4%,Washington County,32.00%,62.10%,55.32%,0.0%,44.68%,0.0%,55.32%,Eastern Standard Time,88,41,47,68,25,53%,53%,41,62,92,55%,61%,52%,35.87,10.21,7.3,34.08%,36.15%,31.78%,25.4,9,7.2,30.2,69,639,3.9,0.2,MD-14300,39.6991328,-77.7763398
Cecilton,Maryland,863,1798,Philadelphia-Camden-Wilmington,6215222,$95795,28.83%,30,$244000,1184,$206,44,69.92%,$882,55.13%,N/A,N/A,5.85%,1.46%,71.9%,Cecil County,30.20%,63.80%,0.7%,7.42%,82.04%,4.17%,0.0%,Eastern Standard Time,87,42,45,68,25,55%,55%,43,63,91,55%,61%,52%,50.7,15.04,11.11,35.75%,35.16%,38.11%,22.0,9,7.2,29.3,77,51,4,0.48,MD-14325,39.4048242,-75.8674121
Cedarville,Maryland,791,60,Washington-Arlington-Alexandria,6332069,$87917,12.95%,50,$70000,921,$76,43,90.12%,N/A,39.83%,N/A,N/A,1.26%,0.0%,68.73%,Prince George's County,88.10%,8.40%,0.0%,16.18%,44.12%,32.49%,11.25%,Eastern Standard Time,86,44,42,67,25,53%,53%,43,63,88,55%,61%,52%,49.01,14.77,9.61,32.36%,33.63%,33.33%,13.5,7,7.2,26.6,65,135,4.3,13.28,MD-14800,38.6622911,-76.8190367
Centreville,Maryland,4725,1724,Baltimore-Columbia-Towson,2837237,$93276,43.88%,40,$482000,2351,$205,18,85.18%,$1235,45.72%,81,798,5.71%,2.47%,62.19%,Queen Anne's County,30.10%,64.10%,1.12%,10.9%,84.49%,0.76%,3.37%,Eastern Standard Time,88,43,45,72,29,53%,53%,43,63,92,55%,61%,52%,49.22,14.07,10.42,34.0%,32.42%,37.22%,15.0,6,7.2,26.6,77,36,4.1,2.74,MD-14950,39.0419188,-76.0630718
Chance,Maryland,218,131,Salisbury,414424,$63500,4.48%,62,N/A,N/A,N/A,50,87.41%,N/A,27.45%,N/A,N/A,2.75%,6.06%,48.53%,Somerset County,42.40%,53.90%,0.0%,12.39%,72.48%,15.14%,17.89%,Eastern Standard Time,89,48,41,70,29,53%,53%,43,63,94,55%,61%,52%,48.43,13.85,9.99,34.36%,34.07%,37.22%,8.1,3,7.2,26.6,81,6,4.5,1.67,MD-15075,38.1788655,-75.9387551
Charlestown,Maryland,2037,1741,Philadelphia-Camden-Wilmington,6215222,$109650,38.21%,38,$228000,1551,$147,27,70.78%,$1548,33.44%,N/A,N/A,8.15%,2.93%,56.71%,Cecil County,30.20%,63.80%,0.44%,3.53%,86.21%,5.6%,0.69%,Eastern Standard Time,88,41,47,69,26,55%,55%,43,63,93,55%,61%,52%,50.7,15.04,11.11,35.75%,35.16%,38.11%,22.0,9,7.2,29.3,69,51,4,1.17,MD-15400,39.5789474,-75.9811428
Charlotte Hall,Maryland,1448,286,California-Lexington Park,113209,$108936,35.53%,37,$395000,2090,$189,45,88.25%,$1836,63.79%,N/A,N/A,7.53%,8.25%,50.96%,St. Mary's County,35.20%,57.50%,2.56%,31.08%,56.7%,7.94%,9.74%,Eastern Standard Time,86,44,42,67,25,53%,53%,43,63,88,55%,61%,52%,50.57,14.83,10.23,32.36%,33.63%,33.33%,13.4,5,7.2,26.6,71,93,4.2,5.06,MD-15475,38.4667446,-76.7847558
Charlton,Maryland,187,1169,Hagerstown-Martinsburg,291560,N/A,0.0%,47,$445000,2633,$169,N/A,100.0%,N/A,45.45%,N/A,N/A,0.0%,0.0%,54.55%,Washington County,32.00%,62.10%,0.0%,0.0%,100.0%,0.0%,0.0%,Eastern Standard Time,88,41,47,68,25,53%,53%,41,62,92,55%,61%,52%,42.36,11.72,8.78,37.42%,39.01%,35.67%,25.4,9,7.2,30.2,65,330,3.9,0.16,MD-15500,39.634401,-77.8943637
Chesapeake Beach,Maryland,6428,2390,Washington-Arlington-Alexandria,6332069,$135888,51.13%,43,$598000,3691,$162,25,75.23%,$1490,47.13%,N/A,N/A,3.14%,1.59%,67.5%,Calvert County,38.40%,55.20%,3.14%,6.64%,76.28%,3.24%,3.3%,Eastern Standard Time,86,44,42,67,25,53%,53%,43,63,88,55%,61%,52%,49.6,15.52,9.89,32.36%,33.63%,33.33%,15.0,6,7.2,26.6,66,102,3.9,2.69,MD-15925,38.6880628,-76.5448712
Chesapeake City,Maryland,778,1468,Philadelphia-Camden-Wilmington,6215222,$67109,32.81%,57,$290000,903,$321,73,80.7%,$1005,46.45%,N/A,N/A,13.5%,4.42%,60.57%,Cecil County,30.20%,63.80%,0.0%,1.93%,81.11%,13.24%,4.88%,Eastern Standard Time,88,42,46,69,26,55%,55%,43,63,93,55%,61%,52%,50.69,15.97,11.23,35.75%,35.16%,38.11%,22.0,9,7.2,29.3,76,102,4,0.53,MD-15950,39.5281409,-75.8092313
Chesapeake Ranch Estates,Maryland,9307,2154,Washington-Arlington-Alexandria,6332069,$97139,27.77%,36,$317000,1617,$196,27,84.21%,$1794,45.9%,N/A,N/A,5.13%,2.16%,74.08%,Calvert County,38.40%,55.20%,1.49%,18.31%,67.95%,5.47%,3.66%,Eastern Standard Time,89,46,43,73,30,53%,53%,43,63,94,55%,61%,52%,45.03,13.43,8.76,33.23%,34.51%,32.33%,15.0,6,7.2,26.6,69,12,3.9,4.32,MD-16050,38.357392,-76.4145879
Chester,Maryland,4539,866,Baltimore-Columbia-Towson,2837237,$90938,37.61%,44,$640000,2540,$252,29,61.84%,$1849,49.52%,N/A,N/A,10.64%,2.35%,66.15%,Queen Anne's County,30.10%,64.10%,1.26%,7.84%,80.37%,6.15%,10.09%,Eastern Standard Time,88,43,45,72,29,53%,53%,43,63,92,55%,61%,52%,48.86,14.75,9.79,34.0%,32.42%,37.22%,15.0,6,7.2,26.6,71,9,4.1,5.24,MD-16125,38.9686548,-76.2796543
Chestertown,Maryland,5548,1900,None,N/A,$47047,45.12%,32,N/A,N/A,N/A,36,50.06%,$1090,74.54%,258,1412,15.57%,4.02%,49.33%,Kent County,45.70%,48.70%,2.29%,24.84%,67.38%,3.21%,6.06%,N/A,87,42,45,68,25,53%,53%,43,63,90,55%,61%,52%,49.41,15.65,10.11,32.52%,32.75%,34.11%,19.1,6,7.2,26.6,71,51,3.8,2.92,MD-16225,39.2182802,-76.0714662
Cheverly,Maryland,6107,4627,Washington-Arlington-Alexandria,6332069,$117633,51.33%,38,$458000,1949,$235,67,74.77%,$1786,52.98%,370,1912,5.35%,8.41%,72.1%,Prince George's County,88.10%,8.40%,5.91%,39.27%,27.53%,16.73%,20.75%,Eastern Standard Time,90,45,45,72,28,53%,53%,43,63,96,55%,61%,52%,47.62,14.03,9.43,38.41%,39.78%,36.22%,15.2,6,7.2,26.6,36,45,4.3,1.32,MD-16550,38.9253953,-76.9141142
Chevy Chase,Maryland,1860,772,Washington-Arlington-Alexandria,6332069,$250001,94.97%,51,$1488000,2829,$526,82,96.26%,$3501,24.11%,0,1929,0.38%,2.82%,58.0%,Montgomery County,74.70%,19.40%,0.97%,0.0%,89.14%,5.22%,6.4%,Eastern Standard Time,89,44,45,69,26,53%,53%,43,63,94,55%,61%,52%,48.57,14.49,10.25,38.41%,39.78%,36.22%,13.5,7,7.2,26.6,30,138,4.1,2.41,MD-16787,38.9697812,-77.0793397
Chevy Chase Section Five,Maryland,767,6973,Washington-Arlington-Alexandria,6332069,$250001,96.99%,45,N/A,N/A,N/A,82,96.7%,N/A,25.13%,N/A,N/A,1.17%,0.48%,70.94%,Montgomery County,74.70%,19.40%,2.09%,0.52%,91.53%,2.74%,9.91%,Eastern Standard Time,89,44,45,69,26,53%,53%,43,63,94,55%,61%,52%,47.35,13.73,9.55,38.41%,39.78%,36.22%,15.2,6,7.2,26.6,32,276,4.1,0.11,MD-16720,38.9839795,-77.0740273
Chevy Chase Section Three,Maryland,985,8208,Washington-Arlington-Alexandria,6332069,$250001,94.38%,42,N/A,N/A,N/A,82,95.78%,$3501,23.05%,N/A,N/A,2.64%,0.45%,69.6%,Montgomery County,74.70%,19.40%,4.47%,0.0%,79.8%,5.18%,7.51%,Eastern Standard Time,89,44,45,69,26,53%,53%,43,63,94,55%,61%,52%,48.13,14.5,9.47,38.41%,39.78%,36.22%,15.2,6,7.2,26.6,32,264,4.1,0.12,MD-16730,38.9792587,-77.0741868
Chevy Chase town,Maryland,1860,3957,Washington-Arlington-Alexandria,6332069,$250001,94.97%,51,$1488000,2829,$526,82,96.26%,$3501,24.11%,0,1929,0.38%,2.82%,58.0%,Montgomery County,74.70%,19.40%,0.97%,0.0%,89.14%,5.22%,6.4%,Eastern Standard Time,89,44,45,69,26,53%,53%,43,63,94,55%,61%,52%,48.57,14.49,10.25,38.41%,39.78%,36.22%,13.5,7,7.2,26.6,28,138,4.1,0.47,MD-16787,38.9697812,-77.0793397
Chevy Chase View,Maryland,1092,4044,Washington-Arlington-Alexandria,6332069,$250001,91.91%,41,N/A,N/A,N/A,62,97.31%,$3250,32.36%,N/A,N/A,0.64%,1.35%,67.57%,Montgomery County,74.70%,19.40%,3.02%,1.47%,83.06%,8.61%,10.35%,Eastern Standard Time,89,44,45,69,26,53%,53%,43,63,94,55%,61%,52%,47.35,13.73,9.55,38.41%,39.78%,36.22%,15.2,6,7.2,26.6,38,276,4.1,0.27,MD-16775,39.0192006,-77.0811036
Chevy Chase Village,Maryland,1860,4429,Washington-Arlington-Alexandria,6332069,$250001,94.97%,51,$1488000,2829,$526,82,96.26%,$3501,24.11%,0,1929,0.38%,2.82%,58.0%,Montgomery County,74.70%,19.40%,0.97%,0.0%,89.14%,5.22%,6.4%,Eastern Standard Time,89,44,45,69,26,53%,53%,43,63,94,55%,61%,52%,48.57,14.49,10.25,38.41%,39.78%,36.22%,13.5,7,7.2,26.6,29,138,4.1,0.42,MD-16787,38.9697812,-77.0793397
Chewsville,Maryland,299,356,Hagerstown-Martinsburg,291560,$110909,60.81%,37,$283000,1675,$169,64,96.68%,$1188,19.82%,N/A,N/A,0.0%,0.0%,81.53%,Washington County,32.00%,62.10%,0.0%,0.0%,87.96%,12.04%,0.0%,Eastern Standard Time,85,39,46,63,22,53%,53%,41,62,87,55%,61%,52%,44.98,11.8,9.84,34.08%,36.15%,31.78%,35.0,10,7.2,30.2,71,612,3.9,0.84,MD-16800,39.6484147,-77.6312385
Chillum,Maryland,35163,10434,Washington-Arlington-Alexandria,6332069,$78513,23.74%,36,$395000,1479,$267,60,43.91%,$1733,60.41%,N/A,N/A,11.32%,6.42%,71.69%,Prince George's County,88.10%,8.40%,1.98%,43.05%,4.52%,48.54%,50.3%,Eastern Standard Time,90,45,45,72,28,53%,53%,43,63,96,55%,61%,52%,48.88,15.0,9.66,38.41%,39.78%,36.22%,15.2,6,7.2,26.6,35,225,4.3,3.37,MD-16875,38.9666896,-76.9790142
Choptank,Maryland,114,475,None,N/A,N/A,7.02%,47,N/A,N/A,N/A,79,100.0%,N/A,58.77%,N/A,N/A,21.05%,0.0%,71.93%,Caroline County,28.40%,66.40%,0.0%,21.05%,78.95%,0.0%,0.0%,N/A,89,45,44,71,30,53%,53%,43,63,94,55%,61%,52%,49.28,14.56,10.2,34.0%,32.42%,37.22%,15.0,6,7.2,26.6,77,51,3.9,0.24,MD-17000,38.6822815,-75.9493985
Church Creek,Maryland,131,385,Cambridge,32486,$61250,25.86%,61,N/A,N/A,N/A,72,77.33%,$3501,32.52%,N/A,N/A,9.92%,0.0%,54.47%,Dorchester County,41.00%,55.30%,0.0%,0.0%,100.0%,0.0%,2.29%,N/A,89,45,44,71,30,53%,53%,43,63,94,55%,61%,52%,48.34,14.16,9.68,34.0%,32.42%,37.22%,15.0,6,7.2,26.6,78,9,4.2,0.34,MD-17050,38.5036121,-76.153009
Church Hill,Maryland,1052,1461,Baltimore-Columbia-Towson,2837237,$69688,24.5%,33,$390000,1653,$236,37,77.91%,$1179,50.13%,N/A,N/A,10.19%,0.4%,65.52%,Queen Anne's County,30.10%,64.10%,5.42%,12.83%,64.07%,15.4%,15.3%,Eastern Standard Time,88,43,45,72,29,53%,53%,43,63,92,55%,61%,52%,50.94,14.67,11.03,34.0%,32.42%,37.22%,15.0,6,7.2,26.6,77,18,4.1,0.72,MD-17100,39.1450006,-75.9807698
Clarksburg,Maryland,29246,3031,Washington-Arlington-Alexandria,6332069,$178641,68.23%,38,$668000,3009,$222,10,89.02%,$2298,35.8%,N/A,N/A,4.53%,4.24%,72.16%,Montgomery County,74.70%,19.40%,40.77%,15.79%,26.31%,11.73%,38.45%,Eastern Standard Time,85,40,45,66,25,53%,53%,43,63,87,55%,61%,52%,49.14,15.07,10.16,37.4%,38.24%,37.22%,32.6,13,7.2,26.6,47,624,4.1,9.65,MD-17350,39.2245844,-77.2658511
Clear Spring,Maryland,394,3283,Hagerstown-Martinsburg,291560,$59250,15.26%,33,N/A,N/A,N/A,82,53.91%,$1182,66.56%,N/A,N/A,7.31%,1.54%,69.64%,Washington County,32.00%,62.10%,9.9%,0.0%,77.66%,0.0%,6.09%,Eastern Standard Time,88,41,47,68,25,53%,53%,41,62,92,55%,61%,52%,43.89,12.46,9.15,37.42%,39.01%,35.67%,25.4,9,7.2,30.2,74,447,3.9,0.12,MD-17600,39.6561856,-77.9304089
Clinton,Maryland,38756,1549,Washington-Arlington-Alexandria,6332069,$120967,33.06%,46,$408000,1925,$212,33,89.38%,$1665,55.12%,N/A,N/A,8.39%,5.24%,66.13%,Prince George's County,88.10%,8.40%,2.23%,76.83%,7.03%,9.76%,13.28%,Eastern Standard Time,89,44,45,70,28,53%,53%,43,63,94,55%,61%,52%,48.42,14.72,9.71,35.04%,35.27%,36.78%,13.5,7,7.2,26.6,53,234,4.3,25.02,MD-17900,38.749911,-76.9063175
Cloverly,Maryland,16726,1661,Washington-Arlington-Alexandria,6332069,$146316,60.55%,43,$675000,2987,$226,37,88.05%,$2031,36.39%,N/A,N/A,4.4%,9.42%,65.6%,Montgomery County,74.70%,19.40%,18.59%,28.74%,28.29%,17.52%,34.55%,Eastern Standard Time,88,43,45,68,26,53%,53%,43,63,92,55%,61%,52%,46.13,13.67,9.45,37.34%,36.59%,38.33%,15.2,6,7.2,26.6,52,375,4.1,10.07,MD-18150,39.1063948,-76.9995387
Cobb Island,Maryland,1162,1844,Washington-Arlington-Alexandria,6332069,$161141,7.37%,46,N/A,N/A,N/A,82,71.76%,N/A,22.69%,N/A,N/A,1.81%,4.62%,78.04%,Charles County,63.00%,32.70%,1.72%,0.0%,96.04%,0.0%,1.72%,Eastern Standard Time,86,44,42,67,25,53%,55%,46,66,89,62%,67%,56%,48.08,14.46,9.23,35.73%,36.92%,37.11%,13.4,5,7.7,34.6,72,33,4.2,0.63,MD-18200,38.2646514,-76.8494735
Cockeysville,Maryland,23265,1944,Baltimore-Columbia-Towson,2837237,$85422,49.04%,35,$405000,1800,$225,42,39.54%,$1553,55.35%,N/A,N/A,14.38%,5.27%,72.59%,Baltimore County,55.90%,38.30%,7.75%,19.51%,51.0%,16.45%,18.22%,Eastern Standard Time,87,43,44,70,26,53%,53%,43,63,90,55%,61%,52%,53.26,16.36,11.46,37.7%,38.24%,36.89%,29.4,11,7.2,26.6,58,420,4.1,11.97,MD-18250,39.480343,-76.629385
Colesville,Maryland,14075,2749,Washington-Arlington-Alexandria,6332069,$131022,56.25%,48,$580000,1946,$298,52,86.17%,$1906,45.98%,N/A,N/A,5.26%,2.82%,59.59%,Montgomery County,74.70%,19.40%,11.13%,34.05%,30.84%,17.0%,31.25%,Eastern Standard Time,88,43,45,68,26,53%,53%,43,63,92,55%,61%,52%,46.13,13.67,9.45,37.34%,36.59%,38.33%,15.2,6,7.2,26.6,46,375,4.1,5.12,MD-18475,39.0729499,-77.0009532
College Park,Maryland,34397,6131,Washington-Arlington-Alexandria,6332069,$74867,49.41%,22,$425000,1995,$213,41,45.91%,$1846,81.78%,N/A,N/A,29.32%,7.67%,55.95%,Prince George's County,88.10%,8.40%,15.38%,24.2%,38.68%,17.33%,23.87%,Eastern Standard Time,88,43,45,68,26,53%,53%,43,63,92,55%,61%,52%,44.55,13.32,8.56,32.99%,34.18%,33.0%,15.2,6,7.2,26.6,40,132,4.3,5.61,MD-18750,38.9960232,-76.9337032
Colmar Manor,Maryland,1579,3672,Washington-Arlington-Alexandria,6332069,$104074,21.7%,34,$280000,1102,$254,82,87.67%,$1454,57.0%,408,2861,4.18%,4.1%,75.82%,Prince George's County,88.10%,8.40%,5.26%,24.38%,5.38%,63.71%,41.17%,Eastern Standard Time,90,45,45,72,28,53%,53%,43,63,96,55%,61%,52%,47.62,14.03,9.43,38.41%,39.78%,36.22%,15.2,6,7.2,26.6,40,45,4.3,0.43,MD-18850,38.9330336,-76.948693
Columbia,Maryland,105871,3316,Baltimore-Columbia-Towson,2837237,$129173,63.49%,39,$433000,1850,$234,37,68.69%,$1998,50.27%,N/A,N/A,7.44%,4.48%,70.2%,Howard County,63.30%,29.30%,11.84%,29.02%,43.76%,9.45%,20.78%,Eastern Standard Time,89,44,45,69,26,53%,53%,43,63,94,55%,61%,52%,50.93,14.44,10.65,38.36%,39.34%,38.22%,28.5,11,7.2,26.6,48,372,3.9,31.93,MD-19125,39.2004524,-76.8589931
Coral Hills,Maryland,9372,5750,Washington-Arlington-Alexandria,6332069,$83899,17.12%,40,$293000,961,$305,55,71.06%,$1770,64.7%,N/A,N/A,12.95%,8.57%,71.89%,Prince George's County,88.10%,8.40%,0.73%,85.68%,3.93%,7.89%,9.83%,Eastern Standard Time,90,45,45,72,28,53%,53%,43,63,96,55%,61%,52%,48.42,14.72,9.71,32.44%,32.75%,33.0%,13.5,7,7.2,26.6,40,234,4.3,1.63,MD-19825,38.8706542,-76.921658
Cordova,Maryland,427,88,Easton,37510,$94226,20.4%,50,N/A,N/A,N/A,67,85.12%,N/A,44.96%,N/A,N/A,0.0%,0.0%,38.17%,Talbot County,42.10%,52.20%,0.0%,3.28%,88.29%,0.47%,1.17%,N/A,89,45,44,71,30,53%,53%,43,63,94,55%,61%,52%,49.22,14.07,10.42,34.0%,32.42%,37.22%,15.0,6,7.2,26.6,79,36,3.9,4.87,MD-19900,38.8680135,-75.9988843
Corriganville,Maryland,754,2094,Cumberland,95729,N/A,14.35%,34,N/A,N/A,N/A,45,64.94%,$1046,51.28%,N/A,N/A,30.64%,0.0%,49.08%,Allegany County,25.70%,69.40%,0.0%,0.0%,87.8%,0.0%,0.0%,Eastern Standard Time,88,39,49,65,23,58%,59%,40,59,95,42%,52%,29%,39.42,11.34,8.32,38.03%,39.34%,38.89%,30.8,16,4.9,34.4,83,669,3.5,0.36,MD-19975,39.6946461,-78.7972596
Cottage City,Maryland,1162,4304,Washington-Arlington-Alexandria,6332069,$78456,21.93%,48,$306000,1089,$281,69,68.87%,$1141,57.29%,146,1907,10.83%,5.89%,65.99%,Prince George's County,88.10%,8.40%,5.42%,25.99%,12.22%,51.46%,49.91%,Eastern Standard Time,90,45,45,72,28,53%,53%,43,63,96,55%,61%,52%,47.62,14.03,9.43,38.41%,39.78%,36.22%,15.2,6,7.2,26.6,40,45,4.3,0.27,MD-20050,38.9384701,-76.9492024
Crellin,Maryland,196,280,None,N/A,N/A,6.4%,46,N/A,N/A,N/A,30,77.19%,N/A,32.56%,N/A,N/A,21.94%,0.0%,76.16%,Garrett County,18.30%,76.90%,0.0%,0.0%,100.0%,0.0%,0.0%,N/A,81,37,44,61,18,58%,59%,40,59,83,42%,52%,29%,53.09,14.6,12.97,49.04%,46.59%,55.67%,128.1,48,4.9,34.4,89,2214,3.5,0.7,MD-20500,39.3886312,-79.4684712
Cresaptown,Maryland,5238,1969,Cumberland,95729,$53804,4.65%,40,N/A,N/A,N/A,55,67.05%,$838,75.33%,N/A,N/A,10.24%,0.0%,16.88%,Allegany County,25.70%,69.40%,0.27%,40.93%,53.74%,3.34%,3.99%,Eastern Standard Time,88,39,49,65,23,58%,59%,40,59,95,42%,52%,29%,42.33,11.88,8.86,41.86%,42.53%,41.44%,30.8,16,4.9,34.4,81,690,3.5,2.66,MD-20525,39.5944422,-78.8354221
Crisfield,Maryland,2468,1418,Salisbury,414424,$49602,21.47%,36,N/A,N/A,N/A,40,44.55%,$725,63.09%,117,430,20.3%,11.03%,59.63%,Somerset County,42.40%,53.90%,1.42%,31.2%,56.28%,4.46%,2.43%,Eastern Standard Time,87,47,40,71,30,57%,59%,48,66,93,61%,65%,57%,48.43,13.85,9.99,32.66%,32.42%,35.44%,8.1,3,7.7,34.9,81,6,4.5,1.74,MD-20775,37.9785758,-75.8561035
Crofton,Maryland,29878,4520,Baltimore-Columbia-Towson,2837237,$147250,60.77%,37,$431000,1819,$237,32,80.1%,$2193,41.79%,N/A,N/A,2.61%,3.8%,75.94%,Anne Arundel County,47.50%,45.30%,8.4%,17.73%,59.16%,9.61%,12.88%,Eastern Standard Time,89,44,45,69,26,53%,53%,43,63,94,55%,61%,52%,50.17,15.77,9.95,33.23%,35.27%,32.78%,19.1,6,7.2,26.6,48,201,4,6.61,MD-20875,39.0144404,-76.6800048
Croom,Maryland,2519,74,Washington-Arlington-Alexandria,6332069,$176758,38.47%,51,$849000,4121,$206,34,86.37%,$1367,40.49%,N/A,N/A,5.12%,7.05%,65.32%,Prince George's County,88.10%,8.40%,0.4%,43.27%,47.68%,4.64%,4.88%,Eastern Standard Time,89,44,45,70,28,53%,53%,43,63,94,55%,61%,52%,49.01,14.77,9.61,35.04%,35.27%,36.78%,13.5,7,7.2,26.6,64,135,4.3,34.19,MD-20925,38.7457942,-76.7554538
Crownsville,Maryland,1701,334,Baltimore-Columbia-Towson,2837237,$146486,53.82%,55,$1369000,7606,$180,34,100.0%,N/A,26.71%,N/A,N/A,8.53%,1.66%,48.01%,Anne Arundel County,47.50%,45.30%,0.0%,0.71%,91.06%,5.88%,1.7%,Eastern Standard Time,87,44,43,73,30,53%,53%,43,63,90,55%,61%,52%,50.97,14.88,10.5,33.23%,35.27%,32.78%,19.1,6,7.2,26.6,59,39,4,5.09,MD-21075,39.0224631,-76.5903762
Cumberland,Maryland,18938,1883,Cumberland,95729,$47819,22.06%,42,$100000,1299,$77,77,57.92%,$728,61.66%,781,4497,23.49%,7.68%,50.06%,Allegany County,25.70%,69.40%,0.52%,4.64%,86.75%,2.13%,1.94%,Eastern Standard Time,88,39,49,65,23,58%,59%,40,59,95,42%,52%,29%,39.42,11.34,8.32,38.03%,39.34%,38.89%,30.8,16,4.9,34.4,66,669,3.5,10.06,MD-21325,39.6516076,-78.7582167
Damascus,Maryland,16864,1184,Washington-Arlington-Alexandria,6332069,$153994,50.42%,41,$614000,2804,$219,37,92.77%,$1665,42.31%,N/A,N/A,2.58%,2.96%,74.91%,Montgomery County,74.70%,19.40%,4.93%,10.96%,61.04%,16.01%,15.6%,Eastern Standard Time,85,40,45,66,25,53%,53%,43,63,87,55%,61%,52%,48.65,14.35,10.24,34.08%,35.05%,34.78%,31.2,12,7.2,26.6,58,639,4.1,14.24,MD-21475,39.2701533,-77.1957322
Dames Quarter,Maryland,207,17,Salisbury,414424,$69342,11.24%,42,N/A,N/A,N/A,39,100.0%,N/A,33.82%,N/A,N/A,7.73%,0.0%,66.18%,Somerset County,42.40%,53.90%,0.0%,0.0%,100.0%,0.0%,2.42%,Eastern Standard Time,89,48,41,70,29,53%,53%,43,63,94,55%,61%,52%,48.43,13.85,9.99,33.56%,33.74%,35.22%,8.1,3,7.2,26.6,81,6,4.5,11.88,MD-21550,38.1677446,-75.8901393
Danville,Maryland,282,247,Cumberland,95729,N/A,5.32%,50,$56000,1750,$32,82,72.05%,N/A,38.65%,N/A,N/A,50.35%,0.0%,32.62%,Allegany County,25.70%,69.40%,0.0%,0.0%,100.0%,0.0%,0.0%,Eastern Standard Time,89,39,50,61,20,58%,59%,40,59,97,42%,52%,29%,42.33,11.88,8.86,41.86%,42.53%,41.44%,30.8,16,4.9,34.4,84,690,3.5,1.14,MD-21675,39.5124398,-78.9184488
Dargan,Maryland,135,450,Hagerstown-Martinsburg,291560,N/A,31.33%,32,N/A,N/A,N/A,19,100.0%,N/A,68.67%,N/A,N/A,0.0%,0.0%,60.24%,Washington County,32.00%,62.10%,0.0%,0.0%,100.0%,0.0%,0.0%,Eastern Standard Time,87,42,45,63,22,53%,53%,43,63,90,55%,61%,52%,44.86,12.33,9.28,33.84%,35.6%,31.67%,32.6,13,7.2,26.6,72,366,3.9,0.3,MD-21750,39.3766761,-77.7340452
Darlington,Maryland,349,332,Baltimore-Columbia-Towson,2837237,$81250,36.98%,48,$445000,2014,$221,82,93.49%,N/A,42.0%,N/A,N/A,9.34%,1.2%,55.33%,Harford County,35.20%,58.20%,0.0%,0.0%,92.55%,0.57%,4.58%,Eastern Standard Time,88,41,47,69,26,53%,53%,43,63,92,55%,61%,52%,50.14,15.11,10.33,36.58%,38.24%,35.89%,29.4,11,7.2,26.6,71,36,3.9,1.05,MD-21800,39.6424487,-76.2035215
Darnestown,Maryland,6835,417,Washington-Arlington-Alexandria,6332069,$217679,71.46%,47,$900000,3249,$277,35,93.83%,$3501,28.86%,N/A,N/A,0.93%,3.46%,69.7%,Montgomery County,74.70%,19.40%,17.35%,3.42%,69.04%,7.71%,24.21%,Eastern Standard Time,85,40,45,66,25,53%,53%,43,63,87,55%,61%,52%,47.75,13.26,9.88,33.86%,35.6%,35.0%,32.6,13,7.2,26.6,58,348,4.1,16.38,MD-21825,39.0968256,-77.303356
Dawson,Maryland,42,69,Cumberland,95729,N/A,0.0%,62,$225000,1364,$165,29,100.0%,N/A,19.05%,N/A,N/A,0.0%,0.0%,47.62%,Allegany County,25.70%,69.40%,0.0%,0.0%,100.0%,0.0%,0.0%,Eastern Standard Time,89,39,50,61,20,58%,59%,40,59,97,42%,52%,29%,41.52,11.46,8.41,41.84%,41.65%,44.11%,30.7,20,4.9,34.4,84,882,3.5,0.61,MD-21925,39.477065,-78.9456306
Deal Island,Maryland,311,103,Salisbury,414424,$28125,9.41%,63,N/A,N/A,N/A,65,93.04%,N/A,51.08%,N/A,N/A,30.0%,0.0%,26.98%,Somerset County,42.40%,53.90%,0.0%,1.61%,97.75%,0.0%,0.0%,Eastern Standard Time,89,48,41,70,29,57%,59%,48,66,97,61%,65%,57%,48.43,13.85,9.99,34.36%,34.07%,37.22%,8.1,3,7.2,34.9,81,6,4.5,3.03,MD-22100,38.1435886,-75.9417814
Deale,Maryland,5182,976,Baltimore-Columbia-Towson,2837237,$123176,43.41%,45,$390000,1472,$265,43,92.41%,N/A,45.5%,N/A,N/A,3.86%,4.48%,67.44%,Anne Arundel County,47.50%,45.30%,0.95%,3.4%,84.7%,4.23%,2.86%,Eastern Standard Time,87,44,43,73,30,53%,53%,43,63,90,55%,61%,52%,47.53,13.93,9.53,34.0%,32.42%,37.22%,15.0,6,7.2,26.6,68,138,4,5.31,MD-22050,38.790969,-76.5470443
Deer Park,Maryland,302,302,None,N/A,$50481,11.48%,52,N/A,N/A,N/A,49,65.66%,$850,43.38%,N/A,N/A,18.54%,7.98%,60.15%,Garrett County,18.30%,76.90%,0.0%,0.0%,97.02%,0.66%,3.97%,N/A,81,37,44,61,18,58%,59%,40,59,83,42%,52%,29%,53.09,14.6,12.97,49.04%,46.59%,55.67%,128.1,48,4.9,34.4,89,2214,3.5,1.0,MD-22275,39.4239612,-79.3259857
Delmar,Maryland,4058,2401,Salisbury,414424,$77402,29.29%,38,N/A,N/A,N/A,17,51.19%,$1351,57.17%,369,1785,9.17%,5.45%,73.15%,Wicomico County,42.40%,52.20%,5.57%,23.88%,56.92%,9.02%,7.93%,Eastern Standard Time,89,48,41,70,29,53%,53%,43,63,94,55%,61%,52%,48.73,14.5,10.04,33.56%,33.74%,35.22%,8.1,3,7.2,26.6,78,45,3.8,1.69,MD-22600,38.4317205,-75.559887
Denton,Maryland,4879,926,None,N/A,$63769,14.82%,38,N/A,N/A,N/A,44,62.78%,$995,62.06%,244,3463,10.7%,8.23%,57.98%,Caroline County,28.40%,66.40%,0.53%,26.77%,65.81%,2.95%,2.44%,N/A,89,45,44,71,30,53%,53%,43,63,94,55%,61%,52%,49.22,14.07,10.42,34.0%,32.42%,37.22%,15.0,6,7.2,26.6,72,36,3.9,5.27,MD-22725,38.8768798,-75.826559
Derwood,Maryland,1830,2905,Washington-Arlington-Alexandria,6332069,$93000,60.45%,39,$577000,2272,$254,35,60.71%,$2200,45.5%,N/A,N/A,7.27%,5.95%,65.5%,Montgomery County,74.70%,19.40%,9.51%,9.84%,48.36%,14.1%,22.46%,Eastern Standard Time,85,40,45,66,25,53%,53%,43,63,87,55%,61%,52%,47.14,13.93,9.58,37.34%,36.59%,38.33%,32.6,13,7.2,26.6,43,411,4.1,0.63,MD-22775,39.1135875,-77.1509604
Detmold,Maryland,115,719,Cumberland,95729,$50951,0.0%,66,N/A,N/A,N/A,64,42.19%,N/A,100.0%,N/A,N/A,41.74%,0.0%,0.0%,Allegany County,25.70%,69.40%,0.0%,0.0%,100.0%,0.0%,0.0%,Eastern Standard Time,80,34,46,60,19,58%,59%,40,59,82,42%,52%,29%,42.33,11.88,8.86,41.86%,42.53%,41.44%,30.8,16,4.9,34.4,87,690,3.5,0.16,MD-22825,39.5573652,-78.9911427
District Heights,Maryland,5888,6768,Washington-Arlington-Alexandria,6332069,$81750,30.35%,37,$318000,1500,$212,52,66.11%,$1377,65.23%,332,914,15.11%,8.6%,62.71%,Prince George's County,88.10%,8.40%,0.07%,87.94%,3.45%,5.71%,13.43%,Eastern Standard Time,90,45,45,72,28,53%,53%,43,63,96,55%,61%,52%,48.42,14.72,9.71,35.04%,35.27%,36.78%,13.5,7,7.2,26.6,43,234,4.3,0.87,MD-23025,38.8588657,-76.8884436
Downsville,Maryland,822,1305,Hagerstown-Martinsburg,291560,$212605,13.6%,40,N/A,N/A,N/A,28,91.19%,N/A,78.83%,N/A,N/A,1.95%,0.0%,77.62%,Washington County,32.00%,62.10%,0.0%,0.0%,100.0%,0.0%,0.0%,Eastern Standard Time,87,40,47,67,23,53%,53%,43,63,90,55%,61%,52%,42.36,11.72,8.78,37.42%,39.01%,35.67%,35.0,10,7.2,26.6,66,330,3.9,0.63,MD-23500,39.5548206,-77.8016298
Drum Point,Maryland,3219,1928,Washington-Arlington-Alexandria,6332069,$133059,35.93%,38,$340000,1675,$203,30,92.97%,$1714,38.93%,N/A,N/A,11.59%,6.58%,62.61%,Calvert County,38.40%,55.20%,1.15%,5.47%,73.0%,16.93%,3.04%,Eastern Standard Time,89,46,43,73,30,53%,53%,43,63,94,55%,61%,52%,45.03,13.43,8.76,33.23%,34.51%,32.33%,15.0,6,7.2,26.6,69,12,3.9,1.67,MD-23700,38.3325095,-76.4294286
Dundalk,Maryland,65441,4999,Baltimore-Columbia-Towson,2837237,$62349,14.71%,37,$210000,1243,$169,65,59.47%,$1412,58.91%,N/A,N/A,19.32%,7.21%,61.09%,Baltimore County,55.90%,38.30%,2.26%,17.84%,60.98%,13.65%,9.14%,Eastern Standard Time,91,44,47,74,31,53%,53%,43,63,98,55%,61%,52%,45.67,13.9,9.36,32.52%,32.75%,34.11%,19.1,6,7.2,26.6,51,18,4.1,13.09,MD-23975,39.266661,-76.4964775
Dunkirk,Maryland,2319,352,Washington-Arlington-Alexandria,6332069,$166471,51.34%,42,$630000,3119,$202,35,94.76%,N/A,29.45%,N/A,N/A,0.56%,0.61%,71.41%,Calvert County,38.40%,55.20%,1.47%,4.92%,79.47%,11.47%,8.32%,Eastern Standard Time,86,44,42,67,25,53%,53%,43,63,88,55%,61%,52%,49.6,15.52,9.89,32.36%,33.63%,33.33%,13.5,7,7.2,26.6,66,102,3.9,6.59,MD-24050,38.7155961,-76.6729647
Eagle Harbor,Maryland,76,633,Washington-Arlington-Alexandria,6332069,$79323,25.0%,62,N/A,N/A,N/A,72,88.1%,N/A,59.38%,N/A,N/A,1.32%,0.0%,79.69%,Prince George's County,88.10%,8.40%,0.0%,55.26%,26.32%,0.0%,0.0%,Eastern Standard Time,86,44,42,67,25,53%,53%,43,63,88,55%,61%,52%,50.57,14.83,10.23,32.36%,33.63%,33.33%,13.5,7,7.2,26.6,68,93,4.3,0.12,MD-24200,38.5664484,-76.6870972
East New Market,Maryland,324,810,Cambridge,32486,$40417,9.09%,45,N/A,N/A,N/A,59,74.61%,$1125,54.14%,N/A,N/A,22.22%,0.0%,52.11%,Dorchester County,41.00%,55.30%,0.0%,20.06%,77.16%,0.93%,0.0%,N/A,89,45,44,71,30,53%,53%,43,63,94,55%,61%,52%,48.34,14.16,9.68,34.0%,32.42%,37.22%,15.0,6,7.2,26.6,77,9,4.2,0.4,MD-24450,38.5970249,-75.9231264
East Riverdale,Maryland,19043,11755,Washington-Arlington-Alexandria,6332069,$82401,15.37%,30,$340000,1511,$225,60,43.09%,$1649,60.47%,N/A,N/A,22.85%,8.05%,70.56%,Prince George's County,88.10%,8.40%,3.38%,18.53%,5.72%,70.45%,54.19%,Eastern Standard Time,90,45,45,72,28,53%,53%,43,63,96,55%,61%,52%,47.62,14.03,9.43,32.99%,34.18%,33.0%,15.2,6,7.2,26.6,35,45,4.3,1.62,MD-24650,38.9597729,-76.9110058
Easton,Maryland,17202,1501,Easton,37510,$73460,39.39%,46,$403000,1956,$206,34,60.13%,$1177,53.82%,296,2009,12.95%,2.66%,59.32%,Talbot County,42.10%,52.20%,1.94%,14.38%,67.49%,12.16%,10.7%,N/A,89,45,44,71,30,53%,53%,43,63,94,55%,61%,52%,49.28,14.56,10.2,34.0%,32.42%,37.22%,15.0,6,7.2,26.6,63,51,3.9,11.46,MD-24475,38.7760535,-76.070164
Eckhart Mines,Maryland,521,343,Cumberland,95729,$51458,11.44%,41,$124000,939,$132,60,100.0%,$872,41.05%,N/A,N/A,6.14%,6.28%,53.22%,Allegany County,25.70%,69.40%,0.0%,0.0%,96.74%,0.0%,0.0%,Eastern Standard Time,80,34,46,60,19,58%,59%,40,59,82,42%,52%,29%,46.71,12.52,9.93,42.68%,42.42%,44.22%,30.8,16,4.9,34.4,84,1983,3.5,1.52,MD-24825,39.6552334,-78.8941093
Eden,Maryland,790,141,Salisbury,414424,$30609,8.67%,36,N/A,N/A,N/A,28,59.46%,N/A,53.33%,N/A,N/A,25.7%,22.08%,57.04%,Somerset County,42.40%,53.90%,0.0%,33.16%,58.99%,3.16%,1.9%,Eastern Standard Time,88,46,42,69,28,53%,53%,43,63,92,55%,61%,52%,48.36,14.36,10.03,33.56%,33.74%,35.22%,8.1,3,7.2,26.6,78,15,4.5,5.59,MD-24850,38.2792312,-75.6532744
Edesville,Maryland,39,139,None,N/A,N/A,0.0%,65,N/A,N/A,N/A,82,44.79%,N/A,100.0%,N/A,N/A,25.64%,28.57%,53.85%,Kent County,45.70%,48.70%,0.0%,100.0%,0.0%,0.0%,0.0%,N/A,88,43,45,72,29,53%,53%,43,63,92,55%,61%,52%,48.86,14.75,9.79,32.52%,32.75%,34.11%,19.1,6,7.2,26.6,72,9,3.8,0.28,MD-24925,39.1541898,-76.2078744
Edgemere,Maryland,8778,808,Baltimore-Columbia-Towson,2837237,$109734,25.76%,45,$300000,1402,$214,57,83.43%,$1336,48.52%,N/A,N/A,5.59%,3.77%,58.55%,Baltimore County,55.90%,38.30%,3.38%,2.95%,89.28%,1.12%,3.65%,Eastern Standard Time,91,44,47,74,31,53%,53%,43,63,98,55%,61%,52%,45.67,13.9,9.36,32.52%,32.75%,34.11%,19.1,6,7.2,26.6,57,18,4.1,10.87,MD-24950,39.2212966,-76.4595667
Edgemont,Maryland,156,294,Hagerstown-Martinsburg,291560,$62434,13.46%,67,N/A,N/A,N/A,70,95.67%,N/A,42.95%,N/A,N/A,7.69%,11.21%,68.59%,Washington County,32.00%,62.10%,0.0%,0.0%,100.0%,0.0%,0.0%,Eastern Standard Time,85,39,46,63,22,53%,53%,41,62,87,55%,61%,52%,49.97,14.52,10.36,34.08%,36.15%,31.78%,35.0,10,7.2,30.2,76,612,3.9,0.53,MD-25000,39.6766114,-77.5469474
Edgewater,Maryland,8297,2775,Baltimore-Columbia-Towson,2837237,$111000,39.4%,41,$398000,1268,$314,42,78.48%,$2230,47.47%,N/A,N/A,3.51%,3.43%,68.07%,Anne Arundel County,47.50%,45.30%,1.51%,5.95%,81.55%,8.57%,9.21%,Eastern Standard Time,87,44,43,73,30,53%,53%,43,63,90,55%,61%,52%,47.53,13.93,9.53,33.23%,35.27%,32.78%,19.1,6,7.2,26.6,61,138,4,2.99,MD-25050,38.9372511,-76.557251
Edgewood,Maryland,25170,1472,Baltimore-Columbia-Towson,2837237,$86355,22.88%,36,$223000,1538,$145,38,66.12%,$1435,58.68%,N/A,N/A,10.55%,8.16%,72.42%,Harford County,35.20%,58.20%,1.52%,44.91%,36.32%,9.88%,7.71%,Eastern Standard Time,87,42,45,68,25,53%,53%,43,63,90,55%,61%,52%,52.29,15.31,10.67,37.7%,38.24%,36.89%,29.4,11,7.2,26.6,64,186,3.9,17.1,MD-25150,39.4194637,-76.2971141
Edmonston,Maryland,1332,3249,Washington-Arlington-Alexandria,6332069,$82431,16.84%,30,N/A,N/A,N/A,61,65.55%,$1796,60.46%,66,1934,7.51%,11.95%,72.68%,Prince George's County,88.10%,8.40%,0.98%,29.2%,8.93%,56.83%,39.86%,Eastern Standard Time,90,45,45,72,28,53%,53%,43,63,96,55%,61%,52%,47.62,14.03,9.43,38.41%,39.78%,36.22%,15.2,6,7.2,26.6,35,45,4.3,0.41,MD-25425,38.9501463,-76.9332149
Eldersburg,Maryland,30626,769,Baltimore-Columbia-Towson,2837237,$146598,53.55%,40,$418000,1935,$216,32,91.18%,$1655,36.97%,N/A,N/A,4.21%,3.01%,68.95%,Carroll County,28.90%,63.40%,3.91%,5.17%,82.01%,4.79%,5.9%,Eastern Standard Time,87,43,44,70,26,53%,53%,43,63,90,55%,61%,52%,47.85,14.19,9.03,38.36%,39.34%,38.22%,28.5,11,7.2,26.6,65,552,3.8,39.83,MD-25575,39.4040598,-76.9528704
Eldorado,Maryland,39,557,Cambridge,32486,$49375,6.67%,45,N/A,N/A,N/A,82,90.79%,N/A,76.47%,N/A,N/A,5.13%,9.09%,64.71%,Dorchester County,41.00%,55.30%,0.0%,0.0%,89.74%,0.0%,7.69%,N/A,89,48,41,70,29,53%,53%,43,63,94,55%,61%,52%,49.27,15.29,9.88,33.56%,33.74%,35.22%,15.0,6,7.2,26.6,78,24,4.2,0.07,MD-25600,38.5841552,-75.7894514
Elkridge,Maryland,26183,3132,Baltimore-Columbia-Towson,2837237,$135412,56.65%,34,$490000,2121,$231,15,68.69%,$2206,47.22%,N/A,N/A,7.75%,5.16%,76.39%,Howard County,63.30%,29.30%,21.24%,33.3%,34.38%,6.3%,24.27%,Eastern Standard Time,89,44,45,69,26,53%,53%,43,63,94,55%,61%,52%,51.3,14.55,10.8,34.68%,35.49%,37.33%,19.1,6,7.2,26.6,34,312,3.9,8.36,MD-25750,39.1940789,-76.7427478
Elkton,Maryland,15867,1785,Philadelphia-Camden-Wilmington,6215222,$56565,18.75%,37,$240000,1188,$202,33,50.5%,$1368,56.43%,964,6633,19.0%,6.56%,54.67%,Cecil County,30.20%,63.80%,2.6%,16.08%,62.86%,8.14%,5.45%,Eastern Standard Time,88,42,46,69,26,55%,55%,43,63,93,55%,62%,50%,50.69,15.97,11.23,35.75%,35.16%,38.11%,22.0,9,7.2,29.3,57,102,4,8.89,MD-25800,39.6066286,-75.82098
Ellerslie,Maryland,516,561,Cumberland,95729,$34167,3.08%,52,N/A,N/A,N/A,58,94.28%,N/A,67.09%,N/A,N/A,17.25%,9.02%,54.14%,Allegany County,25.70%,69.40%,0.0%,0.0%,92.25%,0.97%,0.0%,Eastern Standard Time,88,39,49,65,23,58%,59%,40,59,95,42%,52%,29%,39.42,11.34,8.32,38.03%,39.34%,38.89%,55.0,32,4.9,34.4,83,669,3.5,0.92,MD-25925,39.7169096,-78.7747512
Ellicott City,Maryland,73737,2457,Baltimore-Columbia-Towson,2837237,$157891,69.6%,43,$588000,2410,$244,29,77.36%,$2001,35.41%,N/A,N/A,3.59%,2.93%,66.06%,Howard County,63.30%,29.30%,30.13%,7.98%,51.36%,4.96%,26.76%,Eastern Standard Time,87,43,44,70,26,53%,53%,43,63,90,55%,61%,52%,50.93,14.44,10.65,38.36%,39.34%,38.22%,28.5,11,7.2,26.6,54,372,3.9,30.01,MD-26000,39.2773538,-76.8344991
Elliott,Maryland,18,51,Cambridge,32486,N/A,0.0%,78,$155000,1384,$112,82,100.0%,N/A,0.0%,N/A,N/A,0.0%,0.0%,22.22%,Dorchester County,41.00%,55.30%,0.0%,0.0%,100.0%,0.0%,16.67%,N/A,88,46,42,72,30,53%,53%,43,63,92,55%,61%,52%,48.43,13.85,9.99,33.23%,34.51%,32.33%,15.0,6,7.2,26.6,76,6,4.2,0.35,MD-26025,38.309546,-76.0069266
Emmitsburg,Maryland,2855,1903,Washington-Arlington-Alexandria,6332069,$78986,23.21%,40,$475000,2149,$221,29,76.11%,$777,50.79%,N/A,N/A,11.57%,0.7%,61.88%,Frederick County,45.00%,47.40%,0.53%,5.88%,83.5%,7.46%,7.6%,Eastern Standard Time,86,41,45,64,23,53%,53%,41,62,88,55%,61%,52%,47.97,13.08,10.18,34.22%,36.81%,32.0%,35.0,10,7.2,30.2,71,369,4.2,1.5,MD-26200,39.7051358,-77.3217482
Essex,Maryland,40670,4392,Baltimore-Columbia-Towson,2837237,$67082,19.04%,41,$275000,1519,$181,56,60.2%,$1307,55.76%,N/A,N/A,12.68%,5.34%,67.05%,Baltimore County,55.90%,38.30%,1.25%,33.57%,52.98%,7.04%,8.35%,Eastern Standard Time,91,44,47,74,31,53%,53%,43,63,98,55%,61%,52%,50.35,13.98,10.31,32.52%,32.75%,34.11%,19.1,6,7.2,26.6,48,282,4.1,9.26,MD-26600,39.3019618,-76.443683
Fairland,Maryland,26183,5268,Washington-Arlington-Alexandria,6332069,$87924,45.3%,37,$444000,1755,$253,35,50.02%,$1851,55.42%,N/A,N/A,10.11%,6.6%,74.11%,Montgomery County,74.70%,19.40%,10.08%,60.57%,11.49%,13.27%,38.32%,Eastern Standard Time,88,43,45,68,26,53%,53%,43,63,92,55%,61%,52%,46.13,13.67,9.45,32.99%,34.18%,33.0%,15.2,6,7.2,26.6,46,375,4.1,4.97,MD-27250,39.0803506,-76.9527608
Fairlee,Maryland,259,68,None,N/A,$114063,8.05%,40,N/A,N/A,N/A,36,42.58%,$1116,72.04%,N/A,N/A,29.73%,7.38%,80.11%,Kent County,45.70%,48.70%,0.0%,7.34%,83.01%,0.0%,0.0%,N/A,87,42,45,68,25,53%,53%,43,63,90,55%,61%,52%,49.41,15.65,10.11,32.52%,32.75%,34.11%,19.1,6,7.2,26.6,76,51,3.8,3.79,MD-27325,39.2268192,-76.1654466
Fairmount,Maryland,357,29,Salisbury,414424,$70708,36.59%,60,N/A,N/A,N/A,50,84.47%,N/A,53.94%,N/A,N/A,16.53%,7.65%,51.52%,Somerset County,42.40%,53.90%,22.13%,8.4%,62.18%,0.0%,0.0%,Eastern Standard Time,87,47,40,71,30,57%,59%,48,66,93,61%,65%,57%,48.43,13.85,9.99,32.66%,32.42%,35.44%,8.1,3,7.2,34.9,82,6,4.5,12.26,MD-27375,38.1002587,-75.8087177
Fairmount Heights,Maryland,1429,5293,Washington-Arlington-Alexandria,6332069,$92321,22.14%,39,$323000,1292,$250,53,82.28%,N/A,58.74%,652,2739,18.35%,3.18%,69.34%,Prince George's County,88.10%,8.40%,1.89%,63.54%,4.76%,27.43%,31.63%,Eastern Standard Time,90,45,45,72,28,53%,53%,43,63,96,55%,61%,52%,47.62,14.03,9.43,32.44%,32.75%,33.0%,13.5,7,7.2,26.6,43,45,4.3,0.27,MD-27400,38.9015908,-76.9153389
Fairplay,Maryland,473,394,Hagerstown-Martinsburg,291560,$115978,24.63%,41,$115000,1742,$66,38,100.0%,N/A,29.23%,N/A,N/A,0.0%,0.0%,76.15%,Washington County,32.00%,62.10%,0.0%,5.5%,82.45%,0.0%,5.5%,Eastern Standard Time,87,40,47,67,23,53%,53%,43,63,90,55%,61%,52%,42.36,11.72,8.78,37.42%,39.01%,35.67%,35.0,10,7.2,26.6,66,330,3.9,1.2,MD-27425,39.535671,-77.7463089
Fairwood,Maryland,8108,2378,Washington-Arlington-Alexandria,6332069,$191319,72.39%,41,$718000,3324,$216,12,89.79%,$3501,33.72%,N/A,N/A,3.28%,1.42%,79.93%,Prince George's County,88.10%,8.40%,7.2%,81.34%,5.3%,1.46%,21.99%,Eastern Standard Time,88,43,45,68,26,53%,53%,43,63,92,55%,61%,52%,50.17,15.77,9.95,32.99%,34.18%,33.0%,15.2,6,7.2,26.6,53,201,4.3,3.41,MD-27580,38.9564714,-76.7780362
Fallston,Maryland,9954,711,Baltimore-Columbia-Towson,2837237,$154400,49.8%,48,$643000,3215,$200,44,95.18%,$2159,38.2%,N/A,N/A,4.87%,0.53%,63.05%,Harford County,35.20%,58.20%,2.53%,2.26%,86.53%,6.59%,2.72%,Eastern Standard Time,87,42,45,68,25,53%,53%,43,63,90,55%,61%,52%,52.77,16.21,10.62,37.7%,38.24%,36.89%,29.4,11,7.2,26.6,70,372,3.9,14.0,MD-27700,39.5331552,-76.4452257
Federalsburg,Maryland,2818,1460,None,N/A,$35432,5.96%,37,N/A,N/A,N/A,45,41.51%,$987,58.34%,527,2526,32.66%,10.68%,56.93%,Caroline County,28.40%,66.40%,3.44%,43.93%,40.42%,4.12%,9.97%,N/A,89,48,41,70,29,53%,53%,43,63,94,55%,61%,52%,49.27,15.29,9.88,35.12%,37.69%,34.56%,15.0,6,7.2,26.6,77,24,3.9,1.93,MD-27900,38.6928503,-75.7727304
Ferndale,Maryland,17076,4312,Baltimore-Columbia-Towson,2837237,$92391,25.37%,35,$325000,1563,$208,49,59.42%,$1708,48.52%,N/A,N/A,4.62%,5.5%,73.01%,Anne Arundel County,47.50%,45.30%,1.48%,25.59%,55.9%,8.12%,9.52%,Eastern Standard Time,89,44,45,69,26,53%,53%,43,63,94,55%,61%,52%,47.29,14.01,9.81,33.64%,35.27%,33.78%,19.1,6,7.2,26.6,39,144,4,3.96,MD-28075,39.1869611,-76.6331063
Finzel,Maryland,871,221,None,N/A,$112868,11.06%,39,N/A,N/A,N/A,43,93.44%,N/A,39.33%,N/A,N/A,12.06%,0.0%,50.8%,Garrett County,18.30%,76.90%,0.0%,0.0%,100.0%,0.0%,0.0%,N/A,80,34,46,60,19,58%,59%,40,59,82,42%,52%,29%,46.71,12.52,9.93,42.68%,42.42%,44.22%,30.8,16,4.9,34.4,88,1983,3.5,3.94,MD-28275,39.7017235,-78.9519953
Fishing Creek,Maryland,179,169,Cambridge,32486,N/A,33.61%,51,N/A,N/A,N/A,70,77.23%,N/A,18.03%,N/A,N/A,0.0%,0.0%,50.0%,Dorchester County,41.00%,55.30%,0.0%,0.0%,100.0%,0.0%,0.0%,N/A,88,46,42,72,30,53%,53%,43,63,92,55%,61%,52%,45.03,13.43,8.76,33.23%,34.51%,32.33%,15.0,6,7.2,26.6,78,36,4.2,1.06,MD-28300,38.3357357,-76.2237809
Flintstone,Maryland,131,320,Cumberland,95729,N/A,0.0%,30,$195000,1127,$173,75,15.66%,N/A,0.0%,N/A,N/A,0.0%,0.0%,48.57%,Allegany County,25.70%,69.40%,0.0%,0.0%,100.0%,0.0%,0.0%,Eastern Standard Time,88,39,49,65,23,58%,59%,40,59,95,42%,52%,29%,42.24,12.3,8.48,38.03%,39.34%,38.89%,55.0,32,4.9,34.4,82,1095,3.5,0.41,MD-28425,39.7035308,-78.5757863
Forest Glen,Maryland,6650,6650,Washington-Arlington-Alexandria,6332069,$127196,66.9%,40,$640000,1707,$375,61,58.6%,$1553,50.78%,N/A,N/A,6.86%,6.19%,75.61%,Montgomery County,74.70%,19.40%,6.06%,11.73%,48.87%,25.41%,21.01%,Eastern Standard Time,88,43,45,68,26,53%,53%,43,63,92,55%,61%,52%,48.13,14.5,9.47,38.41%,39.78%,36.22%,15.2,6,7.2,26.6,29,264,4.1,1.0,MD-28640,39.0189922,-77.0446041
Forest Heights,Maryland,2619,1587,Washington-Arlington-Alexandria,6332069,$96434,21.12%,40,$400000,1818,$220,66,81.42%,$2154,56.68%,348,929,6.09%,13.08%,61.13%,Prince George's County,88.10%,8.40%,2.79%,48.57%,13.75%,32.0%,24.25%,Eastern Standard Time,89,44,45,70,28,53%,53%,43,63,94,55%,61%,52%,49.11,15.77,9.61,35.04%,35.27%,36.78%,13.5,7,7.2,26.6,44,174,4.3,1.65,MD-28725,38.8051128,-77.0054669
Forestville,Maryland,10839,2758,Washington-Arlington-Alexandria,6332069,$80028,22.14%,42,$310000,1240,$250,53,64.56%,$1694,70.9%,N/A,N/A,10.23%,6.39%,64.0%,Prince George's County,88.10%,8.40%,0.54%,87.11%,2.63%,4.88%,4.93%,Eastern Standard Time,90,45,45,72,28,53%,53%,43,63,96,55%,61%,52%,48.42,14.72,9.71,35.04%,35.27%,36.78%,13.5,7,7.2,26.6,45,234,4.3,3.93,MD-29000,38.8517398,-76.8707632
Fort Meade,Maryland,10477,1297,Baltimore-Columbia-Towson,2837237,$102886,47.14%,27,N/A,N/A,N/A,23,1.07%,$2380,33.41%,N/A,N/A,4.48%,2.56%,76.26%,Anne Arundel County,47.50%,45.30%,8.12%,26.52%,38.15%,16.41%,9.79%,Eastern Standard Time,89,44,45,69,26,53%,53%,43,63,94,55%,61%,52%,50.19,14.4,10.34,33.23%,35.27%,32.78%,19.1,6,7.2,26.6,55,204,4,8.08,MD-29400,39.106026,-76.7436423
Fort Ritchie,Maryland,48,49,Hagerstown-Martinsburg,291560,N/A,N/A,N/A,N/A,N/A,N/A,69,58.33%,N/A,0.0%,N/A,N/A,0.0%,0.0%,0.0%,Washington County,32.00%,62.10%,0.0%,0.0%,0.0%,0.0%,0.0%,Eastern Standard Time,85,39,46,63,22,53%,53%,41,62,87,55%,61%,52%,49.97,14.52,10.36,36.6%,37.91%,34.11%,35.0,10,7.2,30.2,77,612,3.9,0.97,MD-29450,39.7021528,-77.502215
Fort Washington,Maryland,25843,1874,Washington-Arlington-Alexandria,6332069,$145942,41.68%,45,$468000,2283,$205,40,86.69%,$2724,47.78%,N/A,N/A,5.38%,6.36%,67.95%,Prince George's County,88.10%,8.40%,6.81%,60.06%,10.32%,18.93%,21.58%,Eastern Standard Time,89,44,45,70,28,53%,53%,43,63,94,55%,61%,52%,49.11,15.77,9.61,35.04%,35.27%,36.78%,13.4,5,7.2,26.6,52,174,4.3,13.79,MD-29525,38.73395,-77.006952
Fountainhead-Orchard Hills,Maryland,6364,1440,Hagerstown-Martinsburg,291560,$97743,38.72%,44,$339000,1960,$173,42,90.91%,$1518,43.81%,N/A,N/A,9.98%,2.3%,63.56%,Washington County,32.00%,62.10%,6.62%,6.82%,68.78%,11.66%,13.32%,Eastern Standard Time,88,41,47,68,25,53%,53%,41,62,92,55%,61%,52%,35.87,10.21,7.3,34.08%,36.15%,31.78%,35.0,10,7.2,30.2,67,639,3.9,4.42,MD-29712,39.6878391,-77.7172982
Four Corners,Maryland,7785,5332,Washington-Arlington-Alexandria,6332069,$200110,69.04%,40,$664000,2037,$326,68,88.04%,$2785,35.82%,N/A,N/A,4.33%,3.04%,74.33%,Montgomery County,74.70%,19.40%,6.63%,10.16%,62.57%,15.23%,17.16%,Eastern Standard Time,88,43,45,68,26,53%,53%,43,63,92,55%,61%,52%,48.13,14.5,9.47,38.41%,39.78%,36.22%,15.2,6,7.2,26.6,33,264,4.1,1.46,MD-29790,39.0235502,-77.0102091
Franklin,Maryland,356,1271,Cumberland,95729,$14738,4.96%,55,N/A,N/A,N/A,82,11.43%,$245,85.12%,N/A,N/A,87.63%,0.0%,43.8%,Allegany County,25.70%,69.40%,0.0%,2.53%,97.47%,0.0%,0.0%,Eastern Standard Time,81,36,45,60,21,58%,59%,40,59,83,42%,52%,29%,44.21,12.89,9.26,41.84%,41.65%,44.11%,30.7,20,4.9,34.4,84,1368,3.5,0.28,MD-30100,39.4989269,-79.0515619
Frederick,Maryland,80617,3366,Washington-Arlington-Alexandria,6332069,$95150,41.82%,37,$416000,1900,$219,30,61.62%,$1688,53.59%,405,1867,9.39%,3.72%,70.87%,Frederick County,45.00%,47.40%,5.57%,17.18%,51.45%,20.54%,19.86%,Eastern Standard Time,85,40,45,66,25,53%,53%,43,63,87,55%,61%,52%,47.44,13.55,9.82,34.08%,35.05%,34.78%,31.2,12,7.2,26.6,50,321,4.2,23.95,MD-30325,39.433662,-77.4140106
Frenchtown-Rumbly,Maryland,8,2,Salisbury,414424,N/A,0.0%,N/A,N/A,N/A,N/A,N/A,100.0%,N/A,100.0%,N/A,N/A,100.0%,0.0%,0.0%,Somerset County,42.40%,53.90%,0.0%,0.0%,100.0%,0.0%,0.0%,Eastern Standard Time,87,47,40,71,30,57%,59%,48,66,93,61%,65%,57%,48.43,13.85,9.99,32.66%,32.42%,35.44%,8.1,3,7.2,34.9,82,6,4.5,3.76,MD-30567,38.0803968,-75.8551345
Friendly,Maryland,11673,2392,Washington-Arlington-Alexandria,6332069,$136485,27.64%,44,$440000,1803,$244,43,92.01%,$2345,55.67%,N/A,N/A,4.95%,6.06%,64.97%,Prince George's County,88.10%,8.40%,3.08%,55.53%,6.22%,28.65%,20.03%,Eastern Standard Time,89,44,45,70,28,53%,53%,43,63,94,55%,61%,52%,49.11,15.77,9.61,35.04%,35.27%,36.78%,13.5,7,7.2,26.6,52,174,4.3,4.88,MD-30575,38.7601064,-76.9642148
Friendship,Maryland,336,187,Baltimore-Columbia-Towson,2837237,N/A,33.72%,52,$385000,977,$394,38,82.51%,N/A,21.93%,N/A,N/A,2.98%,16.92%,48.33%,Anne Arundel County,47.50%,45.30%,0.0%,13.1%,86.9%,0.0%,0.0%,Eastern Standard Time,87,44,43,73,30,53%,53%,43,63,90,55%,61%,52%,49.6,15.52,9.89,32.36%,33.63%,33.33%,15.0,6,7.2,26.6,68,102,4,1.8,MD-30650,38.7358459,-76.5878195
Friendship Heights Village,Maryland,3991,66517,Washington-Arlington-Alexandria,6332069,$110199,75.67%,52,$515000,1291,$399,47,32.89%,$2342,63.76%,N/A,N/A,8.37%,1.22%,61.92%,Montgomery County,74.70%,19.40%,13.48%,5.46%,61.84%,14.56%,26.69%,Eastern Standard Time,89,44,45,69,26,53%,53%,43,63,94,55%,61%,52%,48.57,14.49,10.25,38.41%,39.78%,36.22%,13.5,7,7.2,26.6,15,138,4.1,0.06,MD-30800,38.963311,-77.0897918
Friendsville,Maryland,379,379,None,N/A,$44514,12.26%,50,N/A,N/A,N/A,67,60.0%,$625,53.06%,N/A,N/A,24.27%,9.19%,54.09%,Garrett County,18.30%,76.90%,0.26%,1.32%,94.46%,2.9%,0.79%,N/A,79,34,45,57,17,58%,59%,40,59,81,42%,52%,29%,49.05,14.91,11.02,49.04%,47.8%,56.56%,62.0,32,4.9,34.4,87,1866,3.5,1.0,MD-30850,39.6624479,-79.4044137
Frostburg,Maryland,7025,2103,Cumberland,95729,$51052,41.32%,26,$140000,1522,$92,60,53.6%,$865,71.92%,164,1797,27.84%,6.83%,48.55%,Allegany County,25.70%,69.40%,2.45%,11.91%,81.75%,2.31%,3.39%,Eastern Standard Time,80,34,46,60,19,58%,59%,40,59,82,42%,52%,29%,46.71,12.52,9.93,42.68%,42.42%,44.22%,30.8,16,4.9,34.4,83,1983,3.5,3.34,MD-30900,39.650598,-78.9268685
Fruitland,Maryland,5698,1476,Salisbury,414424,$64352,39.74%,32,N/A,N/A,N/A,36,59.05%,$1354,50.64%,280,4264,15.42%,8.12%,60.63%,Wicomico County,42.40%,52.20%,3.42%,26.89%,51.07%,13.85%,10.35%,Eastern Standard Time,89,48,41,70,29,53%,53%,43,63,94,55%,61%,52%,50.69,14.88,10.38,33.56%,33.74%,35.22%,8.1,3,7.2,26.6,73,18,3.8,3.86,MD-30950,38.3213808,-75.6246903
Fulton,Maryland,5946,1569,Baltimore-Columbia-Towson,2837237,$240219,85.87%,38,$760000,3207,$237,6,91.71%,$3052,37.67%,N/A,N/A,0.1%,0.93%,79.38%,Howard County,63.30%,29.30%,30.74%,10.46%,42.65%,2.94%,22.5%,Eastern Standard Time,88,43,45,68,26,53%,53%,43,63,92,55%,61%,52%,48.75,14.07,10.25,38.36%,39.34%,38.22%,28.5,11,7.2,26.6,60,258,3.9,3.79,MD-31025,39.1515925,-76.9162533
Funkstown,Maryland,826,1502,Hagerstown-Martinsburg,291560,$58438,31.62%,56,N/A,N/A,N/A,65,56.66%,$802,38.4%,N/A,N/A,6.54%,3.86%,58.1%,Washington County,32.00%,62.10%,0.0%,0.0%,96.97%,1.45%,0.0%,Eastern Standard Time,87,40,47,67,23,53%,53%,43,63,90,55%,61%,52%,44.98,11.8,9.84,34.08%,36.15%,31.78%,35.0,10,7.2,26.6,57,486,3.9,0.55,MD-31100,39.6066628,-77.7051723
Gaithersburg,Maryland,69225,6708,Washington-Arlington-Alexandria,6332069,$107496,52.37%,38,$625000,2208,$283,31,52.8%,$2008,48.68%,N/A,N/A,8.83%,5.13%,72.96%,Montgomery County,74.70%,19.40%,19.63%,15.46%,31.24%,29.49%,42.75%,Eastern Standard Time,85,40,45,66,25,53%,53%,43,63,87,55%,61%,52%,47.75,13.26,9.88,33.86%,35.6%,35.0%,32.6,13,7.2,26.6,42,348,4.1,10.32,MD-31175,39.1320799,-77.2364862
Galena,Maryland,766,2128,None,N/A,$87188,34.29%,39,N/A,N/A,N/A,43,81.0%,$850,51.84%,N/A,N/A,1.97%,1.3%,79.53%,Kent County,45.70%,48.70%,0.78%,2.61%,79.37%,15.93%,4.57%,N/A,87,42,45,68,25,55%,55%,43,63,91,55%,61%,52%,50.7,15.04,11.11,35.75%,35.16%,38.11%,22.0,9,7.2,29.3,77,51,3.8,0.36,MD-31225,39.3425686,-75.8786556
Galestown,Maryland,77,321,Cambridge,32486,$39063,32.14%,57,N/A,N/A,N/A,80,84.72%,N/A,65.67%,N/A,N/A,20.78%,12.5%,35.82%,Dorchester County,41.00%,55.30%,0.0%,2.6%,94.81%,0.0%,0.0%,N/A,89,48,41,70,29,53%,53%,43,63,94,55%,61%,52%,48.48,14.26,9.96,33.56%,33.74%,35.22%,15.0,6,7.2,26.6,78,27,4.2,0.24,MD-31250,38.5632827,-75.7149443
Galesville,Maryland,1206,914,Baltimore-Columbia-Towson,2837237,$187656,41.95%,52,N/A,N/A,N/A,63,79.95%,N/A,50.54%,N/A,N/A,5.14%,4.67%,52.64%,Anne Arundel County,47.50%,45.30%,0.0%,16.75%,82.75%,0.0%,0.83%,Eastern Standard Time,87,44,43,73,30,53%,53%,43,63,90,55%,61%,52%,47.53,13.93,9.53,34.0%,32.42%,37.22%,15.0,6,7.2,26.6,68,138,4,1.32,MD-31275,38.8378518,-76.5514032
Gambrills,Maryland,2862,377,Baltimore-Columbia-Towson,2837237,$151667,41.79%,42,$773000,3405,$227,35,89.38%,$1867,31.71%,N/A,N/A,6.25%,2.56%,69.14%,Anne Arundel County,47.50%,45.30%,2.83%,6.11%,72.57%,11.32%,8.56%,Eastern Standard Time,89,44,45,69,26,53%,53%,43,63,94,55%,61%,52%,50.17,15.77,9.95,33.23%,35.27%,32.78%,19.1,6,7.2,26.6,36,201,4,7.6,MD-31350,39.0927268,-76.6510345
Gapland,Maryland,9,41,Hagerstown-Martinsburg,291560,N/A,100.0%,N/A,N/A,N/A,N/A,N/A,100.0%,N/A,100.0%,N/A,N/A,0.0%,0.0%,0.0%,Washington County,32.00%,62.10%,0.0%,0.0%,100.0%,0.0%,0.0%,Eastern Standard Time,87,42,45,63,22,53%,53%,43,63,90,55%,61%,52%,44.86,12.33,9.28,33.84%,35.6%,31.67%,32.6,13,7.2,26.6,72,366,3.9,0.22,MD-31400,39.4019602,-77.6582879
Garrett Park,Maryland,872,3488,Washington-Arlington-Alexandria,6332069,$250001,88.08%,53,$1190000,2490,$478,68,95.83%,$2750,34.56%,N/A,N/A,0.92%,2.53%,65.52%,Montgomery County,74.70%,19.40%,7.68%,0.46%,82.11%,5.85%,10.09%,Eastern Standard Time,89,44,45,69,26,53%,53%,43,63,94,55%,61%,52%,47.35,13.73,9.55,37.34%,36.59%,38.33%,15.2,6,7.2,26.6,33,276,4.1,0.25,MD-31525,39.0361289,-77.0935471
Garretts Mill,Maryland,201,353,Hagerstown-Martinsburg,291560,N/A,57.92%,37,N/A,N/A,N/A,42,74.86%,$1810,45.77%,N/A,N/A,5.47%,0.0%,69.65%,Washington County,32.00%,62.10%,0.0%,0.0%,100.0%,0.0%,0.0%,Eastern Standard Time,87,42,45,63,22,53%,53%,43,63,90,55%,61%,52%,44.86,12.33,9.28,33.84%,35.6%,31.67%,32.6,13,7.2,26.6,72,366,3.9,0.57,MD-31575,39.3533353,-77.6889116
Garrison,Maryland,10449,3307,Baltimore-Columbia-Towson,2837237,$96916,61.68%,35,$286000,1882,$152,30,50.26%,$2019,60.61%,N/A,N/A,10.76%,3.6%,63.42%,Baltimore County,55.90%,38.30%,2.89%,41.22%,51.22%,1.73%,10.65%,Eastern Standard Time,87,43,44,70,26,53%,53%,43,63,90,55%,61%,52%,50.03,14.6,10.41,32.52%,32.75%,34.11%,28.5,11,7.2,26.6,52,444,4.1,3.16,MD-31625,39.4023015,-76.751381
Georgetown,Maryland,43,29,None,N/A,N/A,0.0%,75,N/A,N/A,N/A,N/A,100.0%,N/A,10.0%,N/A,N/A,0.0%,0.0%,58.33%,Kent County,45.70%,48.70%,0.0%,69.77%,30.23%,0.0%,0.0%,N/A,87,42,45,68,25,53%,53%,43,63,90,55%,61%,52%,49.41,15.65,10.11,32.52%,32.75%,34.11%,19.1,6,7.2,26.6,76,51,3.8,1.47,MD-31875,39.2194445,-76.1971337
Germantown,Maryland,90521,5315,Washington-Arlington-Alexandria,6332069,$112149,50.19%,38,$434000,1750,$248,31,66.16%,$1978,46.23%,N/A,N/A,8.51%,4.91%,73.3%,Montgomery County,74.70%,19.40%,21.62%,25.78%,23.91%,24.05%,38.69%,Eastern Standard Time,85,40,45,66,25,53%,53%,43,63,87,55%,61%,52%,47.75,13.26,9.88,33.86%,35.6%,35.0%,32.6,13,7.2,26.6,44,348,4.1,17.03,MD-32025,39.1755397,-77.2643519
Gilmore,Maryland,392,3920,Cumberland,95729,$97500,20.1%,24,N/A,N/A,N/A,53,69.81%,N/A,43.41%,N/A,N/A,0.0%,0.0%,69.45%,Allegany County,25.70%,69.40%,0.0%,0.0%,94.39%,5.61%,4.59%,Eastern Standard Time,80,34,46,60,19,58%,59%,40,59,82,42%,52%,29%,46.71,12.52,9.93,42.68%,42.42%,44.22%,30.8,16,4.9,34.4,87,1983,3.5,0.1,MD-32175,39.5832599,-78.9511268
Girdletree,Maryland,66,97,Salisbury,414424,N/A,11.67%,58,N/A,N/A,N/A,82,100.0%,N/A,78.79%,N/A,N/A,0.0%,0.0%,53.03%,Worcester County,34.50%,60.90%,0.0%,0.0%,100.0%,0.0%,0.0%,Eastern Standard Time,90,49,41,70,30,57%,59%,48,66,99,61%,65%,57%,50.02,14.08,10.57,30.03%,30.11%,31.22%,8.1,3,7.2,34.9,83,18,3.9,0.68,MD-32250,38.0988791,-75.4002568
Glassmanor,Maryland,17687,7591,Washington-Arlington-Alexandria,6332069,$69778,19.54%,36,$420000,1963,$214,48,37.17%,$1494,65.94%,N/A,N/A,13.32%,4.89%,74.0%,Prince George's County,88.10%,8.40%,0.4%,61.92%,2.3%,32.57%,21.68%,Eastern Standard Time,89,44,45,70,28,53%,53%,43,63,94,55%,61%,52%,49.11,15.77,9.61,35.04%,35.27%,36.78%,13.5,7,7.2,26.6,35,174,4.3,2.33,MD-32350,38.818107,-76.9832297
Glen Burnie,Maryland,72772,4204,Baltimore-Columbia-Towson,2837237,$88291,28.14%,38,$365000,1601,$228,46,66.84%,$1607,55.18%,N/A,N/A,9.85%,4.44%,70.12%,Anne Arundel County,47.50%,45.30%,4.26%,25.28%,51.95%,12.4%,12.61%,Eastern Standard Time,89,44,45,69,26,53%,53%,43,63,94,55%,61%,52%,47.29,14.01,9.81,33.64%,35.27%,33.78%,19.1,6,7.2,26.6,48,144,4,17.31,MD-32650,39.1559958,-76.6070981
Glen Echo,Maryland,314,3140,Washington-Arlington-Alexandria,6332069,$195000,83.02%,48,$120000,2182,$55,82,92.57%,$3501,28.99%,N/A,N/A,1.27%,1.41%,61.47%,Montgomery County,74.70%,19.40%,2.87%,0.64%,85.35%,7.96%,8.28%,Eastern Standard Time,89,44,45,69,26,53%,53%,43,63,94,55%,61%,52%,48.57,14.49,10.25,38.41%,39.78%,36.22%,13.5,7,7.2,26.6,45,138,4.1,0.1,MD-32900,38.968167,-77.1411007
Glenarden,Maryland,6320,5267,Washington-Arlington-Alexandria,6332069,$96875,36.02%,40,$446000,1604,$278,51,84.82%,$1684,54.88%,64,866,4.99%,5.28%,66.41%,Prince George's County,88.10%,8.40%,0.36%,74.81%,2.58%,17.78%,25.84%,Eastern Standard Time,90,45,45,72,28,53%,53%,43,63,96,55%,61%,52%,47.62,14.03,9.43,32.99%,34.18%,33.0%,15.2,6,7.2,26.6,41,45,4.3,1.2,MD-32500,38.9292978,-76.8576811
Glenmont,Maryland,16529,5903,Washington-Arlington-Alexandria,6332069,$115058,44.38%,38,$623000,2434,$256,45,67.0%,$1959,50.16%,N/A,N/A,8.34%,6.17%,74.52%,Montgomery County,74.70%,19.40%,10.72%,25.94%,21.96%,36.64%,45.36%,Eastern Standard Time,88,43,45,68,26,53%,53%,43,63,92,55%,61%,52%,46.24,13.34,9.45,37.34%,36.59%,38.33%,15.2,6,7.2,26.6,40,396,4.1,2.8,MD-33250,39.0697865,-77.0465828
Glenn Dale,Maryland,14896,2083,Washington-Arlington-Alexandria,6332069,$139625,51.32%,42,$585000,2600,$225,29,87.04%,$1627,44.54%,N/A,N/A,3.03%,3.96%,70.78%,Prince George's County,88.10%,8.40%,7.6%,54.95%,14.26%,16.36%,23.29%,Eastern Standard Time,88,43,45,68,26,53%,53%,43,63,92,55%,61%,52%,44.55,13.32,8.56,32.99%,34.18%,33.0%,15.2,6,7.2,26.6,53,132,4.3,7.15,MD-33400,38.9832832,-76.8039419
Golden Beach,Maryland,3953,1043,California-Lexington Park,113209,$140313,32.86%,35,$355000,1485,$239,42,91.77%,N/A,34.67%,N/A,N/A,2.28%,2.23%,75.32%,St. Mary's County,35.20%,57.50%,0.0%,4.55%,89.91%,2.83%,0.25%,Eastern Standard Time,86,44,42,67,25,53%,53%,43,63,88,55%,61%,52%,50.57,14.83,10.23,32.36%,33.63%,33.33%,13.4,5,7.2,26.6,71,93,4,3.79,MD-33850,38.4900203,-76.7019761
Goldsboro,Maryland,259,332,None,N/A,$39643,6.92%,27,N/A,N/A,N/A,82,55.81%,$1639,36.55%,N/A,N/A,45.95%,0.0%,57.34%,Caroline County,28.40%,66.40%,0.0%,0.0%,36.68%,57.14%,23.94%,N/A,88,45,43,70,28,53%,53%,43,63,92,55%,61%,52%,50.94,14.67,11.03,34.0%,32.42%,37.22%,15.0,6,7.2,26.6,78,18,3.9,0.78,MD-33950,39.0315748,-75.7821478
Grahamtown,Maryland,385,2567,Cumberland,95729,$155598,42.79%,27,N/A,N/A,N/A,82,100.0%,N/A,35.1%,N/A,N/A,3.9%,0.0%,80.77%,Allegany County,25.70%,69.40%,0.0%,0.0%,100.0%,0.0%,0.0%,Eastern Standard Time,80,34,46,60,19,58%,59%,40,59,82,42%,52%,29%,46.71,12.52,9.93,42.68%,42.42%,44.22%,30.8,16,4.9,34.4,84,1983,3.5,0.15,MD-34425,39.644861,-78.9222884
Grantsville,Maryland,970,933,None,N/A,$46354,30.77%,49,N/A,N/A,N/A,37,48.57%,$654,63.66%,N/A,N/A,23.93%,1.52%,48.83%,Garrett County,18.30%,76.90%,0.52%,0.0%,98.45%,0.21%,0.62%,N/A,80,35,45,57,17,58%,59%,40,59,82,42%,52%,29%,43.25,13.06,9.26,46.14%,45.38%,50.78%,62.0,32,4.9,34.4,88,1830,3.5,1.04,MD-34525,39.6969162,-79.1528496
Grasonville,Maryland,3431,620,Baltimore-Columbia-Towson,2837237,$111842,34.35%,42,$538000,2319,$232,25,71.54%,$1564,48.26%,N/A,N/A,11.32%,2.3%,72.83%,Queen Anne's County,30.10%,64.10%,0.55%,5.48%,74.76%,6.03%,4.69%,Eastern Standard Time,88,43,45,72,29,53%,53%,43,63,92,55%,61%,52%,48.86,14.75,9.79,34.0%,32.42%,37.22%,15.0,6,7.2,26.6,74,9,4.1,5.53,MD-34550,38.9581361,-76.1967357
Greenbelt,Maryland,24572,3938,Washington-Arlington-Alexandria,6332069,$86352,46.07%,37,$230000,1060,$217,44,41.39%,$1807,63.57%,469,3100,18.46%,7.39%,73.21%,Prince George's County,88.10%,8.40%,8.99%,45.73%,20.69%,17.06%,28.13%,Eastern Standard Time,88,43,45,68,26,53%,53%,43,63,92,55%,61%,52%,44.55,13.32,8.56,32.99%,34.18%,33.0%,15.2,6,7.2,26.6,39,132,4.3,6.24,MD-34775,38.9952826,-76.8884673
Greensboro,Maryland,2563,2395,None,N/A,$44934,5.18%,33,N/A,N/A,N/A,51,52.89%,$974,57.4%,160,2454,21.23%,4.56%,62.55%,Caroline County,28.40%,66.40%,0.08%,15.84%,53.53%,27.86%,17.4%,N/A,88,45,43,70,28,53%,53%,43,63,92,55%,61%,52%,50.94,14.67,11.03,34.0%,32.42%,37.22%,15.0,6,7.2,26.6,78,18,3.9,1.07,MD-35200,38.976354,-75.8080756
Greensburg,Maryland,172,430,Hagerstown-Martinsburg,291560,$86250,16.53%,49,N/A,N/A,N/A,43,100.0%,N/A,50.71%,N/A,N/A,6.17%,0.0%,58.57%,Washington County,32.00%,62.10%,0.0%,0.0%,100.0%,0.0%,0.0%,Eastern Standard Time,85,39,46,63,22,53%,53%,41,62,87,55%,61%,52%,44.98,11.8,9.84,34.08%,36.15%,31.78%,35.0,10,7.2,30.2,75,612,3.9,0.4,MD-35225,39.6807504,-77.5615452
Hagerstown,Maryland,43490,3574,Hagerstown-Martinsburg,291560,$49957,19.7%,36,$260000,1871,$139,58,45.12%,$1041,61.55%,529,2384,22.72%,8.33%,62.21%,Washington County,32.00%,62.10%,1.33%,22.95%,57.64%,10.62%,7.88%,Eastern Standard Time,87,40,47,67,23,53%,53%,41,62,90,55%,61%,52%,44.71,11.96,9.56,34.08%,36.15%,31.78%,35.0,10,7.2,30.2,46,480,3.9,12.17,MD-36075,39.6401468,-77.7216741
Halfway,Maryland,10974,2330,Hagerstown-Martinsburg,291560,$69600,20.48%,42,$295000,1954,$151,51,73.97%,$1183,46.0%,N/A,N/A,10.33%,4.87%,62.9%,Washington County,32.00%,62.10%,2.04%,1.33%,84.22%,5.39%,5.8%,Eastern Standard Time,87,40,47,67,23,53%,53%,41,62,90,55%,61%,52%,44.71,11.96,9.56,34.08%,36.15%,31.78%,35.0,10,7.2,30.2,43,480,3.9,4.71,MD-36125,39.6161651,-77.7702952
Hampstead,Maryland,6311,1912,Baltimore-Columbia-Towson,2837237,$96802,44.11%,46,$338000,1751,$193,28,80.12%,$1229,45.29%,109,484,3.26%,4.86%,73.41%,Carroll County,28.90%,63.40%,3.82%,2.58%,89.81%,0.89%,2.0%,Eastern Standard Time,86,40,46,65,25,53%,53%,43,63,88,55%,61%,52%,49.57,14.03,10.42,38.96%,39.78%,40.22%,35.3,16,7.2,26.6,67,666,3.8,3.3,MD-36500,39.5877472,-76.8545965
Hampton,Maryland,5138,864,Baltimore-Columbia-Towson,2837237,$171969,74.75%,47,$620000,2470,$251,58,96.73%,N/A,32.04%,N/A,N/A,3.71%,0.55%,64.63%,Baltimore County,55.90%,38.30%,5.68%,0.45%,82.74%,5.59%,7.36%,Eastern Standard Time,87,43,44,70,26,53%,53%,43,63,90,55%,61%,52%,52.07,15.56,10.69,37.7%,38.24%,36.89%,19.1,6,7.2,26.6,57,345,4.1,5.95,MD-36512,39.4237155,-76.5686146
Hancock,Maryland,1715,621,Hagerstown-Martinsburg,291560,$39375,10.13%,38,$115000,1322,$87,57,61.09%,$928,52.17%,0,389,22.89%,4.23%,59.31%,Washington County,32.00%,62.10%,1.52%,1.87%,89.85%,0.0%,2.16%,Eastern Standard Time,86,40,46,62,21,53%,53%,41,62,88,55%,61%,52%,42.24,12.3,8.48,37.42%,39.01%,35.67%,28.5,12,7.2,30.2,72,1095,3.9,2.76,MD-36600,39.705372,-78.1750224
Havre de Grace,Maryland,14857,2535,Baltimore-Columbia-Towson,2837237,$106798,41.33%,47,$343000,1538,$223,29,74.9%,$1314,47.63%,259,1187,9.25%,4.05%,64.82%,Harford County,35.20%,58.20%,2.28%,13.52%,74.05%,5.78%,5.92%,Eastern Standard Time,87,42,45,68,25,53%,53%,43,63,90,55%,61%,52%,49.53,14.77,10.64,36.58%,38.24%,35.89%,29.4,11,7.2,26.6,65,375,3.9,5.86,MD-37600,39.5471106,-76.1129762
Hebron,Maryland,1297,990,Salisbury,414424,$75625,25.57%,35,N/A,N/A,N/A,29,78.51%,$1544,53.92%,N/A,N/A,21.44%,1.9%,73.12%,Wicomico County,42.40%,52.20%,0.93%,10.49%,75.17%,10.56%,3.7%,Eastern Standard Time,89,48,41,70,29,53%,53%,43,63,94,55%,61%,52%,50.69,14.88,10.38,33.56%,33.74%,35.22%,15.0,6,7.2,26.6,78,18,3.8,1.31,MD-37875,38.4242571,-75.6871343
Henderson,Maryland,148,1138,None,N/A,$95673,0.0%,35,N/A,N/A,N/A,49,45.22%,$1063,80.19%,N/A,N/A,16.89%,0.0%,60.38%,Caroline County,28.40%,66.40%,0.68%,1.35%,21.62%,77.03%,46.62%,N/A,88,45,43,70,28,55%,55%,43,63,93,55%,61%,52%,50.94,14.67,11.03,34.0%,32.42%,37.22%,15.0,6,7.2,29.3,78,18,3.9,0.13,MD-37925,39.0749418,-75.7660769
Herald Harbor,Maryland,2507,1492,Baltimore-Columbia-Towson,2837237,$139877,56.09%,43,N/A,N/A,N/A,36,92.0%,$2135,28.91%,N/A,N/A,1.56%,2.6%,72.93%,Anne Arundel County,47.50%,45.30%,0.0%,3.43%,78.78%,8.62%,2.27%,Eastern Standard Time,87,44,43,73,30,53%,53%,43,63,90,55%,61%,52%,50.97,14.88,10.5,33.64%,35.27%,33.78%,19.1,6,7.2,26.6,57,39,4,1.68,MD-38025,39.0515893,-76.5744826
Highfield-Cascade,Maryland,1079,624,Hagerstown-Martinsburg,291560,$62857,19.14%,38,N/A,N/A,N/A,71,94.19%,N/A,57.98%,N/A,N/A,4.1%,2.14%,68.21%,Washington County,32.00%,62.10%,0.0%,0.0%,100.0%,0.0%,4.63%,Eastern Standard Time,85,39,46,63,22,53%,53%,41,62,87,55%,61%,52%,49.97,14.52,10.36,36.6%,37.91%,34.11%,35.0,10,7.2,30.2,77,1047,3.9,1.73,MD-38437,39.7135916,-77.4945653
Highland,Maryland,785,326,Baltimore-Columbia-Towson,2837237,$250001,74.69%,45,$1750000,7143,$245,32,100.0%,N/A,23.58%,N/A,N/A,9.17%,3.15%,58.37%,Howard County,63.30%,29.30%,15.29%,5.73%,72.74%,1.66%,6.5%,Eastern Standard Time,88,43,45,68,26,53%,53%,43,63,92,55%,61%,52%,50.93,14.44,10.65,38.36%,39.34%,38.22%,28.5,11,7.2,26.6,59,372,3.9,2.41,MD-38475,39.1814181,-76.9570499
Highland Beach,Maryland,80,1143,Baltimore-Columbia-Towson,2837237,$162917,63.51%,71,N/A,N/A,N/A,41,91.4%,N/A,44.74%,N/A,N/A,0.0%,9.68%,40.79%,Anne Arundel County,47.50%,45.30%,0.0%,71.25%,13.75%,0.0%,0.0%,Eastern Standard Time,87,44,43,73,30,53%,53%,43,63,90,55%,61%,52%,45.15,14.32,7.99,33.23%,35.27%,32.78%,19.1,6,7.2,26.6,67,6,4,0.07,MD-38500,38.9312637,-76.4661986
Hillandale,Maryland,4901,2593,Washington-Arlington-Alexandria,6332069,$159118,52.37%,41,$837000,4227,$198,59,88.19%,$3217,41.4%,N/A,N/A,5.38%,3.64%,70.45%,Montgomery County,74.70%,19.40%,8.0%,21.63%,31.4%,32.48%,32.65%,Eastern Standard Time,88,43,45,68,26,53%,53%,43,63,92,55%,61%,52%,44.55,13.32,8.56,32.99%,34.18%,33.0%,15.2,6,7.2,26.6,34,132,4.1,1.89,MD-38850,39.0249311,-76.9736347
Hillcrest Heights,Maryland,15670,6293,Washington-Arlington-Alexandria,6332069,$77696,30.15%,41,$344000,1607,$214,58,53.61%,$1446,70.13%,N/A,N/A,11.18%,8.24%,68.83%,Prince George's County,88.10%,8.40%,0.22%,84.29%,4.92%,8.62%,7.81%,Eastern Standard Time,89,44,45,70,28,53%,53%,43,63,94,55%,61%,52%,48.42,14.72,9.71,35.04%,35.27%,36.78%,13.5,7,7.2,26.6,37,234,4.3,2.49,MD-38975,38.837333,-76.964213
Hillsboro,Maryland,130,929,None,N/A,$65417,17.86%,54,N/A,N/A,N/A,82,68.32%,$955,55.74%,N/A,N/A,29.23%,1.45%,56.56%,Caroline County,28.40%,66.40%,0.0%,1.54%,97.69%,0.0%,3.08%,N/A,89,45,44,71,30,53%,53%,43,63,94,55%,61%,52%,49.22,14.07,10.42,34.0%,32.42%,37.22%,15.0,6,7.2,26.6,78,36,3.9,0.14,MD-39175,38.9170426,-75.9417789
Hughesville,Maryland,2280,204,Washington-Arlington-Alexandria,6332069,$122981,29.99%,55,$515000,2500,$206,30,85.9%,N/A,36.33%,N/A,N/A,1.68%,1.56%,62.29%,Charles County,63.00%,32.70%,1.54%,26.71%,64.91%,4.43%,3.25%,Eastern Standard Time,86,44,42,67,25,53%,53%,43,63,88,55%,61%,52%,50.57,14.83,10.23,32.36%,33.63%,33.33%,13.4,5,7.2,26.6,70,93,4.2,11.15,MD-40700,38.5376011,-76.7748322
Huntingtown,Maryland,2634,326,Washington-Arlington-Alexandria,6332069,$177870,36.96%,51,$550000,3216,$171,25,85.92%,$1852,42.77%,N/A,N/A,3.19%,5.06%,66.0%,Calvert County,38.40%,55.20%,0.91%,14.96%,70.31%,1.44%,4.25%,Eastern Standard Time,86,44,42,67,25,53%,53%,43,63,88,55%,61%,52%,49.6,15.52,9.89,32.36%,33.63%,33.33%,15.0,6,7.2,26.6,69,102,3.9,8.07,MD-41025,38.6116553,-76.6186504
Hurlock,Maryland,2205,826,Cambridge,32486,$55705,10.61%,41,$215000,1335,$161,46,71.89%,$727,63.57%,99,4023,22.31%,6.42%,54.37%,Dorchester County,41.00%,55.30%,1.81%,38.5%,45.12%,9.3%,5.94%,N/A,89,45,44,71,30,53%,53%,43,63,94,55%,61%,52%,49.28,14.56,10.2,34.0%,32.42%,37.22%,15.0,6,7.2,26.6,77,51,4.2,2.67,MD-41125,38.6266875,-75.863944
Hutton,Maryland,154,963,None,N/A,N/A,0.0%,44,N/A,N/A,N/A,42,100.0%,N/A,64.29%,N/A,N/A,0.0%,43.37%,53.9%,Garrett County,18.30%,76.90%,0.0%,0.0%,100.0%,0.0%,0.0%,N/A,77,34,43,59,18,58%,59%,40,59,77,42%,52%,29%,53.09,14.6,12.97,49.04%,46.59%,55.67%,128.1,48,4.9,34.4,89,2406,3.5,0.16,MD-41175,39.4144939,-79.4800438
Hyattsville,Maryland,20861,7698,Washington-Arlington-Alexandria,6332069,$94231,48.56%,35,$450000,1500,$300,57,48.96%,$1831,61.68%,463,6066,10.75%,3.8%,77.39%,Prince George's County,88.10%,8.40%,6.17%,25.19%,25.29%,39.97%,37.58%,Eastern Standard Time,90,45,45,72,28,53%,53%,43,63,96,55%,61%,52%,47.62,14.03,9.43,38.41%,39.78%,36.22%,15.2,6,7.2,26.6,35,45,4.3,2.71,MD-41250,38.9612672,-76.9548139
Ilchester,Maryland,27552,2561,Baltimore-Columbia-Towson,2837237,$150783,62.82%,36,$415000,1729,$240,26,81.5%,$1963,43.19%,N/A,N/A,4.0%,2.28%,75.06%,Howard County,63.30%,29.30%,18.94%,10.56%,51.22%,12.7%,20.79%,Eastern Standard Time,89,44,45,69,26,53%,53%,43,63,94,55%,61%,52%,51.3,14.55,10.8,34.68%,35.49%,37.33%,28.5,11,7.2,26.6,36,312,3.9,10.76,MD-41475,39.2186899,-76.7683307
Indian Head,Maryland,3982,3237,Washington-Arlington-Alexandria,6332069,$84898,13.57%,38,$374000,1833,$204,38,60.01%,$1326,69.92%,N/A,N/A,7.31%,4.24%,70.38%,Charles County,63.00%,32.70%,3.04%,62.86%,24.13%,8.06%,4.52%,Eastern Standard Time,89,45,44,71,29,53%,53%,43,63,94,55%,61%,52%,48.89,15.21,9.48,31.86%,33.3%,32.11%,13.4,5,7.2,26.6,59,45,4.2,1.23,MD-41500,38.5986224,-77.1556536
Indian Springs,Maryland,8,67,Hagerstown-Martinsburg,291560,N/A,0.0%,N/A,N/A,N/A,N/A,N/A,100.0%,N/A,100.0%,N/A,N/A,0.0%,0.0%,0.0%,Washington County,32.00%,62.10%,0.0%,0.0%,100.0%,0.0%,0.0%,Eastern Standard Time,88,42,46,64,23,53%,53%,41,62,92,55%,61%,52%,43.89,12.46,9.15,37.42%,39.01%,35.67%,25.4,9,7.2,30.2,74,447,3.9,0.12,MD-41700,39.645634,-78.0074017
Jarrettsville,Maryland,2629,304,Baltimore-Columbia-Towson,2837237,$161510,52.2%,42,$435000,1891,$230,41,81.18%,N/A,30.77%,N/A,N/A,1.03%,4.56%,70.95%,Harford County,35.20%,58.20%,0.27%,1.83%,93.76%,1.48%,2.43%,Eastern Standard Time,88,41,47,69,26,53%,53%,43,63,92,55%,61%,52%,49.91,14.27,10.61,32.41%,34.51%,33.44%,29.4,11,7.2,26.6,71,447,3.9,8.64,MD-42325,39.6031629,-76.475264
Jefferson,Maryland,2891,1036,Washington-Arlington-Alexandria,6332069,$145664,40.01%,41,N/A,N/A,N/A,28,86.46%,$1347,36.85%,N/A,N/A,4.05%,2.37%,73.87%,Frederick County,45.00%,47.40%,2.21%,6.68%,81.22%,7.75%,6.43%,Eastern Standard Time,87,42,45,63,22,53%,53%,43,63,90,55%,61%,52%,47.02,12.5,9.75,37.4%,38.24%,37.22%,32.6,13,7.2,26.6,70,714,4.2,2.79,MD-42350,39.3653455,-77.5406711
Jennings,Maryland,17,52,None,N/A,N/A,0.0%,N/A,N/A,N/A,N/A,N/A,88.82%,N/A,0.0%,N/A,N/A,0.0%,0.0%,0.0%,Garrett County,18.30%,76.90%,0.0%,0.0%,100.0%,0.0%,0.0%,N/A,81,36,45,60,21,58%,59%,40,59,83,42%,52%,29%,44.21,12.89,9.26,46.14%,45.38%,50.78%,62.0,32,4.9,34.4,88,1368,3.5,0.33,MD-42450,39.6486569,-79.183497
Jessup,Maryland,9147,1512,Baltimore-Columbia-Towson,2837237,$122574,18.8%,37,$505000,2715,$186,15,69.17%,$2056,75.41%,N/A,N/A,7.96%,4.42%,28.54%,Anne Arundel County,47.50%,45.30%,4.83%,60.1%,26.95%,5.71%,9.9%,Eastern Standard Time,89,44,45,69,26,53%,53%,43,63,94,55%,61%,52%,48.08,14.11,9.81,33.23%,35.27%,32.78%,19.1,6,7.2,26.6,44,291,4,6.05,MD-42550,39.1487523,-76.777192
Jesterville,Maryland,90,57,Salisbury,414424,N/A,0.0%,49,N/A,N/A,N/A,N/A,100.0%,N/A,0.0%,N/A,N/A,0.0%,0.0%,100.0%,Wicomico County,42.40%,52.20%,0.0%,0.0%,100.0%,0.0%,0.0%,Eastern Standard Time,89,48,41,70,29,53%,53%,43,63,94,55%,61%,52%,48.43,13.85,9.99,33.56%,33.74%,35.22%,15.0,6,7.2,26.6,78,6,3.8,1.59,MD-42575,38.2897719,-75.8928534
Joppatowne,Maryland,13397,1991,Baltimore-Columbia-Towson,2837237,$109589,31.56%,42,$280000,1474,$190,45,80.22%,$1600,48.77%,N/A,N/A,7.29%,3.58%,71.08%,Harford County,35.20%,58.20%,1.2%,19.18%,71.19%,4.31%,4.0%,Eastern Standard Time,87,42,45,68,25,53%,53%,43,63,90,55%,61%,52%,52.29,15.31,10.67,37.7%,38.24%,36.89%,29.4,11,7.2,26.6,63,186,3.9,6.73,MD-42875,39.4170957,-76.3516095
Jugtown,Maryland,93,282,Hagerstown-Martinsburg,291560,N/A,79.59%,47,N/A,N/A,N/A,38,100.0%,N/A,52.44%,N/A,N/A,0.0%,0.0%,63.41%,Washington County,32.00%,62.10%,0.0%,0.0%,100.0%,0.0%,0.0%,Eastern Standard Time,85,39,46,63,22,53%,53%,43,63,87,55%,61%,52%,44.98,11.8,9.84,34.08%,36.15%,31.78%,35.0,10,7.2,26.6,70,612,3.9,0.33,MD-42950,39.6142775,-77.5942999
Keedysville,Maryland,1243,1366,Hagerstown-Martinsburg,291560,$143611,40.84%,39,$460000,2911,$158,18,94.91%,$1556,34.66%,N/A,N/A,2.11%,3.97%,65.79%,Washington County,32.00%,62.10%,1.53%,0.0%,90.83%,1.37%,3.22%,Eastern Standard Time,87,42,45,63,22,53%,53%,43,63,90,55%,61%,52%,44.86,12.33,9.28,37.42%,39.01%,35.67%,35.0,10,7.2,26.6,72,366,3.9,0.91,MD-43100,39.4866902,-77.697973
Kemp Mill,Maryland,14437,5752,Washington-Arlington-Alexandria,6332069,$160750,62.49%,39,$564000,1752,$322,58,80.31%,$2105,44.52%,N/A,N/A,9.07%,6.72%,71.64%,Montgomery County,74.70%,19.40%,8.69%,13.65%,53.89%,17.98%,29.17%,Eastern Standard Time,88,43,45,68,26,53%,53%,43,63,92,55%,61%,52%,48.13,14.5,9.47,38.41%,39.78%,36.22%,15.2,6,7.2,26.6,35,264,4.1,2.51,MD-43200,39.0412727,-77.0214726
Kemps Mill,Maryland,62,238,Hagerstown-Martinsburg,291560,N/A,55.56%,65,N/A,N/A,N/A,82,0.0%,N/A,27.78%,N/A,N/A,0.0%,0.0%,12.96%,Washington County,32.00%,62.10%,12.9%,0.0%,87.1%,0.0%,12.9%,Eastern Standard Time,87,40,47,67,23,53%,53%,41,62,90,55%,61%,52%,42.36,11.72,8.78,37.42%,39.01%,35.67%,35.0,10,7.2,30.2,55,330,3.9,0.26,MD-43280,39.6268699,-77.8139015
Kennedyville,Maryland,203,398,None,N/A,$35527,22.17%,59,N/A,N/A,N/A,82,64.3%,N/A,40.89%,N/A,N/A,6.4%,0.0%,90.15%,Kent County,45.70%,48.70%,0.0%,0.0%,100.0%,0.0%,31.53%,N/A,87,42,45,68,25,53%,53%,43,63,90,55%,61%,52%,49.41,15.65,10.11,35.75%,35.16%,38.11%,22.0,9,7.2,26.6,78,51,3.8,0.51,MD-43475,39.3032753,-75.9948027
Kensington,Maryland,2248,4496,Washington-Arlington-Alexandria,6332069,$149698,76.02%,41,$775000,1867,$415,61,64.51%,$2105,40.12%,N/A,N/A,6.58%,6.45%,68.0%,Montgomery County,74.70%,19.40%,13.75%,5.34%,63.12%,13.92%,23.04%,Eastern Standard Time,89,44,45,69,26,53%,53%,43,63,94,55%,61%,52%,47.35,13.73,9.55,38.41%,39.78%,36.22%,15.2,6,7.2,26.6,30,276,4.1,0.5,MD-43500,39.0268369,-77.0737101
Kent Narrows,Maryland,444,472,Baltimore-Columbia-Towson,2837237,$176429,64.19%,59,$525000,1768,$297,26,90.12%,N/A,25.81%,N/A,N/A,2.25%,0.0%,55.91%,Queen Anne's County,30.10%,64.10%,0.0%,4.95%,95.05%,0.0%,1.35%,Eastern Standard Time,88,43,45,72,29,53%,53%,43,63,92,55%,61%,52%,48.86,14.75,9.79,34.0%,32.42%,37.22%,15.0,6,7.2,26.6,74,9,4.1,0.94,MD-43725,38.9757742,-76.2379634
Kettering,Maryland,13866,2526,Washington-Arlington-Alexandria,6332069,$124036,41.0%,49,$420000,1883,$223,31,86.53%,$2285,59.1%,N/A,N/A,5.8%,6.99%,65.65%,Prince George's County,88.10%,8.40%,1.1%,84.34%,4.95%,4.98%,16.85%,Eastern Standard Time,90,45,45,72,28,53%,53%,43,63,96,55%,61%,52%,48.42,14.72,9.71,32.99%,34.18%,33.0%,15.2,6,7.2,26.6,48,234,4.3,5.49,MD-43900,38.8888414,-76.789006
Kingstown,Maryland,1836,809,Baltimore-Columbia-Towson,2837237,$90288,42.86%,50,$230000,1055,$218,43,74.7%,$1806,46.07%,N/A,N/A,18.52%,2.97%,53.55%,Queen Anne's County,30.10%,64.10%,0.0%,2.23%,95.04%,2.12%,0.0%,Eastern Standard Time,87,42,45,68,25,53%,53%,43,63,90,55%,61%,52%,49.41,15.65,10.11,32.52%,32.75%,34.11%,19.1,6,7.2,26.6,77,51,4.1,2.27,MD-44325,39.2036414,-76.0465728
Kingsville,Maryland,4790,477,Baltimore-Columbia-Towson,2837237,$130987,46.6%,52,$850000,4595,$185,48,92.56%,N/A,28.79%,N/A,N/A,5.43%,0.37%,60.52%,Baltimore County,55.90%,38.30%,0.17%,1.88%,93.03%,1.69%,1.4%,Eastern Standard Time,87,42,45,68,25,53%,53%,43,63,90,55%,61%,52%,52.29,15.31,10.67,37.7%,38.24%,36.89%,29.4,11,7.2,26.6,66,186,4.1,10.04,MD-44350,39.4495993,-76.4204341
Kitzmiller,Maryland,192,873,None,N/A,$43750,9.03%,44,N/A,N/A,N/A,82,75.12%,N/A,45.39%,N/A,N/A,24.34%,24.72%,58.55%,Garrett County,18.30%,76.90%,0.0%,0.0%,93.75%,3.65%,1.56%,N/A,81,36,45,60,21,58%,59%,40,59,83,42%,52%,29%,44.21,12.89,9.26,41.84%,41.65%,44.11%,30.7,20,4.9,34.4,89,1368,3.5,0.22,MD-44450,39.3893205,-79.1833725
Klondike,Maryland,85,218,Cumberland,95729,$60389,52.94%,80,N/A,N/A,N/A,74,100.0%,N/A,64.71%,N/A,N/A,0.0%,0.0%,0.0%,Allegany County,25.70%,69.40%,0.0%,0.0%,47.06%,52.94%,52.94%,Eastern Standard Time,80,34,46,60,19,58%,59%,40,59,82,42%,52%,29%,46.71,12.52,9.93,42.68%,42.42%,44.22%,30.8,16,4.9,34.4,86,1983,3.5,0.39,MD-44525,39.610247,-78.9631397
Konterra,Maryland,3212,529,Washington-Arlington-Alexandria,6332069,$144750,50.2%,51,$478000,2287,$209,16,84.89%,$2807,47.17%,N/A,N/A,7.79%,7.73%,59.96%,Prince George's County,88.10%,8.40%,14.29%,65.94%,12.8%,2.77%,28.08%,Eastern Standard Time,88,43,45,68,26,53%,53%,43,63,92,55%,61%,52%,44.55,13.32,8.56,32.99%,34.18%,33.0%,15.2,6,7.2,26.6,51,132,4.3,6.07,MD-44715,39.0774142,-76.9022517
