City,State,Population,People per sq mi,Metro Name,Metro population,Median household income,% with at least Bachelor's degree,Median age,Median home price,Median home sqft,Median home cost per sqft,Median home age,Homeownership Rate,Avg Apartment Monthly Rent,Single Population,Num Violent Crimes Per 100k residents,Num Property Crimes Per 100k residents,Poverty Rate,Unemployment rate,Labor Force Participation rate,County,% Democrat,% Republican,% Asian,% Black,% Non-Hispanic White,% Hispanic,Foreign Born %,Timezone,Hottest month's avg high (F),Coldest month's avg high (F),Hottest high minus coldest high,Annual rainfall (in),Annual days of precipitation,Annual snowfall (in),Average yearly windspeed (mph),Air quality Index,Elevation (ft),UV Index,Land Area (sq mi),Fips Code,Latitude,Longitude,Annual Sunshine - Percentage of Possible,Summer Sunshine - Percentage of Possible,Winter Sunshine - Percentage of Possible,Annual Relative Humidity (afternoon),Summer Relative Humidity (afternoon),Number of days with thunder per year,Annual dew point (F),Average summer dew point (F),Hottest month's avg low (F),Coldest month's avg low (F),Summer rainfall (in),Winter rainfall (in),Percent of days that include precipitation,Percent of Summer days that include precipitation,Percent of Winter days that include precipitation,Days of snow per year
Absarokee,Montana,1048,490,None,8027993,$61667,26.51%,47,N/A,N/A,N/A,44,81.11%,$784,42.17%,N/A,N/A,3.44%,1.81%,65.29%,Stillwater County,18.60%,75.10%,0.0%,0.0%,88.07%,6.11%,0.38%,N/A,86,36,50,18.25,72,76.8,7.2,96,4116,3.7,2.14,MT-00175,45.5241797,-109.4473302,58%,70%,45%,45%,34%,26.4,29,45,51,10,4.34,2.58,18.08%,21.87%,14.56%,20
Alberton,Montana,573,1042,None,8027993,$51518,20.35%,35,N/A,N/A,N/A,39,72.25%,$700,41.63%,N/A,N/A,19.4%,4.48%,68.3%,Mineral County,25.80%,66.10%,3.32%,0.0%,87.43%,4.54%,0.7%,N/A,88,32,56,18.56,146,51.8,5.4,89,2799,3.2,0.55,MT-00700,47.0037423,-114.4817671,54%,73%,34%,51%,33%,23.0,32,45,49,18,3.65,4.77,38.71%,26.7%,47.67%,39
Alder,Montana,93,46,None,8027993,$31406,23.75%,59,N/A,N/A,N/A,71,100.0%,N/A,23.75%,N/A,N/A,11.83%,0.0%,58.75%,Madison County,24.90%,69.50%,0.0%,0.0%,100.0%,0.0%,4.3%,N/A,81,32,49,12.77,98,46.8,6.9,98,4752,3.6,2.01,MT-00850,45.3215934,-112.1092181,57%,71%,42%,46%,32%,28.0,27,42,51,13,4.48,1.5,44.19%,30.33%,50.78%,26
Alzada,Montana,25,49,None,8027993,$14375,8.7%,69,N/A,N/A,N/A,46,88.0%,N/A,48.0%,N/A,N/A,40.0%,0.0%,40.0%,Carter County,8.90%,86.30%,0.0%,0.0%,100.0%,0.0%,0.0%,N/A,86,30,56,19.77,60,55.1,7.2,94,3030,3.8,0.51,MT-01300,45.0205494,-104.4127872,62%,70%,56%,52%,44%,39.2,31,51,53,8,7.89,1.67,27.64%,29.89%,28.22%,19
Amsterdam,Montana,169,62,Bozeman,66756,$71875,26.77%,42,N/A,N/A,N/A,45,72.78%,N/A,28.47%,N/A,N/A,10.43%,0.0%,66.43%,Gallatin County,45.10%,44.20%,3.55%,0.0%,80.47%,2.96%,4.73%,N/A,87,31,56,13.03,97,46.8,6.9,93,4047,3.8,2.71,MT-01525,45.74627,-111.3301027,57%,71%,42%,46%,32%,28.0,27,42,50,9,4.26,1.14,29.34%,29.45%,20.78%,26
Anaconda-Deer Lodge,Montana,9131,12,None,8027993,$41015,N/A,N/A,N/A,N/A,N/A,64,50.80%,N/A,48.30%,N/A,N/A,N/A,2.60%,N/A,Deer Lodge County,48.90%,41.90%,N/A,N/A,N/A,3.30%,N/A,N/A,N/A,N/A,N/A,N/A,115,N/A,N/A,95,N/A,3.7,760.92,N/A,N/A,N/A,N/A,N/A,N/A,N/A,N/A,N/A,N/A,N/A,N/A,N/A,N/A,N/A,N/A,N/A,N/A,N/A
Antelope,Montana,47,235,None,8027993,$31477,40.91%,13,N/A,N/A,N/A,8,100.0%,N/A,0.0%,N/A,N/A,0.0%,13.64%,100.0%,Sheridan County,26.00%,67.60%,0.0%,0.0%,100.0%,0.0%,0.0%,N/A,84,24,60,15.77,64,44.2,N/A,96,1869,3.7,0.2,MT-02050,48.6897144,-104.4540172,60%,73%,52%,58%,47%,27.9,29,50,54,1,6.91,1.47,24.47%,31.87%,17.78%,33
Arlee,Montana,592,91,None,8027993,$27250,15.8%,36,N/A,N/A,N/A,43,66.89%,$531,60.29%,N/A,N/A,41.78%,5.56%,52.28%,Lake County,36.20%,57.10%,0.0%,0.0%,42.91%,2.7%,0.0%,N/A,87,32,55,21.61,119,44.8,5.4,92,3879,3.1,6.47,MT-02425,47.1678859,-114.083845,54%,73%,34%,51%,33%,23.0,32,45,55,19,4.44,5.45,40.14%,21.54%,54.44%,38
Ashland,Montana,850,41,None,8027993,$37750,22.24%,33,N/A,N/A,N/A,42,25.5%,$554,61.95%,N/A,N/A,21.0%,8.19%,65.25%,Rosebud County,28.60%,65.20%,0.0%,1.76%,27.41%,1.41%,0.0%,N/A,91,35,56,17.93,81,41.0,7.2,88,3147,3.7,20.67,MT-02800,45.5976875,-106.2974979,60%,71%,52%,51%,37%,27.4,30,48,56,12,5.0,2.4,25.29%,25.71%,24.78%,27
Augusta,Montana,238,259,Helena,66633,$39375,23.46%,56,N/A,N/A,N/A,60,71.43%,$709,35.79%,N/A,N/A,22.69%,0.0%,44.21%,Lewis and Clark County,41.00%,47.90%,0.0%,0.0%,99.58%,0.0%,2.52%,N/A,80,34,46,17.42,79,55.9,6.9,92,4197,3.9,0.92,MT-03025,47.4893289,-112.3921568,58%,73%,43%,46%,33%,24.8,28,43,46,10,5.11,2.25,33.1%,20.55%,41.56%,32
Avon,Montana,127,10,None,8027993,$43750,10.81%,28,N/A,N/A,N/A,74,81.89%,N/A,51.79%,N/A,N/A,26.77%,8.96%,65.69%,Powell County,19.70%,72.60%,0.0%,0.0%,100.0%,0.0%,0.0%,N/A,82,30,52,19.54,91,37.6,6.9,93,4644,3.7,13.36,MT-03175,46.6263824,-112.5820011,57%,71%,42%,46%,32%,28.0,27,42,46,10,5.11,3.37,38.08%,23.96%,47.22%,23
Azure,Montana,431,96,None,8027993,$34531,9.57%,20,N/A,N/A,N/A,35,57.54%,$229,64.03%,N/A,N/A,18.31%,27.21%,53.75%,Hill County,36.80%,54.00%,0.0%,0.0%,0.0%,0.0%,0.0%,N/A,86,30,56,27.22,76,44.0,N/A,96,4299,3.8,4.5,MT-03212,48.300529,-109.800248,67%,82%,51%,49%,33%,24.8,28,43,55,10,5.92,5.63,29.07%,20.11%,35.0%,27
Babb,Montana,155,16,None,8027993,$4250,0.0%,33,N/A,N/A,N/A,42,100.0%,N/A,56.07%,N/A,N/A,23.87%,0.0%,53.27%,Glacier County,61.50%,31.90%,0.0%,0.0%,0.0%,0.0%,0.0%,N/A,75,30,45,26.71,90,56.3,5.4,97,4164,3.1,9.49,MT-03250,48.8777196,-113.4408486,58%,73%,43%,54%,38%,21.1,31,46,46,13,5.06,6.62,41.51%,31.1%,49.67%,36
Bainville,Montana,159,126,None,8027993,$51042,13.16%,37,N/A,N/A,N/A,37,81.13%,N/A,48.94%,N/A,N/A,4.4%,4.81%,78.2%,Roosevelt County,42.70%,49.20%,0.0%,0.0%,81.76%,2.52%,3.14%,N/A,87,27,60,15.51,75,38.5,N/A,94,1773,3.7,1.26,MT-03400,48.1394206,-104.2196926,60%,73%,52%,58%,47%,27.9,29,50,56,5,6.45,1.29,27.21%,31.98%,26.56%,38
Baker,Montana,1905,1686,None,8027993,$71111,11.77%,34,N/A,N/A,N/A,53,86.77%,$702,43.98%,155,363,15.44%,0.22%,64.68%,Fallon County,10.40%,86.20%,1.57%,0.05%,90.97%,1.99%,2.26%,N/A,87,29,58,14.85,72,35.3,N/A,91,2718,3.7,1.13,MT-03475,46.3640519,-104.2741431,60%,73%,52%,58%,47%,27.4,30,48,56,8,5.92,0.56,24.19%,32.09%,13.22%,30
Ballantine,Montana,352,387,Billings,131182,$18269,6.69%,44,N/A,N/A,N/A,65,71.88%,N/A,77.11%,N/A,N/A,2.84%,0.0%,57.04%,Yellowstone County,31.50%,58.10%,0.0%,0.0%,70.74%,0.0%,0.0%,Mountain Standard Time,89,36,53,14.82,78,40.3,7.2,89,2775,3.8,0.91,MT-03625,45.9510983,-108.1428461,58%,70%,45%,45%,34%,26.4,29,45,55,13,4.24,1.63,24.14%,25.71%,19.33%,25
Basin,Montana,267,21,Helena,66633,$32500,27.35%,58,N/A,N/A,N/A,32,97.75%,N/A,32.47%,N/A,N/A,12.36%,2.29%,57.46%,Jefferson County,29.80%,62.20%,0.0%,2.25%,97.0%,0.37%,0.0%,N/A,84,33,51,30.1,84,37.6,6.9,95,7314,3.6,12.71,MT-04150,46.2834561,-112.2870957,57%,71%,42%,46%,32%,28.0,27,42,49,11,6.9,6.93,39.04%,25.6%,45.44%,23
Batavia,Montana,480,265,Kalispell,54604,$35825,18.37%,39,N/A,N/A,N/A,44,93.13%,$860,22.43%,N/A,N/A,19.17%,3.81%,63.06%,Flathead County,28.00%,63.70%,0.0%,0.0%,76.04%,6.46%,0.0%,N/A,84,31,53,17.18,129,56.3,5.4,90,2976,3.2,1.81,MT-04230,48.1778329,-114.4106747,54%,73%,34%,54%,38%,21.1,31,46,48,17,4.29,3.9,36.79%,26.48%,47.56%,36
Bear Dance,Montana,227,82,None,8027993,$54338,52.42%,61,N/A,N/A,N/A,47,95.15%,N/A,22.03%,N/A,N/A,4.41%,0.0%,39.21%,Lake County,36.20%,57.10%,0.0%,0.0%,100.0%,0.0%,12.78%,N/A,82,35,47,22.42,120,56.3,5.4,89,2724,3.1,2.78,MT-04410,47.9019115,-114.0273162,54%,73%,34%,54%,38%,21.1,31,46,56,26,5.57,5.07,35.81%,20.99%,47.67%,36
Bearcreek,Montana,144,1309,Billings,131182,$101563,37.74%,47,N/A,N/A,N/A,43,61.11%,$1050,60.8%,N/A,N/A,11.19%,0.0%,69.92%,Carbon County,30.50%,62.60%,0.0%,0.0%,93.75%,0.0%,0.0%,Mountain Standard Time,82,34,48,20.38,67,25.3,7.2,95,5103,3.9,0.11,MT-04300,45.1605557,-109.1574208,58%,70%,45%,45%,34%,26.4,29,45,51,14,4.38,3.21,28.08%,25.38%,24.22%,16
Beaver Creek,Montana,424,92,None,8027993,$98000,6.83%,49,N/A,N/A,N/A,47,93.16%,N/A,35.77%,N/A,N/A,3.74%,0.37%,75.21%,Hill County,36.80%,54.00%,0.0%,0.0%,81.13%,0.0%,1.42%,N/A,87,30,57,12.25,84,44.0,N/A,95,2364,3.8,4.59,MT-04575,48.5436672,-109.8069203,67%,82%,51%,49%,33%,24.8,28,43,54,10,4.09,1.58,25.84%,26.15%,25.44%,27
Belfry,Montana,304,182,Billings,131182,$35313,14.74%,40,N/A,N/A,N/A,49,64.47%,$1021,64.6%,N/A,N/A,17.11%,12.67%,55.15%,Carbon County,30.50%,62.60%,0.0%,0.0%,84.21%,13.82%,0.0%,Mountain Standard Time,82,34,48,20.38,49,25.3,7.2,95,5103,3.9,1.67,MT-04900,45.137464,-108.9984926,58%,70%,45%,45%,34%,26.4,29,45,51,14,4.38,3.21,17.81%,22.64%,12.89%,16
Belgrade,Montana,9184,2245,Bozeman,66756,$62335,34.26%,32,N/A,N/A,N/A,26,60.94%,$1012,46.18%,380,1901,11.1%,0.8%,77.43%,Gallatin County,45.10%,44.20%,0.14%,0.0%,93.64%,1.75%,0.71%,N/A,87,31,56,13.03,110,46.8,6.9,75,4047,3.8,4.09,MT-04975,45.7788651,-111.1735706,57%,71%,42%,46%,32%,28.0,27,42,50,9,4.26,1.14,29.34%,29.45%,20.78%,26
Belknap,Montana,249,52,None,8027993,$66484,0.0%,16,N/A,N/A,N/A,14,100.0%,N/A,40.96%,N/A,N/A,0.0%,0.0%,100.0%,Sanders County,20.50%,72.00%,0.0%,0.0%,100.0%,0.0%,0.0%,N/A,88,33,55,26.12,141,51.8,5.4,90,2373,3.2,4.76,MT-05050,47.6473164,-115.4221274,54%,73%,34%,54%,38%,21.1,31,46,54,24,4.28,8.23,43.18%,24.51%,55.56%,39
Belt,Montana,537,1579,Great Falls,69250,$44375,13.79%,55,N/A,N/A,N/A,56,74.3%,$507,50.52%,N/A,N/A,16.01%,8.02%,50.0%,Cascade County,35.20%,56.80%,0.0%,0.0%,88.45%,9.31%,2.61%,Mountain Standard Time,87,35,52,16.11,99,77.4,6.9,95,3204,3.8,0.34,MT-05275,47.3872016,-110.9277368,58%,73%,43%,46%,33%,24.8,28,43,56,19,4.82,2.32,24.36%,23.3%,23.67%,44
Biddle,Montana,51,3,None,8027993,$56250,20.59%,32,N/A,N/A,N/A,43,56.86%,N/A,39.53%,N/A,N/A,7.84%,0.0%,65.12%,Powder River County,12.10%,84.00%,0.0%,0.0%,100.0%,0.0%,0.0%,N/A,91,35,56,15.94,63,32.8,7.2,88,3030,3.8,17.12,MT-05650,45.1050654,-105.3115481,60%,71%,52%,51%,37%,31.9,29,46,58,14,5.32,1.33,20.6%,23.08%,16.56%,18
Big Arm,Montana,89,16,None,8027993,$45577,20.22%,64,N/A,N/A,N/A,37,100.0%,N/A,22.47%,N/A,N/A,60.67%,0.0%,39.33%,Lake County,36.20%,57.10%,0.0%,0.0%,77.53%,0.0%,0.0%,N/A,85,32,53,16.08,108,56.3,5.4,88,2496,3.1,5.42,MT-05800,47.7936085,-114.2700284,54%,73%,34%,54%,38%,21.1,31,46,53,22,3.94,3.51,37.7%,25.27%,43.44%,36
Big Sandy,Montana,637,1327,None,8027993,$42137,26.15%,42,N/A,N/A,N/A,58,69.44%,N/A,46.07%,N/A,N/A,12.72%,8.95%,63.28%,Chouteau County,28.10%,64.50%,3.77%,2.2%,77.55%,0.0%,5.65%,N/A,87,32,55,14.8,58,44.0,6.9,95,2532,3.9,0.48,MT-06250,48.1785616,-110.1133406,67%,82%,51%,49%,33%,24.8,28,43,55,13,5.03,1.55,29.07%,20.11%,35.0%,27
Big Sky,Montana,3054,25,Bozeman,66756,$80455,63.89%,36,N/A,N/A,N/A,24,67.59%,$1319,46.38%,N/A,N/A,9.71%,2.39%,84.06%,Gallatin County,45.10%,44.20%,0.79%,0.23%,86.28%,10.84%,10.02%,N/A,80,27,53,25.52,124,46.8,6.9,99,6027,3.8,120.01,MT-06325,45.2592298,-111.3426049,57%,71%,42%,46%,32%,28.0,27,42,42,7,6.02,5.07,42.77%,31.43%,49.33%,26
Big Timber,Montana,1736,1827,None,8027993,$51406,17.06%,39,N/A,N/A,N/A,48,65.4%,$622,50.14%,N/A,N/A,2.88%,0.88%,66.06%,Sweet Grass County,19.10%,75.70%,0.0%,0.0%,91.53%,6.8%,0.29%,N/A,87,36,51,17.18,82,116.8,6.9,95,3750,3.6,0.95,MT-06475,45.834634,-109.9486713,58%,70%,45%,45%,34%,26.4,29,45,54,19,4.47,1.95,20.68%,22.86%,12.89%,37
Bigfork,Montana,4733,151,Kalispell,54604,$73667,44.85%,56,N/A,N/A,N/A,28,75.05%,$954,42.2%,N/A,N/A,6.66%,3.7%,47.95%,Flathead County,28.00%,63.70%,0.27%,0.11%,89.33%,8.64%,4.97%,N/A,82,32,50,27.32,121,56.3,5.4,88,2790,3.2,31.25,MT-05875,48.0852099,-114.0550784,54%,73%,34%,54%,38%,21.1,31,46,51,19,6.33,7.13,45.34%,25.27%,59.89%,36
Billings,Montana,109705,2450,Billings,131182,$60032,35.62%,37,N/A,N/A,N/A,43,68.08%,$923,50.56%,N/A,N/A,9.82%,3.59%,66.6%,Yellowstone County,31.50%,58.10%,0.88%,1.2%,84.08%,6.76%,2.3%,Mountain Standard Time,89,35,54,15.18,88,60.7,7.2,71,3276,3.8,44.78,MT-06550,45.7890615,-108.5525012,58%,70%,45%,45%,34%,26.4,29,45,60,19,3.86,2.06,27.01%,25.71%,23.89%,34
Birney,Montana,150,10,None,8027993,$55357,11.36%,27,N/A,N/A,N/A,42,46.0%,$375,56.44%,N/A,N/A,0.0%,25.42%,62.11%,Rosebud County,28.60%,65.20%,0.0%,0.0%,0.0%,0.0%,0.0%,N/A,89,35,54,16.62,76,52.7,7.2,87,3138,3.7,15.09,MT-06925,45.4154868,-106.4933805,60%,71%,52%,51%,37%,31.9,29,46,53,10,4.27,2.32,23.45%,19.23%,26.44%,28
Black Eagle,Montana,836,543,Great Falls,69250,$54750,21.7%,41,N/A,N/A,N/A,70,53.83%,$677,56.38%,N/A,N/A,16.27%,4.76%,54.47%,Cascade County,35.20%,56.80%,0.0%,0.0%,84.33%,0.36%,1.08%,Mountain Standard Time,87,35,52,16.11,89,76.8,6.9,90,3204,3.8,1.54,MT-07150,47.5269919,-111.2669305,58%,73%,43%,46%,33%,24.8,28,43,56,19,4.82,2.32,24.36%,23.3%,23.67%,44
Boneau,Montana,290,122,None,8027993,$16125,6.83%,26,N/A,N/A,N/A,28,21.03%,$264,65.81%,N/A,N/A,65.52%,8.24%,36.32%,Chouteau County,28.10%,64.50%,0.0%,0.0%,0.0%,1.38%,0.0%,N/A,87,32,55,27.22,76,44.0,N/A,95,4299,3.9,2.37,MT-08162,48.2926227,-109.8631243,67%,82%,51%,49%,33%,24.8,28,43,55,13,5.92,5.63,29.07%,20.11%,35.0%,27
Bonner-West Riverside,Montana,1404,918,Missoula,90782,$48036,14.86%,37,N/A,N/A,N/A,43,53.63%,$911,60.73%,N/A,N/A,18.87%,9.61%,76.24%,Missoula County,51.90%,36.60%,0.36%,0.78%,87.68%,2.42%,1.42%,Mountain Standard Time,87,31,56,21.29,118,45.2,5.4,83,3042,3.1,1.53,MT-08462,46.8767065,-113.886806,54%,73%,34%,51%,33%,23.0,32,45,52,18,3.94,5.38,44.0%,21.87%,61.33%,39
Boulder,Montana,1027,917,Helena,66633,$47813,18.75%,41,N/A,N/A,N/A,48,62.88%,$615,59.42%,156,782,14.97%,4.8%,60.18%,Jefferson County,29.80%,62.20%,0.0%,0.0%,90.94%,5.45%,0.0%,N/A,84,33,51,13.55,85,37.6,6.9,95,4485,3.6,1.12,MT-08575,46.2358397,-112.1197495,57%,71%,42%,46%,32%,28.0,27,42,49,11,5.29,1.27,39.04%,25.6%,45.44%,23
Box Elder,Montana,57,72,None,8027993,$30893,3.85%,49,N/A,N/A,N/A,76,66.67%,N/A,34.55%,N/A,N/A,15.79%,40.91%,80.0%,Hill County,36.80%,54.00%,0.0%,0.0%,66.67%,17.54%,0.0%,N/A,87,32,55,14.8,76,44.0,N/A,96,2532,3.8,0.79,MT-08725,48.3230497,-110.0176641,67%,82%,51%,49%,33%,24.8,28,43,55,13,5.03,1.55,23.64%,26.04%,20.22%,27
Boyd,Montana,64,229,Billings,131182,$0,62.3%,44,N/A,N/A,N/A,55,57.81%,N/A,26.56%,N/A,N/A,32.81%,0.0%,62.5%,Carbon County,30.50%,62.60%,0.0%,0.0%,95.31%,4.69%,0.0%,Mountain Standard Time,87,35,52,15.26,77,54.7,7.2,93,3510,3.9,0.28,MT-08800,45.454067,-109.0696604,58%,70%,45%,45%,34%,26.4,29,45,50,11,3.77,1.82,23.23%,24.73%,16.78%,28
Bozeman,Montana,48330,2346,Bozeman,66756,$59695,63.13%,28,N/A,N/A,N/A,25,44.22%,$1145,63.71%,N/A,N/A,17.16%,3.53%,71.87%,Gallatin County,45.10%,44.20%,2.03%,0.79%,89.12%,4.15%,4.52%,N/A,84,33,51,20.66,113,46.8,6.9,78,4494,3.8,20.6,MT-08950,45.6832588,-111.0557557,57%,71%,42%,46%,32%,28.0,27,42,53,14,5.41,2.86,40.3%,37.91%,39.89%,26
Brady,Montana,74,24,None,8027993,$126731,21.43%,52,N/A,N/A,N/A,50,100.0%,N/A,62.16%,N/A,N/A,0.0%,0.0%,78.38%,Pondera County,27.10%,66.10%,0.0%,0.0%,100.0%,0.0%,0.0%,N/A,84,33,51,13.45,70,55.0,6.9,95,3246,3.9,3.09,MT-09250,48.0279123,-111.8440639,58%,73%,43%,46%,33%,24.8,28,43,52,12,3.97,1.8,20.16%,21.98%,18.22%,23
Bridger,Montana,917,1146,Billings,131182,$38750,12.84%,46,N/A,N/A,N/A,55,66.41%,$622,50.69%,0,789,19.52%,7.52%,56.21%,Carbon County,30.50%,62.60%,0.0%,0.0%,92.91%,1.64%,0.0%,Mountain Standard Time,89,35,54,12.97,75,54.7,7.2,94,3276,3.9,0.8,MT-09475,45.2945924,-108.9166657,58%,70%,45%,45%,34%,26.4,29,45,53,14,3.28,1.26,23.23%,24.73%,16.78%,28
Broadus,Montana,445,1271,None,8027993,$62750,22.13%,50,N/A,N/A,N/A,54,86.12%,$541,38.31%,N/A,N/A,5.74%,0.35%,68.92%,Powder River County,12.10%,84.00%,0.0%,0.0%,89.66%,4.94%,2.47%,N/A,92,36,56,15.98,68,32.8,7.2,88,2772,3.8,0.35,MT-09700,45.4430534,-105.4083492,60%,71%,52%,51%,37%,27.4,30,48,59,13,5.18,1.7,20.6%,23.08%,16.56%,18
Broadview,Montana,155,596,Billings,131182,$40000,26.79%,49,N/A,N/A,N/A,32,88.39%,N/A,52.11%,N/A,N/A,14.19%,0.0%,65.94%,Yellowstone County,31.50%,58.10%,0.0%,0.0%,91.61%,0.0%,0.65%,Mountain Standard Time,88,36,52,15.85,82,45.4,7.2,87,3096,3.8,0.26,MT-09775,46.0987888,-108.8788663,58%,70%,45%,45%,34%,26.4,29,45,52,11,5.36,1.55,23.29%,25.49%,18.78%,22
Brockton,Montana,341,344,None,8027993,$29844,12.18%,29,N/A,N/A,N/A,39,61.88%,N/A,76.0%,N/A,N/A,47.48%,11.34%,40.25%,Roosevelt County,42.70%,49.20%,0.0%,0.0%,2.35%,0.29%,0.0%,N/A,85,24,61,14.34,64,44.2,N/A,95,1908,3.7,0.99,MT-10000,48.1525283,-104.9065649,60%,73%,52%,58%,47%,27.9,29,50,54,1,6.47,1.1,25.67%,32.53%,21.0%,33
Browning,Montana,886,3164,None,8027993,$34886,13.71%,30,N/A,N/A,N/A,51,55.76%,$618,64.68%,N/A,N/A,36.91%,6.76%,54.84%,Glacier County,61.50%,31.90%,0.0%,0.0%,2.26%,0.0%,0.0%,N/A,76,29,47,30.43,87,39.9,5.4,93,4395,3.1,0.28,MT-10375,48.5563442,-113.0150949,58%,73%,43%,54%,38%,21.1,31,46,47,11,6.21,8.17,42.99%,21.65%,59.89%,24
Busby,Montana,586,41,None,8027993,$53750,12.81%,23,N/A,N/A,N/A,38,59.15%,$568,53.16%,N/A,N/A,16.02%,27.95%,46.93%,Big Horn County,49.40%,43.70%,0.0%,0.0%,1.19%,8.02%,0.0%,N/A,89,35,54,16.62,74,52.7,7.2,89,3138,3.7,14.32,MT-11200,45.5280376,-106.9752392,60%,71%,52%,51%,37%,31.9,29,46,53,10,4.27,2.32,23.45%,19.23%,26.44%,28
Butte-Silver Bow,Montana,34263,48,Butte-Silver Bow,34514,$49659,27.71%,40,N/A,N/A,N/A,65,73.27%,$678,52.07%,N/A,N/A,16.05%,5.27%,60.27%,Silver Bow County,52.40%,38.80%,0.76%,0.28%,90.06%,4.74%,2.0%,N/A,83,30,53,12.06,104,37.6,6.9,86,5034,3.7,715.85,MT-11397,45.9019864,-112.6570785,57%,71%,42%,46%,32%,28.0,27,42,47,7,4.5,1.1,28.19%,30.44%,22.78%,23
Bynum,Montana,25,15,None,8027993,$39167,4.35%,76,N/A,N/A,N/A,78,100.0%,N/A,24.0%,N/A,N/A,0.0%,0.0%,16.0%,Teton County,25.30%,68.10%,0.0%,0.0%,84.0%,16.0%,0.0%,N/A,82,33,49,15.3,71,55.9,5.4,95,3693,3.9,1.63,MT-11500,47.9681239,-112.3164757,58%,73%,43%,46%,33%,24.8,28,43,53,15,4.51,1.68,23.15%,23.96%,21.56%,32
Camas,Montana,89,162,None,8027993,$16875,15.71%,58,N/A,N/A,N/A,30,78.65%,N/A,50.0%,N/A,N/A,51.69%,0.0%,60.0%,Sanders County,20.50%,72.00%,0.0%,0.0%,50.56%,21.35%,0.0%,N/A,85,32,53,16.08,109,51.8,5.4,92,2496,3.2,0.55,MT-11800,47.6179218,-114.655991,54%,73%,34%,54%,38%,21.1,31,46,53,22,3.94,3.51,37.7%,25.27%,43.44%,39
Camp Three,Montana,150,34,None,8027993,$48333,14.02%,57,N/A,N/A,N/A,58,53.52%,$994,51.24%,N/A,N/A,19.01%,0.0%,55.65%,Musselshell County,13.60%,80.60%,0.0%,0.0%,86.0%,0.0%,0.0%,N/A,91,36,55,15.92,74,45.4,7.2,92,2925,3.8,4.45,MT-11995,46.4533047,-108.5741138,58%,70%,45%,45%,34%,26.4,29,45,54,14,5.54,1.38,21.81%,24.73%,16.11%,22
Cardwell,Montana,107,50,Helena,66633,$90625,25.0%,29,N/A,N/A,N/A,42,100.0%,N/A,36.36%,N/A,N/A,3.74%,0.0%,78.79%,Jefferson County,29.80%,62.20%,0.0%,0.0%,100.0%,0.0%,0.0%,N/A,86,32,54,39.44,87,46.8,6.9,96,7590,3.6,2.15,MT-12400,45.8620795,-111.955444,57%,71%,42%,46%,32%,28.0,27,42,54,15,6.99,8.51,40.63%,27.69%,46.11%,26
Carlton,Montana,612,99,Missoula,90782,$60750,26.35%,51,N/A,N/A,N/A,42,100.0%,N/A,15.04%,N/A,N/A,28.1%,0.0%,63.53%,Missoula County,51.90%,36.60%,8.33%,0.0%,82.52%,0.98%,8.33%,Mountain Standard Time,88,34,54,14.05,117,45.2,5.4,90,3255,3.1,6.16,MT-12435,46.6796246,-114.071893,54%,73%,34%,51%,33%,23.0,32,45,50,19,3.92,3.23,25.97%,21.32%,27.67%,39
Carter,Montana,99,34,None,8027993,$59000,9.26%,26,N/A,N/A,N/A,78,59.6%,N/A,53.62%,N/A,N/A,19.19%,6.67%,43.48%,Chouteau County,28.10%,64.50%,0.0%,0.0%,89.9%,0.0%,3.03%,N/A,86,32,54,14.98,73,46.6,6.9,94,3156,3.9,2.9,MT-12625,47.7812053,-110.9399765,58%,73%,43%,46%,33%,24.8,28,43,52,14,4.73,1.81,25.53%,24.62%,22.56%,30
Cascade,Montana,648,982,Great Falls,69250,$37813,15.92%,51,N/A,N/A,N/A,56,67.92%,$718,39.96%,N/A,N/A,27.51%,2.99%,52.42%,Cascade County,35.20%,56.80%,2.16%,0.46%,83.8%,4.94%,0.31%,Mountain Standard Time,87,37,50,15.29,73,77.4,6.9,95,3072,3.8,0.66,MT-12775,47.277082,-111.7026704,58%,73%,43%,46%,33%,24.8,28,43,52,18,4.58,1.99,28.36%,26.92%,28.22%,44
Charlo,Montana,261,131,None,8027993,$29250,15.38%,44,N/A,N/A,N/A,38,59.77%,$724,57.39%,N/A,N/A,16.09%,7.38%,64.78%,Lake County,36.20%,57.10%,0.0%,1.15%,84.67%,4.21%,0.38%,N/A,85,32,53,26.41,108,143.2,5.4,92,3120,3.1,1.99,MT-13900,47.4427023,-114.1716063,54%,73%,34%,51%,33%,23.0,32,45,53,22,5.86,6.02,37.7%,25.27%,43.44%,79
Charlos Heights,Montana,123,104,None,8027993,$0,N/A,N/A,N/A,N/A,N/A,38,0.0%,N/A,0.0%,N/A,N/A,0.0%,0.0%,0.0%,Ravalli County,27.60%,65.70%,0.0%,0.0%,0.0%,0.0%,0.0%,N/A,83,33,50,14.09,106,45.2,5.4,86,3549,3,1.18,MT-13975,46.1337344,-114.1810592,54%,73%,34%,51%,33%,23.0,32,45,50,18,4.12,3.12,42.11%,22.09%,57.67%,39
Chester,Montana,1076,2196,None,8027993,$43750,24.17%,50,N/A,N/A,N/A,50,56.78%,$579,46.5%,N/A,N/A,16.3%,0.0%,48.05%,Liberty County,21.40%,72.60%,0.0%,0.0%,97.58%,1.21%,0.0%,N/A,83,31,52,14.69,60,61.6,6.9,96,2865,3.7,0.49,MT-14200,48.511293,-110.9661429,67%,82%,51%,49%,33%,24.8,28,43,53,5,4.84,2.14,23.89%,27.03%,21.11%,21
Chinook,Montana,1225,2356,None,8027993,$41339,37.58%,46,N/A,N/A,N/A,63,73.31%,$504,52.27%,N/A,N/A,16.57%,2.03%,70.91%,Blaine County,44.80%,47.20%,0.0%,1.55%,90.69%,0.98%,0.24%,N/A,86,28,58,14.21,78,44.0,N/A,94,2214,3.6,0.52,MT-14575,48.5901284,-109.2318202,67%,82%,51%,49%,33%,24.8,28,43,54,5,5.19,1.21,25.84%,26.15%,25.44%,27
Choteau,Montana,1878,1286,None,8027993,$52500,22.88%,43,N/A,N/A,N/A,62,66.55%,$820,49.15%,N/A,N/A,11.54%,2.19%,57.35%,Teton County,25.30%,68.10%,0.0%,1.65%,93.5%,0.27%,1.54%,N/A,83,36,47,12.06,73,55.9,6.9,96,3516,3.9,1.46,MT-14650,47.8136733,-112.1793986,58%,73%,43%,46%,33%,24.8,28,43,49,13,3.99,1.3,23.15%,23.96%,21.56%,32
Churchill,Montana,989,279,Bozeman,66756,$69728,39.38%,42,N/A,N/A,N/A,35,85.06%,$1130,26.36%,N/A,N/A,3.99%,0.91%,62.39%,Gallatin County,45.10%,44.20%,1.31%,0.0%,94.74%,3.94%,1.82%,N/A,87,31,56,13.03,97,46.8,6.9,93,4047,3.8,3.55,MT-14875,45.7499549,-111.3102527,57%,71%,42%,46%,32%,28.0,27,42,50,9,4.26,1.14,29.34%,29.45%,20.78%,26
Circle,Montana,511,655,None,8027993,$47250,13.53%,36,N/A,N/A,N/A,60,72.1%,$531,31.01%,N/A,N/A,7.54%,0.0%,63.94%,McCone County,14.10%,78.70%,0.0%,0.0%,97.46%,0.0%,0.0%,N/A,88,30,58,15.4,55,44.1,N/A,96,2268,3.7,0.78,MT-14950,47.4176639,-105.5870406,60%,73%,52%,52%,35%,27.4,30,48,58,10,5.98,1.35,17.75%,22.09%,15.89%,33
Clancy,Montana,1964,50,Helena,66633,$89205,38.21%,44,N/A,N/A,N/A,36,93.2%,N/A,37.89%,N/A,N/A,1.26%,3.17%,57.58%,Jefferson County,29.80%,62.20%,0.0%,0.0%,91.4%,0.61%,0.56%,N/A,83,33,50,18.93,90,37.6,6.9,93,4272,3.6,39.17,MT-15100,46.4492649,-112.0029237,57%,71%,42%,46%,32%,28.0,27,42,44,10,5.68,2.66,32.08%,23.3%,35.44%,23
Clinton,Montana,661,202,Missoula,90782,$72125,24.8%,43,N/A,N/A,N/A,29,92.74%,$830,43.03%,N/A,N/A,14.98%,3.73%,71.66%,Missoula County,51.90%,36.60%,3.93%,0.0%,80.33%,0.91%,1.21%,Mountain Standard Time,85,32,53,21.29,108,45.2,5.4,83,3042,3.1,3.27,MT-15475,46.771794,-113.7168937,54%,73%,34%,51%,33%,23.0,32,45,42,10,3.94,5.38,44.0%,21.87%,61.33%,39
Clyde Park,Montana,248,670,None,8027993,$43693,13.37%,56,N/A,N/A,N/A,44,65.73%,$825,32.72%,N/A,N/A,15.73%,0.0%,51.87%,Park County,38.40%,53.20%,0.0%,0.0%,96.37%,0.0%,1.61%,N/A,85,31,54,14.62,95,116.8,6.9,96,4587,3.6,0.37,MT-15550,45.8839439,-110.6057863,57%,71%,42%,46%,32%,28.0,27,42,49,12,4.47,1.3,20.36%,23.41%,14.0%,37
Colstrip,Montana,2335,577,None,8027993,$90263,18.44%,47,N/A,N/A,N/A,37,85.31%,$791,36.09%,88,220,6.17%,4.52%,77.09%,Rosebud County,28.60%,65.20%,2.61%,0.0%,73.96%,9.04%,4.8%,N/A,87,35,52,17.63,78,41.0,7.2,88,2943,3.7,4.05,MT-16525,45.8943066,-106.6280581,60%,71%,52%,51%,37%,27.4,30,48,58,13,4.71,2.12,25.78%,25.38%,23.56%,27
Columbia Falls,Montana,5651,2569,Kalispell,54604,$48427,25.88%,41,N/A,N/A,N/A,43,64.39%,$785,41.56%,193,1211,10.31%,5.32%,61.82%,Flathead County,28.00%,63.70%,0.42%,0.0%,95.66%,1.8%,1.91%,N/A,84,31,53,16.72,127,56.3,5.4,79,2703,3.2,2.2,MT-16600,48.3708216,-114.1903118,54%,73%,34%,54%,38%,21.1,31,46,48,17,4.39,4.2,36.79%,26.48%,47.56%,36
Columbus,Montana,1964,1434,None,8027993,$55438,25.02%,41,N/A,N/A,N/A,48,76.99%,$750,47.73%,N/A,N/A,6.14%,6.15%,64.82%,Stillwater County,18.60%,75.10%,0.61%,0.0%,96.38%,0.97%,0.2%,N/A,86,36,50,15.83,78,59.4,7.2,91,3294,3.7,1.37,MT-16825,45.6359665,-109.2487858,58%,70%,45%,45%,34%,26.4,29,45,51,10,4.0,1.98,25.51%,29.67%,20.33%,30
Condon,Montana,282,13,Missoula,90782,$50179,24.33%,64,N/A,N/A,N/A,35,96.44%,N/A,34.91%,N/A,N/A,23.05%,0.0%,28.36%,Missoula County,51.90%,36.60%,0.0%,0.0%,97.52%,2.48%,1.77%,Mountain Standard Time,80,29,51,40.18,137,143.2,5.4,89,4344,3.1,21.4,MT-17050,47.5225133,-113.6986391,54%,73%,34%,51%,33%,23.0,32,45,51,16,4.64,14.89,39.95%,19.89%,57.22%,79
Conner,Montana,95,53,None,8027993,$63333,4.94%,61,N/A,N/A,N/A,40,85.26%,N/A,68.6%,N/A,N/A,18.95%,0.0%,44.44%,Ravalli County,27.60%,65.70%,0.0%,0.0%,94.74%,5.26%,0.0%,N/A,83,33,50,14.09,110,47.0,5.4,89,3549,3,1.78,MT-17200,45.928969,-114.1326066,54%,73%,34%,51%,33%,23.0,32,45,50,18,4.12,3.12,40.93%,27.03%,50.11%,20
Conrad,Montana,2624,2066,None,8027993,$48889,21.83%,40,N/A,N/A,N/A,63,83.29%,$756,44.43%,N/A,N/A,15.77%,5.26%,61.34%,Pondera County,27.10%,66.10%,0.0%,0.15%,96.46%,0.69%,0.46%,N/A,84,33,51,13.45,69,55.0,6.9,95,3246,3.9,1.27,MT-17275,48.1740833,-111.9465917,58%,73%,43%,46%,33%,24.8,28,43,52,12,3.97,1.8,20.16%,21.98%,18.22%,23
Cooke City,Montana,69,7,None,8027993,$53281,31.58%,36,N/A,N/A,N/A,36,43.48%,$1125,19.05%,N/A,N/A,0.0%,0.0%,80.95%,Park County,38.40%,53.20%,0.0%,0.0%,94.2%,5.8%,7.25%,N/A,75,24,51,40.33,85,221.5,7.2,96,7956,3.6,9.54,MT-17350,45.0186883,-109.9119002,58%,70%,45%,45%,34%,26.4,29,45,40,1,6.81,12.59,43.81%,31.21%,52.22%,60
Coram,Montana,302,81,Kalispell,54604,$42778,15.02%,39,N/A,N/A,N/A,43,80.79%,N/A,34.55%,N/A,N/A,10.93%,6.56%,57.28%,Flathead County,28.00%,63.70%,0.0%,0.0%,89.4%,0.0%,0.0%,N/A,82,29,53,42.43,139,56.3,5.4,91,3978,3.2,3.71,MT-17500,48.4306142,-114.0444426,54%,73%,34%,54%,38%,21.1,31,46,50,20,6.86,13.3,39.01%,23.96%,51.89%,36
Corvallis,Montana,1755,3026,None,8027993,$52689,12.63%,35,N/A,N/A,N/A,19,68.09%,$848,61.25%,N/A,N/A,23.13%,3.77%,75.24%,Ravalli County,27.60%,65.70%,0.0%,1.37%,92.48%,3.42%,0.0%,N/A,87,35,52,10.79,107,45.2,5.4,83,3300,3,0.58,MT-17725,46.3139565,-114.112083,54%,73%,34%,51%,33%,23.0,32,45,51,19,2.72,2.31,29.89%,21.76%,33.78%,39
Corwin Springs,Montana,110,78,None,8027993,$34375,31.78%,62,N/A,N/A,N/A,32,82.18%,$267,57.27%,N/A,N/A,5.45%,4.49%,83.18%,Park County,38.40%,53.20%,0.0%,8.18%,50.91%,35.45%,35.45%,N/A,88,33,55,13.48,138,92.4,6.9,96,4824,3.6,1.41,MT-17800,45.1277824,-110.7997291,57%,71%,42%,46%,32%,28.0,27,42,54,16,3.59,2.22,35.67%,31.1%,41.56%,66
Craig,Montana,16,53,Helena,66633,$32500,25.0%,56,N/A,N/A,N/A,40,75.0%,N/A,100.0%,N/A,N/A,12.5%,0.0%,68.75%,Lewis and Clark County,41.00%,47.90%,0.0%,0.0%,100.0%,0.0%,0.0%,N/A,87,36,51,15.57,80,37.6,6.9,94,3189,3.9,0.3,MT-18025,47.0743991,-111.9645453,57%,71%,42%,46%,32%,28.0,27,42,52,20,4.65,1.93,26.25%,22.97%,27.0%,23
Crane,Montana,247,98,None,8027993,$71667,55.56%,43,N/A,N/A,N/A,37,97.57%,N/A,48.4%,N/A,N/A,5.26%,2.75%,57.98%,Richland County,13.80%,80.20%,0.0%,0.0%,100.0%,0.0%,0.0%,N/A,89,31,58,16.47,77,63.7,N/A,92,1755,3.7,2.52,MT-18100,47.5771702,-104.2508542,60%,73%,52%,58%,47%,27.9,29,50,58,9,5.98,1.48,18.19%,23.74%,12.44%,43
Crow Agency,Montana,1972,269,None,8027993,$27632,7.75%,25,N/A,N/A,N/A,37,61.31%,$582,65.15%,N/A,N/A,48.33%,33.73%,47.33%,Big Horn County,49.40%,43.70%,0.0%,0.0%,1.06%,5.17%,0.0%,N/A,92,37,55,16.55,74,52.7,7.2,91,2634,3.7,7.34,MT-18250,45.6026547,-107.459157,58%,70%,45%,45%,34%,26.4,29,45,56,12,4.3,2.03,23.45%,19.23%,26.44%,28
Culbertson,Montana,665,652,None,8027993,$75833,25.87%,43,N/A,N/A,N/A,54,89.15%,$850,31.83%,N/A,N/A,4.03%,4.56%,66.13%,Roosevelt County,42.70%,49.20%,0.0%,0.6%,83.76%,1.2%,0.0%,N/A,87,27,60,15.51,74,44.2,N/A,94,1773,3.7,1.02,MT-18475,48.1447919,-104.5181157,60%,73%,52%,58%,47%,27.9,29,50,56,5,6.45,1.29,25.67%,32.53%,21.0%,33
Custer,Montana,151,472,Billings,131182,$53333,12.4%,60,N/A,N/A,N/A,78,78.15%,$575,67.72%,N/A,N/A,23.84%,3.41%,69.29%,Yellowstone County,31.50%,58.10%,0.0%,0.0%,92.05%,7.28%,0.0%,Mountain Standard Time,88,35,53,15.87,72,47.4,7.2,89,2442,3.8,0.32,MT-18700,46.1292266,-107.5555489,58%,70%,45%,45%,34%,26.4,29,45,58,14,4.74,1.77,27.4%,29.23%,24.67%,35
Cut Bank,Montana,3049,2628,None,8027993,$42616,23.37%,40,N/A,N/A,N/A,67,67.19%,$674,51.68%,1184,3752,25.29%,1.92%,59.1%,Glacier County,61.50%,31.90%,0.07%,0.59%,66.91%,1.77%,1.48%,N/A,82,31,51,15.85,65,39.9,5.4,95,3429,3.1,1.16,MT-18775,48.6343467,-112.330422,58%,73%,43%,46%,33%,24.8,28,43,50,12,4.69,2.16,20.0%,22.97%,15.33%,24
Darby,Montana,685,1087,None,8027993,$29777,13.92%,41,N/A,N/A,N/A,46,49.63%,$735,59.84%,N/A,N/A,21.67%,11.54%,51.32%,Ravalli County,27.60%,65.70%,6.42%,0.15%,82.19%,3.07%,2.34%,N/A,83,33,50,14.09,109,45.2,5.4,91,3549,3,0.63,MT-19300,46.023245,-114.1788067,54%,73%,34%,51%,33%,23.0,32,45,50,18,4.12,3.12,42.11%,22.09%,57.67%,39
Dayton,Montana,111,202,None,8027993,$72188,40.21%,66,N/A,N/A,N/A,44,54.95%,N/A,15.69%,N/A,N/A,0.0%,0.0%,23.53%,Lake County,36.20%,57.10%,0.0%,0.0%,94.59%,0.0%,2.7%,N/A,82,35,47,24.76,108,56.3,5.4,88,5166,3.1,0.55,MT-19525,47.8643487,-114.2765082,54%,73%,34%,54%,38%,21.1,31,46,56,26,4.59,7.27,32.19%,18.24%,43.0%,36
Deer Lodge,Montana,2893,1916,None,8027993,$36168,22.96%,51,N/A,N/A,N/A,67,59.5%,$656,36.6%,242,588,21.14%,0.0%,54.6%,Powell County,19.70%,72.60%,0.73%,0.86%,94.09%,0.97%,1.35%,N/A,82,32,50,14.78,82,37.6,6.9,95,4434,3.7,1.51,MT-19825,46.3980732,-112.7333842,57%,71%,42%,46%,32%,28.0,27,42,45,11,4.94,1.43,46.49%,29.45%,55.78%,23
Denton,Montana,239,337,None,8027993,$50000,31.82%,48,N/A,N/A,N/A,78,78.66%,$668,35.89%,N/A,N/A,6.28%,0.0%,69.31%,Fergus County,20.60%,73.10%,0.0%,0.0%,92.05%,1.26%,0.84%,N/A,82,35,47,19.84,85,46.6,6.9,97,4443,3.7,0.71,MT-20425,47.322167,-109.9481613,58%,73%,43%,46%,33%,24.8,28,43,53,14,6.39,2.09,31.51%,33.19%,26.67%,30
Dillon,Montana,4333,2281,None,8027993,$35304,30.07%,31,N/A,N/A,N/A,57,56.68%,$714,57.72%,187,304,24.11%,4.46%,56.75%,Beaverhead County,23.60%,69.10%,0.3%,0.16%,91.53%,3.6%,0.42%,N/A,85,31,54,11.34,70,46.8,6.9,92,4689,4.1,1.9,MT-20800,45.2178762,-112.6345787,57%,71%,42%,46%,32%,28.0,27,42,48,12,3.36,1.24,24.0%,23.74%,20.56%,26
Dixon,Montana,252,38,None,8027993,$31250,25.61%,46,N/A,N/A,N/A,41,71.83%,$638,48.47%,N/A,N/A,26.8%,3.45%,45.55%,Sanders County,20.50%,72.00%,0.0%,0.0%,60.32%,2.78%,2.38%,N/A,88,32,56,37.04,111,51.8,5.4,92,5625,3.2,6.63,MT-20950,47.3172265,-114.3569525,54%,73%,34%,51%,33%,23.0,32,45,49,18,5.6,11.82,40.14%,21.54%,54.44%,39
Dodson,Montana,128,753,None,8027993,$33472,2.88%,77,N/A,N/A,N/A,47,91.41%,N/A,28.7%,N/A,N/A,12.5%,42.31%,22.61%,Phillips County,14.60%,79.40%,0.0%,0.0%,72.66%,4.69%,0.0%,N/A,87,30,57,13.39,62,44.0,N/A,94,2070,3.7,0.17,MT-21025,48.3953385,-108.2472421,67%,82%,51%,49%,33%,26.1,28,47,58,9,4.87,1.42,23.67%,27.58%,18.11%,27
Drummond,Montana,288,533,None,8027993,$29219,26.74%,43,N/A,N/A,N/A,73,64.24%,$545,33.84%,N/A,N/A,19.79%,0.0%,55.21%,Granite County,26.60%,67.10%,0.0%,2.43%,90.63%,0.0%,0.35%,N/A,85,32,53,25.69,95,45.2,5.4,91,5715,3,0.54,MT-21850,46.6665852,-113.1470425,54%,73%,34%,51%,33%,23.0,32,45,42,10,4.62,7.25,31.95%,18.57%,41.67%,39
Dupuyer,Montana,100,22,None,8027993,$47500,9.0%,74,N/A,N/A,N/A,47,96.0%,N/A,36.0%,N/A,N/A,2.0%,2.13%,47.0%,Pondera County,27.10%,66.10%,0.0%,0.0%,88.0%,0.0%,0.0%,N/A,82,33,49,28.36,75,55.0,5.4,97,5259,3.9,4.65,MT-22450,48.1868367,-112.4770336,58%,73%,43%,46%,33%,24.8,28,43,53,15,6.12,5.65,30.74%,21.21%,32.89%,23
Dutton,Montana,224,700,None,8027993,$46000,20.22%,55,N/A,N/A,N/A,68,85.27%,$388,45.67%,N/A,N/A,11.61%,4.17%,59.8%,Teton County,25.30%,68.10%,0.0%,0.0%,94.2%,0.89%,1.34%,N/A,83,34,49,13.84,77,55.9,6.9,95,3234,3.9,0.32,MT-22600,47.847539,-111.7143052,58%,73%,43%,46%,33%,24.8,28,43,51,11,4.73,1.37,16.66%,19.12%,13.89%,32
East Glacier Park Village,Montana,315,72,None,8027993,$44464,51.77%,41,N/A,N/A,N/A,44,71.11%,$745,54.98%,N/A,N/A,26.98%,8.84%,60.74%,Glacier County,61.50%,31.90%,0.63%,0.0%,51.75%,0.0%,0.63%,N/A,76,29,47,30.43,120,56.3,5.4,97,4395,3.1,4.36,MT-22985,48.445916,-113.2235012,58%,73%,43%,54%,38%,21.1,31,46,47,11,6.21,8.17,42.99%,21.65%,59.89%,36
East Helena,Montana,1684,419,Helena,66633,$57652,22.49%,41,N/A,N/A,N/A,57,77.26%,$856,51.33%,524,2621,0.83%,2.3%,67.8%,Lewis and Clark County,41.00%,47.90%,1.96%,0.0%,81.89%,8.43%,0.12%,N/A,88,32,56,11.59,87,37.6,6.9,89,3501,3.9,4.02,MT-23125,46.5849871,-111.9158644,57%,71%,42%,46%,32%,28.0,27,42,56,14,3.75,1.66,24.44%,23.63%,23.67%,23
East Missoula,Montana,2214,1830,Missoula,90782,$53155,30.02%,40,N/A,N/A,N/A,44,77.51%,$963,45.94%,N/A,N/A,11.83%,10.51%,64.91%,Missoula County,51.90%,36.60%,0.32%,0.0%,92.28%,2.62%,0.81%,Mountain Standard Time,87,31,56,20.18,119,45.2,5.4,79,3246,3.1,1.21,MT-23200,46.8800877,-113.940054,54%,73%,34%,51%,33%,23.0,32,45,52,18,4.7,4.62,34.11%,24.62%,42.11%,39
Edgar,Montana,148,218,Billings,131182,$85509,4.63%,53,N/A,N/A,N/A,38,74.32%,N/A,52.03%,N/A,N/A,7.43%,34.04%,76.42%,Carbon County,30.50%,62.60%,0.0%,0.0%,94.59%,0.0%,0.0%,Mountain Standard Time,87,35,52,13.9,71,54.7,7.2,94,3219,3.9,0.68,MT-23500,45.4636495,-108.855259,58%,70%,45%,45%,34%,26.4,29,45,50,11,3.86,1.37,23.23%,24.73%,16.78%,28
Ekalaka,Montana,392,381,None,8027993,$51000,16.31%,59,N/A,N/A,N/A,58,62.5%,$598,54.62%,N/A,N/A,12.23%,6.03%,54.52%,Carter County,8.90%,86.30%,0.0%,0.0%,92.09%,0.0%,0.77%,N/A,87,33,54,18.48,77,56.1,7.2,94,3138,3.8,1.03,MT-23650,45.8896838,-104.5506136,60%,71%,52%,51%,37%,27.4,30,48,58,11,6.05,1.73,27.32%,29.01%,25.89%,41
Elliston,Montana,185,23,None,8027993,$57188,22.86%,46,N/A,N/A,N/A,45,79.46%,$588,34.62%,N/A,N/A,7.03%,2.2%,61.33%,Powell County,19.70%,72.60%,0.0%,0.0%,94.59%,0.0%,0.0%,N/A,82,30,52,19.54,87,37.6,6.9,93,4644,3.7,8.1,MT-23950,46.558691,-112.4638445,57%,71%,42%,46%,32%,28.0,27,42,46,10,5.11,3.37,32.08%,23.3%,35.44%,23
Elmo,Montana,252,788,None,8027993,$27727,0.0%,16,N/A,N/A,N/A,32,17.06%,N/A,84.62%,N/A,N/A,25.79%,30.56%,72.0%,Lake County,36.20%,57.10%,0.0%,0.0%,17.06%,0.0%,0.0%,N/A,85,32,53,24.76,108,56.3,5.4,88,5166,3.1,0.32,MT-24100,47.8290242,-114.3483487,54%,73%,34%,54%,38%,21.1,31,46,53,22,4.59,7.27,32.19%,18.24%,43.0%,36
Emigrant,Montana,301,28,None,8027993,$32417,50.85%,55,N/A,N/A,N/A,29,52.24%,$682,77.27%,N/A,N/A,36.54%,20.31%,44.76%,Park County,38.40%,53.20%,0.0%,0.0%,100.0%,0.0%,7.31%,N/A,84,33,51,47.83,97,92.4,6.9,97,7407,3.6,10.77,MT-24325,45.3754641,-110.7464475,57%,71%,42%,46%,32%,28.0,27,42,53,19,8.71,11.43,47.23%,34.51%,54.67%,66
Ennis,Montana,721,974,None,8027993,$46691,16.56%,52,N/A,N/A,N/A,45,71.87%,$681,53.31%,294,392,11.68%,0.0%,60.84%,Madison County,24.90%,69.50%,0.0%,0.28%,87.52%,3.88%,3.05%,N/A,85,33,52,13.33,94,46.8,6.9,98,4530,3.6,0.74,MT-24475,45.3461259,-111.731894,57%,71%,42%,46%,32%,28.0,27,42,45,14,4.36,1.29,28.27%,29.89%,21.78%,26
Eureka,Montana,1517,1141,None,8027993,$25625,8.64%,50,N/A,N/A,N/A,45,66.04%,$753,49.04%,88,711,34.98%,17.82%,54.08%,Lincoln County,21.90%,72.10%,0.0%,0.0%,91.96%,2.24%,0.0%,N/A,87,32,55,14.92,103,33.4,5.4,93,2316,3,1.33,MT-24850,48.8789432,-115.0491768,52%,73%,28%,54%,38%,21.1,31,46,54,20,4.41,3.06,27.75%,22.75%,31.11%,15
Evaro,Montana,401,23,Missoula,90782,$53846,22.71%,53,N/A,N/A,N/A,45,65.59%,$923,46.43%,N/A,N/A,1.25%,27.13%,47.25%,Missoula County,51.90%,36.60%,0.0%,1.0%,55.11%,0.0%,0.0%,Mountain Standard Time,87,32,55,21.61,119,44.8,5.4,89,3879,3.1,17.16,MT-25000,47.0737072,-114.0206063,54%,73%,34%,51%,33%,23.0,32,45,55,19,4.44,5.45,44.0%,21.87%,61.33%,38
Evergreen,Montana,8416,984,Kalispell,54604,$59338,16.9%,38,N/A,N/A,N/A,43,80.87%,$1094,40.37%,N/A,N/A,7.45%,3.99%,68.17%,Flathead County,28.00%,63.70%,0.52%,0.0%,90.03%,6.38%,2.89%,N/A,84,31,53,16.72,129,56.3,5.4,78,2703,3.2,8.55,MT-25075,48.2308358,-114.2700533,54%,73%,34%,54%,38%,21.1,31,46,48,17,4.39,4.2,36.79%,26.48%,47.56%,36
Fairfield,Montana,690,2226,None,8027993,$63365,24.66%,33,N/A,N/A,N/A,62,70.43%,$657,41.37%,N/A,N/A,13.04%,0.35%,54.83%,Teton County,25.30%,68.10%,1.01%,2.03%,94.2%,0.0%,2.03%,N/A,81,34,47,12.46,78,55.9,6.9,93,3642,3.9,0.31,MT-25225,47.6153449,-111.98141,58%,73%,43%,46%,33%,24.8,28,43,54,15,4.28,1.31,16.66%,19.12%,13.89%,32
Fairview,Montana,985,1231,None,8027993,$79500,13.64%,36,N/A,N/A,N/A,51,76.04%,$733,45.29%,N/A,N/A,5.79%,11.23%,66.07%,Richland County,13.80%,80.20%,0.0%,0.0%,84.26%,13.6%,0.91%,N/A,88,29,59,16.55,78,38.5,N/A,93,1767,3.7,0.8,MT-25300,47.8520265,-104.0508943,60%,73%,52%,58%,47%,27.9,29,50,58,9,6.65,1.52,27.21%,31.98%,26.56%,38
Fallon,Montana,215,42,None,8027993,$60625,2.94%,18,N/A,N/A,N/A,66,12.56%,$748,60.61%,N/A,N/A,25.58%,0.0%,49.57%,Prairie County,14.50%,80.70%,10.23%,0.0%,88.84%,0.93%,11.16%,N/A,89,30,59,14.68,55,63.7,N/A,94,2058,3.8,5.08,MT-25375,46.8372753,-105.12702,60%,73%,52%,58%,47%,27.4,30,48,59,8,5.32,1.1,18.52%,20.22%,16.0%,43
Finley Point,Montana,486,114,None,8027993,$31438,30.54%,61,N/A,N/A,N/A,41,81.28%,$742,43.0%,N/A,N/A,2.47%,8.33%,41.65%,Lake County,36.20%,57.10%,0.0%,0.0%,87.65%,0.0%,7.2%,N/A,82,35,47,33.51,108,143.2,5.4,89,4500,3.1,4.27,MT-26226,47.7463515,-114.066591,54%,73%,34%,54%,38%,21.1,31,46,56,26,6.08,9.24,35.81%,20.99%,47.67%,79
Flaxville,Montana,23,288,None,8027993,$50625,36.36%,55,N/A,N/A,N/A,59,78.26%,N/A,30.43%,N/A,N/A,0.0%,0.0%,82.61%,Daniels County,17.50%,75.90%,0.0%,0.0%,82.61%,17.39%,21.74%,N/A,85,24,61,14.32,73,44.2,N/A,97,2187,3.8,0.08,MT-26800,48.8044859,-105.1736293,60%,73%,52%,52%,35%,26.1,28,47,52,1,6.25,0.94,23.34%,28.9%,18.56%,33
Florence,Montana,805,1045,None,8027993,$42411,36.6%,38,N/A,N/A,N/A,40,91.06%,$693,38.8%,N/A,N/A,3.48%,18.47%,50.56%,Ravalli County,27.60%,65.70%,0.0%,0.0%,82.11%,5.47%,0.0%,N/A,88,34,54,14.05,117,45.2,5.4,91,3255,3,0.77,MT-26950,46.6344859,-114.0813467,54%,73%,34%,51%,33%,23.0,32,45,50,19,3.92,3.23,25.97%,21.32%,27.67%,39
Forest Hill Village,Montana,99,64,Kalispell,54604,$45096,25.84%,57,N/A,N/A,N/A,26,77.78%,N/A,76.77%,N/A,N/A,27.27%,0.0%,69.66%,Flathead County,28.00%,63.70%,0.0%,0.0%,100.0%,0.0%,0.0%,N/A,82,32,50,18.82,129,56.3,5.4,89,2685,3.2,1.54,MT-27595,48.1208193,-114.2618574,54%,73%,34%,54%,38%,21.1,31,46,51,19,5.29,4.44,35.56%,27.36%,41.67%,36
Forsyth,Montana,1596,1388,None,8027993,$49257,14.08%,40,N/A,N/A,N/A,56,65.75%,$561,38.52%,N/A,N/A,9.35%,0.0%,51.94%,Rosebud County,28.60%,65.20%,0.19%,0.0%,82.14%,6.7%,1.07%,N/A,89,34,55,16.56,76,38.6,7.2,91,2301,3.7,1.15,MT-27700,46.2669038,-106.6748858,58%,70%,45%,45%,34%,27.4,30,48,59,12,4.63,1.96,23.92%,25.6%,21.0%,18
Fort Belknap Agency,Montana,1520,33,None,8027993,$44722,15.02%,25,N/A,N/A,N/A,44,48.56%,$418,69.52%,N/A,N/A,40.14%,25.36%,51.82%,Blaine County,44.80%,47.20%,0.0%,0.0%,3.22%,2.57%,0.0%,N/A,85,29,56,13.7,68,44.0,N/A,95,2310,3.6,45.5,MT-27850,48.4277673,-108.6828983,67%,82%,51%,49%,33%,26.1,28,47,54,8,5.49,1.37,23.67%,27.58%,18.11%,27
Fort Benton,Montana,1410,616,None,8027993,$58802,36.06%,39,N/A,N/A,N/A,64,76.29%,$639,42.16%,N/A,N/A,7.3%,2.08%,58.4%,Chouteau County,28.10%,64.50%,0.43%,0.0%,91.56%,1.21%,0.43%,N/A,88,36,52,14.09,67,46.6,6.9,94,2421,3.9,2.29,MT-28000,47.8290046,-110.6557801,58%,73%,43%,46%,33%,24.8,28,43,54,12,4.56,1.79,25.53%,24.62%,22.56%,30
Fort Peck,Montana,246,276,None,8027993,$77857,26.2%,48,N/A,N/A,N/A,55,80.49%,$696,25.25%,N/A,N/A,0.0%,13.93%,61.31%,Valley County,22.80%,69.30%,0.0%,0.0%,82.93%,0.0%,0.0%,N/A,90,30,60,14.69,80,44.1,N/A,95,1854,3.6,0.89,MT-28450,48.0070503,-106.4551984,60%,73%,52%,52%,35%,26.1,28,47,59,10,5.48,1.44,26.96%,31.87%,25.22%,33
Fort Shaw,Montana,138,24,Great Falls,69250,$62667,9.92%,66,N/A,N/A,N/A,45,100.0%,N/A,25.62%,N/A,N/A,0.0%,0.0%,36.36%,Cascade County,35.20%,56.80%,0.0%,0.0%,89.86%,0.0%,0.0%,Mountain Standard Time,85,35,50,12.46,80,77.4,6.9,92,3291,3.8,5.68,MT-28600,47.4968854,-111.8193451,58%,73%,43%,46%,33%,24.8,28,43,49,13,4.28,1.31,16.66%,19.12%,13.89%,44
Fort Smith,Montana,160,116,None,8027993,$40750,28.8%,61,N/A,N/A,N/A,42,88.75%,N/A,51.11%,N/A,N/A,31.87%,0.0%,48.89%,Big Horn County,49.40%,43.70%,0.0%,0.0%,100.0%,0.0%,0.0%,N/A,90,38,52,18.21,81,10.3,7.2,95,3021,3.7,1.38,MT-28650,45.3134377,-107.9296551,58%,70%,45%,45%,34%,26.4,29,45,60,19,4.07,2.63,36.47%,24.84%,41.11%,3
Fortine,Montana,435,61,None,8027993,$58542,17.02%,39,N/A,N/A,N/A,29,60.0%,$907,47.46%,N/A,N/A,5.52%,0.0%,53.85%,Lincoln County,21.90%,72.10%,1.38%,0.0%,82.53%,10.8%,1.38%,N/A,87,32,55,64.23,102,33.4,5.4,93,5514,3,7.09,MT-28150,48.772292,-114.9007786,54%,73%,34%,54%,38%,21.1,31,46,54,20,9.97,19.82,44.41%,26.37%,56.67%,15
Four Corners,Montana,4859,448,Bozeman,66756,$77907,46.3%,36,N/A,N/A,N/A,15,84.79%,$885,37.49%,N/A,N/A,6.52%,1.09%,77.92%,Gallatin County,45.10%,44.20%,0.0%,0.49%,90.99%,3.44%,2.0%,N/A,84,33,51,17.47,112,46.8,6.9,93,4365,3.8,10.84,MT-28862,45.6697505,-111.1784433,57%,71%,42%,46%,32%,28.0,27,42,52,14,5.3,1.78,40.3%,37.91%,39.89%,26
Fox Lake,Montana,84,20,None,8027993,$56250,38.46%,43,N/A,N/A,N/A,41,39.29%,$482,58.82%,N/A,N/A,7.14%,0.0%,70.59%,Richland County,13.80%,80.20%,0.0%,0.0%,95.24%,0.0%,0.0%,N/A,89,31,58,16.08,72,63.7,N/A,92,2166,3.7,4.18,MT-29087,47.6857801,-104.6329658,60%,73%,52%,58%,47%,27.9,29,50,58,9,6.36,1.37,18.19%,23.74%,12.44%,43
Frazer,Montana,420,259,None,8027993,$30833,4.95%,23,N/A,N/A,N/A,45,39.52%,$381,66.03%,N/A,N/A,35.44%,32.88%,57.94%,Valley County,22.80%,69.30%,0.0%,0.0%,1.43%,0.24%,0.71%,N/A,90,30,60,14.5,68,44.1,N/A,93,1893,3.6,1.62,MT-29275,48.0532164,-106.048155,60%,73%,52%,52%,35%,26.1,28,47,59,10,5.79,1.23,22.22%,31.32%,13.56%,33
Frenchtown,Montana,1741,258,Missoula,90782,$69800,23.06%,45,N/A,N/A,N/A,27,86.84%,$930,25.72%,N/A,N/A,1.38%,12.07%,66.01%,Missoula County,51.90%,36.60%,1.03%,1.09%,95.35%,0.0%,2.87%,Mountain Standard Time,87,32,55,21.61,122,44.8,5.4,86,3879,3.1,6.74,MT-29350,47.028737,-114.2461555,54%,73%,34%,51%,33%,23.0,32,45,55,19,4.44,5.45,34.03%,25.38%,41.11%,38
Froid,Montana,384,619,None,8027993,$71719,35.71%,19,N/A,N/A,N/A,71,73.18%,N/A,55.66%,N/A,N/A,3.24%,0.0%,59.91%,Roosevelt County,42.70%,49.20%,0.0%,0.0%,45.57%,11.46%,7.29%,N/A,85,23,62,14.88,69,44.2,N/A,94,1908,3.7,0.62,MT-29500,48.3380433,-104.4908415,60%,73%,52%,58%,47%,27.9,29,50,55,2,6.62,1.06,25.67%,32.53%,21.0%,33
Fromberg,Montana,395,898,Billings,131182,$46250,22.26%,52,N/A,N/A,N/A,47,88.61%,$925,35.06%,N/A,N/A,12.56%,6.1%,51.38%,Carbon County,30.50%,62.60%,0.0%,0.0%,95.19%,4.3%,0.0%,Mountain Standard Time,89,35,54,13.9,75,54.7,7.2,94,3219,3.9,0.44,MT-29575,45.3920335,-108.9064799,58%,70%,45%,45%,34%,26.4,29,45,53,14,3.86,1.37,23.23%,24.73%,16.78%,28
Gallatin Gateway,Montana,798,136,Bozeman,66756,$61667,37.02%,47,N/A,N/A,N/A,34,83.33%,$981,41.37%,N/A,N/A,6.8%,3.97%,66.88%,Gallatin County,45.10%,44.20%,0.88%,0.0%,85.84%,6.14%,3.13%,N/A,84,33,51,17.47,118,46.8,6.9,96,4365,3.8,5.85,MT-29875,45.5898032,-111.195309,57%,71%,42%,46%,32%,28.0,27,42,52,14,5.3,1.78,40.3%,37.91%,39.89%,26
Gallatin River Ranch,Montana,120,17,Bozeman,66756,$138281,38.27%,44,N/A,N/A,N/A,15,100.0%,N/A,5.81%,N/A,N/A,0.0%,0.0%,84.88%,Gallatin County,45.10%,44.20%,0.0%,0.0%,95.83%,0.0%,0.0%,N/A,86,32,54,16.27,97,46.8,6.9,94,3879,3.8,7.08,MT-29885,45.9072184,-111.3312514,57%,71%,42%,46%,32%,28.0,27,42,50,10,4.9,1.58,29.34%,29.45%,20.78%,26
Gardiner,Montana,893,154,None,8027993,$55521,45.86%,41,N/A,N/A,N/A,38,50.06%,$713,47.76%,N/A,N/A,4.59%,0.45%,83.08%,Park County,38.40%,53.20%,0.0%,0.0%,86.11%,3.02%,5.15%,N/A,88,33,55,13.48,138,92.4,6.9,96,4824,3.6,5.79,MT-29950,45.0570426,-110.7422248,58%,70%,45%,45%,34%,26.4,29,45,54,16,3.59,2.22,35.67%,31.1%,41.56%,66
Garrison,Montana,88,9,None,8027993,$36875,0.0%,38,N/A,N/A,N/A,52,76.14%,$400,37.31%,N/A,N/A,14.77%,17.39%,37.7%,Powell County,19.70%,72.60%,0.0%,0.0%,100.0%,0.0%,0.0%,N/A,82,32,50,14.78,99,37.6,6.9,93,4434,3.7,9.63,MT-30175,46.5259505,-112.8204644,57%,71%,42%,46%,32%,28.0,27,42,45,11,4.94,1.43,46.49%,29.45%,55.78%,23
Geraldine,Montana,174,305,None,8027993,$38125,26.06%,57,N/A,N/A,N/A,66,83.91%,$625,42.77%,N/A,N/A,14.37%,0.0%,53.61%,Chouteau County,28.10%,64.50%,0.0%,0.0%,98.28%,1.72%,2.87%,N/A,81,36,45,17.2,92,46.6,6.9,95,2886,3.9,0.57,MT-30400,47.6021749,-110.2661972,58%,73%,43%,46%,33%,24.8,28,43,54,18,5.61,1.99,25.53%,24.62%,22.56%,30
Geyser,Montana,78,88,None,8027993,$30938,17.39%,57,N/A,N/A,N/A,51,60.26%,$943,52.17%,N/A,N/A,33.33%,0.0%,55.07%,Judith Basin County,19.50%,72.20%,0.0%,0.0%,100.0%,0.0%,0.0%,N/A,82,35,47,19.84,94,46.6,6.9,98,4443,3.9,0.89,MT-30550,47.2633232,-110.4926927,58%,73%,43%,46%,33%,24.8,28,43,53,14,6.39,2.09,32.99%,33.74%,31.22%,30
Gibson Flats,Montana,205,61,Great Falls,69250,$68446,23.23%,61,N/A,N/A,N/A,67,100.0%,N/A,7.74%,N/A,N/A,5.85%,52.78%,23.23%,Cascade County,35.20%,56.80%,0.0%,0.0%,67.32%,0.0%,0.0%,Mountain Standard Time,87,35,52,16.11,90,76.8,6.9,87,3204,3.8,3.34,MT-30625,47.4640114,-111.2404291,58%,73%,43%,46%,33%,24.8,28,43,56,19,4.82,2.32,24.36%,23.3%,23.67%,44
Gildford,Montana,188,165,None,8027993,$63083,32.35%,33,N/A,N/A,N/A,67,93.09%,N/A,40.44%,N/A,N/A,2.13%,0.0%,36.03%,Hill County,36.80%,54.00%,0.0%,0.0%,100.0%,0.0%,0.0%,N/A,85,30,55,12.9,57,44.0,N/A,96,2580,3.8,1.14,MT-30700,48.5737234,-110.3070951,67%,82%,51%,49%,33%,24.8,28,43,51,7,4.55,1.4,17.97%,22.2%,14.0%,27
Glasgow,Montana,3332,2380,None,8027993,$50541,21.01%,42,N/A,N/A,N/A,58,69.92%,$594,48.3%,419,1049,12.43%,4.08%,68.84%,Valley County,22.80%,69.30%,0.0%,0.84%,90.88%,1.17%,1.14%,N/A,87,27,60,14.6,82,44.1,N/A,85,1911,3.6,1.4,MT-31075,48.1990272,-106.632077,60%,73%,52%,52%,35%,26.1,28,47,59,6,5.66,1.52,26.96%,31.87%,25.22%,33
Glendive,Montana,5030,1450,None,8027993,$47541,28.53%,43,N/A,N/A,N/A,53,60.51%,$687,46.54%,100,282,10.82%,2.92%,63.18%,Dawson County,17.80%,75.30%,0.0%,0.87%,94.99%,2.62%,1.55%,N/A,89,31,58,15.92,74,63.7,N/A,88,1899,3.5,3.47,MT-31450,47.1101853,-104.7069117,60%,73%,52%,58%,47%,27.4,30,48,61,11,6.11,1.23,22.96%,27.25%,18.78%,43
Grass Range,Montana,121,864,None,8027993,$40938,8.08%,63,N/A,N/A,N/A,42,88.43%,$571,56.36%,N/A,N/A,19.01%,0.0%,45.79%,Fergus County,20.60%,73.10%,0.0%,0.0%,94.21%,5.79%,0.83%,N/A,85,36,49,18.22,83,59.1,N/A,97,3192,3.7,0.14,MT-32575,47.0260694,-108.8030766,58%,70%,45%,45%,34%,26.4,29,45,53,14,5.91,1.72,18.58%,20.55%,15.0%,30
Great Falls,Montana,58717,2553,Great Falls,69250,$49809,27.66%,38,N/A,N/A,N/A,56,67.08%,$748,53.29%,515,5806,14.93%,3.79%,63.23%,Cascade County,35.20%,56.80%,0.84%,1.13%,83.71%,5.24%,1.96%,Mountain Standard Time,87,35,52,16.11,90,76.8,6.9,80,3204,3.8,23.0,MT-32800,47.5021931,-111.299581,58%,73%,43%,46%,33%,24.8,28,43,56,19,4.82,2.32,24.36%,23.3%,23.67%,44
Greycliff,Montana,133,261,None,8027993,$78266,0.93%,40,N/A,N/A,N/A,36,78.95%,N/A,27.52%,N/A,N/A,8.27%,1.05%,87.16%,Sweet Grass County,19.10%,75.70%,6.77%,0.0%,49.62%,3.01%,6.77%,N/A,87,36,51,19.19,76,116.8,6.9,95,3993,3.6,0.51,MT-33250,45.7586542,-109.7797931,58%,70%,45%,45%,34%,26.4,29,45,54,19,4.69,2.04,20.68%,22.86%,12.89%,37
Hamilton,Montana,4827,1995,None,8027993,$36117,31.0%,50,N/A,N/A,N/A,51,48.97%,$753,60.89%,368,3033,19.82%,2.41%,51.09%,Ravalli County,27.60%,65.70%,0.37%,0.15%,90.01%,6.15%,5.97%,N/A,85,34,51,15.24,106,45.2,5.4,85,3279,3,2.42,MT-33775,46.2527713,-114.15984,54%,73%,34%,51%,33%,23.0,32,45,50,18,3.31,3.57,29.89%,21.76%,33.78%,39
Happys Inn,Montana,83,8,None,8027993,$41192,69.88%,75,N/A,N/A,N/A,39,100.0%,N/A,69.88%,N/A,N/A,18.07%,0.0%,78.31%,Lincoln County,21.90%,72.10%,0.0%,0.0%,100.0%,0.0%,0.0%,N/A,80,30,50,22.84,128,56.3,5.4,92,3147,3,9.81,MT-34110,48.0637735,-115.1350344,54%,73%,34%,54%,38%,21.1,31,46,41,14,3.29,6.92,33.86%,20.22%,42.33%,36
Hardin,Montana,3777,1272,None,8027993,$49906,26.12%,29,N/A,N/A,N/A,57,45.72%,$735,55.35%,N/A,N/A,20.98%,8.75%,73.06%,Big Horn County,49.40%,43.70%,0.71%,0.0%,36.91%,12.34%,0.69%,N/A,92,37,55,16.55,72,40.3,7.2,87,2634,3.7,2.97,MT-34225,45.7422329,-107.6082342,58%,70%,45%,45%,34%,26.4,29,45,56,12,4.3,2.03,24.14%,25.71%,19.33%,25
Harlem,Montana,866,2062,None,8027993,$50625,27.35%,36,N/A,N/A,N/A,56,59.95%,$628,44.81%,N/A,N/A,16.4%,8.2%,63.26%,Blaine County,44.80%,47.20%,0.69%,0.0%,45.84%,6.58%,2.42%,N/A,85,29,56,13.7,68,44.0,N/A,95,2310,3.6,0.42,MT-34375,48.5318568,-108.7846522,67%,82%,51%,49%,33%,26.1,28,47,54,8,5.49,1.37,23.67%,27.58%,18.11%,27
Harlowton,Montana,1031,1637,None,8027993,$39044,14.89%,47,N/A,N/A,N/A,75,68.0%,$651,50.63%,N/A,N/A,16.07%,2.93%,46.64%,Wheatland County,18.90%,74.20%,0.0%,0.0%,96.9%,2.33%,0.58%,N/A,85,35,50,17.85,73,59.1,6.9,98,3861,3.7,0.63,MT-34450,46.4367759,-109.8351041,58%,70%,45%,45%,34%,26.4,29,45,51,15,6.37,1.96,23.7%,26.37%,20.33%,30
Harrison,Montana,64,356,None,8027993,$41458,10.0%,29,N/A,N/A,N/A,74,37.5%,N/A,40.0%,N/A,N/A,0.0%,0.0%,70.0%,Madison County,24.90%,69.50%,0.0%,0.0%,100.0%,0.0%,0.0%,N/A,86,38,48,39.44,94,46.8,6.9,97,7590,3.6,0.18,MT-34525,45.7043786,-111.7844165,57%,71%,42%,46%,32%,28.0,27,42,57,23,6.99,8.51,40.63%,27.69%,46.11%,26
Havre,Montana,9739,2625,None,8027993,$50635,28.73%,32,N/A,N/A,N/A,58,64.53%,$735,52.37%,N/A,N/A,15.22%,6.8%,64.44%,Hill County,36.80%,54.00%,0.89%,0.36%,80.22%,4.74%,1.3%,N/A,87,30,57,12.25,84,44.0,N/A,88,2364,3.8,3.71,MT-35050,48.5427043,-109.6803212,67%,82%,51%,49%,33%,24.8,28,43,54,10,4.09,1.58,25.84%,26.15%,25.44%,27
Havre North,Montana,593,177,None,8027993,$31780,30.35%,47,N/A,N/A,N/A,48,64.27%,$579,47.31%,N/A,N/A,41.99%,3.41%,39.42%,Hill County,36.80%,54.00%,0.0%,0.0%,83.31%,0.0%,0.0%,N/A,87,30,57,12.25,84,44.0,N/A,87,2364,3.8,3.35,MT-35125,48.5632357,-109.6712319,67%,82%,51%,49%,33%,24.8,28,43,54,10,4.09,1.58,25.84%,26.15%,25.44%,27
Hays,Montana,947,35,None,8027993,$37500,15.0%,28,N/A,N/A,N/A,42,55.23%,$457,69.71%,N/A,N/A,46.99%,32.38%,52.17%,Blaine County,44.80%,47.20%,0.0%,1.27%,7.07%,2.43%,0.74%,N/A,81,31,50,21.28,72,44.0,N/A,97,3690,3.6,27.1,MT-35275,48.0103697,-108.66065,67%,82%,51%,49%,33%,26.1,28,47,55,12,7.33,2.76,23.67%,27.58%,18.11%,27
Heart Butte,Montana,609,134,None,8027993,$27188,7.55%,27,N/A,N/A,N/A,37,44.33%,$418,76.46%,N/A,N/A,40.53%,28.44%,53.3%,Pondera County,27.10%,66.10%,0.33%,0.0%,0.66%,1.48%,0.49%,N/A,76,29,47,53.13,94,55.0,5.4,97,6309,3.9,4.56,MT-35350,48.2904973,-112.8363303,58%,73%,43%,54%,38%,21.1,31,46,47,11,7.56,17.65,47.81%,27.58%,61.0%,23
Hebgen Lake Estates,Montana,66,367,Bozeman,66756,$80083,33.33%,72,N/A,N/A,N/A,24,100.0%,N/A,34.85%,N/A,N/A,0.0%,0.0%,45.45%,Gallatin County,45.10%,44.20%,0.0%,0.0%,100.0%,0.0%,22.73%,N/A,80,25,55,25.08,107,92.4,6.9,96,6126,3.8,0.18,MT-35435,44.7692403,-111.1904533,57%,71%,42%,46%,32%,28.0,27,42,39,1,4.16,7.54,30.14%,19.45%,41.44%,66
Helena,Montana,32655,1941,Helena,66633,$60074,49.03%,41,N/A,N/A,N/A,48,61.08%,$845,56.22%,579,4267,11.8%,3.58%,66.13%,Lewis and Clark County,41.00%,47.90%,0.82%,0.49%,89.25%,4.47%,1.42%,N/A,88,32,56,15.18,90,37.6,6.9,83,3540,3.9,16.82,MT-35600,46.5965478,-112.020199,57%,71%,42%,46%,32%,28.0,27,42,56,14,4.92,2.29,24.44%,23.63%,23.67%,23
Helena Flats,Montana,1219,144,Kalispell,54604,$48438,26.41%,39,N/A,N/A,N/A,33,81.3%,$1010,48.13%,N/A,N/A,8.53%,4.17%,68.27%,Flathead County,28.00%,63.70%,0.33%,0.0%,86.22%,3.2%,2.21%,N/A,84,31,53,16.72,129,56.3,5.4,87,2703,3.2,8.44,MT-35622,48.2863579,-114.2369139,54%,73%,34%,54%,38%,21.1,31,46,48,17,4.39,4.2,36.79%,26.48%,47.56%,36
Helena Valley Northeast,Montana,3519,66,Helena,66633,$112656,43.5%,48,N/A,N/A,N/A,22,95.15%,$711,27.83%,N/A,N/A,2.61%,3.3%,66.87%,Lewis and Clark County,41.00%,47.90%,0.63%,0.2%,95.06%,2.05%,1.85%,N/A,88,32,56,11.6,88,37.6,6.9,91,3726,3.9,53.24,MT-35628,46.6973461,-111.9428385,57%,71%,42%,46%,32%,28.0,27,42,56,14,4.12,0.86,24.44%,23.63%,23.67%,23
Helena Valley Northwest,Montana,4256,260,Helena,66633,$85080,43.7%,36,N/A,N/A,N/A,19,95.65%,$1003,32.84%,N/A,N/A,2.63%,1.03%,73.93%,Lewis and Clark County,41.00%,47.90%,0.78%,0.0%,89.66%,2.8%,1.53%,N/A,88,32,56,11.6,88,37.6,6.9,93,3726,3.9,16.38,MT-35631,46.7288853,-112.0630761,57%,71%,42%,46%,32%,28.0,27,42,56,14,4.12,0.86,24.44%,23.63%,23.67%,23
Helena Valley Southeast,Montana,8546,397,Helena,66633,$59541,25.5%,35,N/A,N/A,N/A,36,82.66%,$969,47.64%,N/A,N/A,18.03%,4.93%,71.16%,Lewis and Clark County,41.00%,47.90%,0.15%,0.0%,95.65%,0.59%,0.44%,N/A,88,32,56,11.59,88,37.6,6.9,90,3501,3.9,21.51,MT-35634,46.6218514,-111.8973416,57%,71%,42%,46%,32%,28.0,27,42,56,14,3.75,1.66,24.44%,23.63%,23.67%,23
Helena Valley West Central,Montana,8042,305,Helena,66633,$74632,34.04%,39,N/A,N/A,N/A,35,84.61%,$1283,37.57%,N/A,N/A,4.01%,4.22%,66.07%,Lewis and Clark County,41.00%,47.90%,0.81%,0.58%,89.68%,2.4%,2.87%,N/A,88,32,56,15.18,88,37.6,6.9,89,3540,3.9,26.4,MT-35637,46.6633993,-112.0604641,57%,71%,42%,46%,32%,28.0,27,42,56,14,4.92,2.29,24.44%,23.63%,23.67%,23
Helena West Side,Montana,1656,108,Helena,66633,$70395,42.23%,37,N/A,N/A,N/A,43,91.24%,$1191,45.0%,N/A,N/A,3.68%,5.25%,78.84%,Lewis and Clark County,41.00%,47.90%,0.48%,0.36%,90.88%,1.45%,0.0%,N/A,88,32,56,15.18,89,37.6,6.9,89,3540,3.9,15.29,MT-35640,46.5966096,-112.1148006,57%,71%,42%,46%,32%,28.0,27,42,56,14,4.92,2.29,24.44%,23.63%,23.67%,23
Heron,Montana,281,55,None,8027993,$42500,45.88%,32,N/A,N/A,N/A,44,36.65%,N/A,27.14%,N/A,N/A,68.21%,0.0%,37.69%,Sanders County,20.50%,72.00%,0.0%,0.0%,98.22%,1.78%,0.0%,N/A,84,33,51,37.86,141,74.4,8.7,90,2049,3.2,5.09,MT-35875,48.0637563,-115.9802264,52%,73%,28%,52%,30%,10.3,34,43,49,24,5.39,14.01,42.52%,19.67%,55.78%,35
Herron,Montana,188,40,None,8027993,$115486,60.82%,30,N/A,N/A,N/A,44,100.0%,N/A,43.33%,N/A,N/A,0.0%,0.0%,68.67%,Hill County,36.80%,54.00%,0.0%,0.0%,27.13%,66.49%,18.09%,N/A,87,30,57,12.25,84,44.0,N/A,95,2364,3.8,4.68,MT-35912,48.5341318,-109.7717551,67%,82%,51%,49%,33%,24.8,28,43,54,10,4.09,1.58,25.84%,26.15%,25.44%,27
Highwood,Montana,229,44,None,8027993,$42500,23.57%,29,N/A,N/A,N/A,40,64.63%,$1103,29.65%,N/A,N/A,3.93%,21.21%,77.65%,Chouteau County,28.10%,64.50%,1.31%,0.0%,96.94%,1.31%,1.31%,N/A,87,35,52,16.74,85,46.6,6.9,95,3291,3.9,5.18,MT-36250,47.5991781,-110.7695987,58%,73%,43%,46%,33%,24.8,28,43,55,16,5.29,2.22,25.53%,24.62%,22.56%,30
Hingham,Montana,112,659,None,8027993,$51667,10.89%,57,N/A,N/A,N/A,66,75.0%,N/A,43.81%,N/A,N/A,4.46%,7.41%,51.43%,Hill County,36.80%,54.00%,0.0%,0.0%,99.11%,0.0%,3.57%,N/A,85,30,55,12.9,56,44.0,N/A,96,2580,3.8,0.17,MT-36400,48.555449,-110.4212879,67%,82%,51%,49%,33%,24.8,28,43,51,7,4.55,1.4,17.97%,22.2%,14.0%,27
Hinsdale,Montana,284,44,None,8027993,$31339,17.26%,39,N/A,N/A,N/A,69,58.45%,$488,46.89%,N/A,N/A,22.7%,1.23%,68.94%,Valley County,22.80%,69.30%,0.0%,0.0%,87.68%,0.0%,0.0%,N/A,86,28,58,15.26,72,44.2,N/A,95,2565,3.6,6.47,MT-36475,48.4035638,-107.0582539,67%,82%,51%,52%,35%,26.1,28,47,56,8,5.41,1.38,17.48%,22.86%,13.11%,33
Hobson,Montana,183,871,None,8027993,$34500,20.0%,61,N/A,N/A,N/A,61,79.78%,$585,44.64%,N/A,N/A,10.93%,13.83%,59.12%,Judith Basin County,19.50%,72.20%,0.0%,0.0%,87.98%,2.19%,0.0%,N/A,84,36,48,17.87,92,59.1,6.9,98,3933,3.9,0.21,MT-36700,46.9994313,-109.8733386,58%,73%,43%,46%,33%,24.8,28,43,52,13,6.11,1.61,31.51%,33.19%,26.67%,30
Hot Springs,Montana,627,1650,None,8027993,$17446,17.37%,55,N/A,N/A,N/A,71,60.0%,$505,60.67%,0,526,35.67%,13.84%,37.65%,Sanders County,20.50%,72.00%,0.0%,0.0%,89.31%,2.71%,2.23%,N/A,85,32,53,16.08,109,51.8,5.4,92,2496,3.2,0.38,MT-37825,47.6092026,-114.6703543,54%,73%,34%,54%,38%,21.1,31,46,53,22,3.94,3.51,37.7%,25.27%,43.44%,39
Hungry Horse,Montana,650,455,Kalispell,54604,$21059,18.32%,50,N/A,N/A,N/A,39,76.91%,$1050,47.15%,N/A,N/A,33.69%,0.0%,24.39%,Flathead County,28.00%,63.70%,0.0%,0.0%,91.23%,0.0%,0.0%,N/A,84,30,54,35.47,138,56.3,5.4,91,2889,3.2,1.43,MT-38125,48.384279,-114.0651861,54%,73%,34%,54%,38%,21.1,31,46,54,21,6.15,10.13,37.32%,24.95%,46.44%,36
Huntley,Montana,522,343,Billings,131182,$41840,11.73%,34,N/A,N/A,N/A,31,90.23%,N/A,20.36%,N/A,N/A,0.0%,0.0%,62.76%,Yellowstone County,31.50%,58.10%,0.0%,0.0%,96.17%,3.83%,0.0%,Mountain Standard Time,89,36,53,14.82,78,40.3,7.2,89,2775,3.8,1.52,MT-38200,45.8994725,-108.3054174,58%,70%,45%,45%,34%,26.4,29,45,55,13,4.24,1.63,24.14%,25.71%,19.33%,25
Huson,Montana,60,78,Missoula,90782,$0,0.0%,61,N/A,N/A,N/A,49,71.67%,N/A,0.0%,N/A,N/A,28.33%,0.0%,43.33%,Missoula County,51.90%,36.60%,0.0%,0.0%,100.0%,0.0%,0.0%,Mountain Standard Time,88,32,56,18.56,121,51.8,5.4,86,2799,3.1,0.77,MT-38275,47.0324477,-114.3401646,54%,73%,34%,51%,33%,23.0,32,45,49,18,3.65,4.77,38.71%,26.7%,47.67%,39
Hysham,Montana,224,1018,None,8027993,$38472,19.07%,62,N/A,N/A,N/A,65,81.7%,N/A,38.28%,N/A,N/A,14.29%,3.6%,53.11%,Treasure County,13.30%,79.20%,0.0%,0.0%,98.66%,0.89%,0.0%,N/A,88,35,53,15.87,74,38.6,7.2,91,2442,3.8,0.22,MT-38350,46.2909208,-107.2304989,58%,70%,45%,45%,34%,27.4,30,48,58,14,4.74,1.77,23.92%,25.6%,21.0%,18
Indian Springs,Montana,97,22,None,8027993,$132813,N/A,N/A,N/A,N/A,N/A,36,0.0%,N/A,0.0%,N/A,N/A,0.0%,0.0%,0.0%,Lincoln County,21.90%,72.10%,0.0%,0.0%,0.0%,0.0%,0.0%,N/A,87,32,55,14.92,103,33.4,5.4,93,2316,3,4.5,MT-38480,48.9534231,-115.0445919,52%,73%,28%,54%,38%,21.1,31,46,54,20,4.41,3.06,27.75%,22.75%,31.11%,15
Inverness,Montana,34,9,None,8027993,$56250,18.18%,47,N/A,N/A,N/A,41,100.0%,N/A,68.0%,N/A,N/A,0.0%,0.0%,32.0%,Hill County,36.80%,54.00%,0.0%,0.0%,100.0%,0.0%,0.0%,N/A,85,30,55,12.97,60,44.0,6.9,96,3039,3.8,3.9,MT-38725,48.5598625,-110.7100772,67%,82%,51%,49%,33%,24.8,28,43,53,8,4.71,1.54,17.97%,22.2%,14.0%,27
Ismay,Montana,13,31,None,8027993,$34375,N/A,N/A,N/A,N/A,N/A,12,0.0%,N/A,0.0%,N/A,N/A,0.0%,0.0%,0.0%,Custer County,22.70%,70.50%,0.0%,0.0%,0.0%,0.0%,0.0%,N/A,87,31,56,16.27,80,35.3,N/A,92,2541,3.6,0.42,MT-38950,46.500227,-104.7929313,60%,73%,52%,58%,47%,27.4,30,48,56,7,5.63,1.47,27.92%,30.11%,26.11%,30
Jardine,Montana,41,3,None,8027993,$30625,42.11%,47,N/A,N/A,N/A,30,29.27%,N/A,85.37%,N/A,N/A,0.0%,26.32%,95.0%,Park County,38.40%,53.20%,0.0%,0.0%,75.61%,24.39%,0.0%,N/A,88,33,55,13.48,138,92.4,6.9,96,4824,3.6,14.75,MT-39175,45.056493,-110.6185748,58%,70%,45%,45%,34%,26.4,29,45,54,16,3.59,2.22,35.67%,31.1%,41.56%,66
Jefferson City,Montana,596,26,Helena,66633,$61216,15.75%,49,N/A,N/A,N/A,36,80.54%,$1285,39.49%,N/A,N/A,3.19%,0.0%,48.5%,Jefferson County,29.80%,62.20%,0.0%,0.0%,95.64%,1.68%,0.34%,N/A,83,33,50,18.93,88,37.6,6.9,95,4272,3.6,23.22,MT-39400,46.3779504,-112.0304815,57%,71%,42%,46%,32%,28.0,27,42,44,10,5.68,2.66,32.08%,23.3%,35.44%,23
Jette,Montana,161,260,None,8027993,$53920,47.1%,63,N/A,N/A,N/A,47,25.47%,$1141,13.77%,N/A,N/A,0.0%,0.0%,46.38%,Lake County,36.20%,57.10%,0.0%,0.0%,100.0%,0.0%,0.0%,N/A,85,32,53,16.08,108,143.2,5.4,88,2496,3.1,0.62,MT-39627,47.7169469,-114.1905569,54%,73%,34%,54%,38%,21.1,31,46,53,22,3.94,3.51,37.7%,25.27%,43.44%,79
Joliet,Montana,633,2344,Billings,131182,$55313,17.05%,43,N/A,N/A,N/A,51,90.05%,$725,39.85%,N/A,N/A,24.8%,9.78%,60.61%,Carbon County,30.50%,62.60%,0.0%,0.0%,94.63%,1.74%,0.0%,Mountain Standard Time,87,35,52,15.26,77,54.7,7.2,93,3510,3.9,0.27,MT-39700,45.4843669,-108.9721466,58%,70%,45%,45%,34%,26.4,29,45,50,11,3.77,1.82,23.23%,24.73%,16.78%,28
Joplin,Montana,242,192,None,8027993,$57500,32.72%,41,N/A,N/A,N/A,56,71.07%,N/A,39.38%,N/A,N/A,1.24%,0.0%,78.38%,Liberty County,21.40%,72.60%,0.0%,0.0%,100.0%,0.0%,0.0%,N/A,85,30,55,12.97,60,61.6,6.9,96,3039,3.7,1.26,MT-39775,48.5590374,-110.7729026,67%,82%,51%,49%,33%,24.8,28,43,53,8,4.71,1.54,17.97%,22.2%,14.0%,21
Jordan,Montana,412,1177,None,8027993,$40625,17.54%,43,N/A,N/A,N/A,49,60.92%,$570,49.44%,N/A,N/A,5.1%,0.0%,70.75%,Garfield County,4.70%,90.90%,0.0%,1.46%,98.54%,0.0%,0.0%,N/A,89,32,57,13.89,66,44.1,N/A,95,2433,3.7,0.35,MT-39925,47.3210539,-106.9098591,58%,70%,45%,52%,35%,26.1,28,47,56,8,4.9,1.53,25.84%,27.47%,26.33%,33
Judith Gap,Montana,124,376,None,8027993,$19091,10.28%,68,N/A,N/A,N/A,49,79.84%,$575,52.29%,N/A,N/A,30.65%,4.17%,44.04%,Wheatland County,18.90%,74.20%,0.0%,0.0%,100.0%,0.0%,1.61%,N/A,81,34,47,18.4,73,59.1,6.9,98,4233,3.7,0.33,MT-40000,46.6790699,-109.7533122,58%,70%,45%,45%,34%,26.4,29,45,51,11,6.05,1.68,37.34%,29.56%,40.0%,30
Kalispell,Montana,23935,1926,Kalispell,54604,$47750,29.4%,35,N/A,N/A,N/A,41,64.37%,$800,53.61%,416,3354,14.3%,6.5%,65.27%,Flathead County,28.00%,63.70%,1.24%,1.01%,90.68%,3.97%,2.98%,N/A,84,31,53,16.72,129,56.3,5.4,68,2703,3.2,12.43,MT-40075,48.2153594,-114.3273726,54%,73%,34%,54%,38%,21.1,31,46,48,17,4.39,4.2,36.79%,26.48%,47.56%,36
Kerr,Montana,159,175,None,8027993,$85052,51.3%,59,N/A,N/A,N/A,19,100.0%,N/A,45.16%,N/A,N/A,0.0%,0.0%,39.52%,Lake County,36.20%,57.10%,0.0%,0.0%,94.34%,0.0%,0.0%,N/A,85,32,53,16.08,108,143.2,5.4,88,2496,3.1,0.91,MT-40355,47.6771485,-114.1873209,54%,73%,34%,54%,38%,21.1,31,46,53,22,3.94,3.51,37.7%,25.27%,43.44%,79
Kevin,Montana,130,361,None,8027993,$47188,0.93%,49,N/A,N/A,N/A,66,95.38%,N/A,34.19%,N/A,N/A,6.15%,6.35%,55.75%,Toole County,19.70%,73.50%,0.0%,0.0%,100.0%,0.0%,0.77%,N/A,83,32,51,11.75,63,39.9,5.4,97,3249,3.8,0.36,MT-40525,48.7457418,-111.9654907,58%,73%,43%,46%,33%,24.8,28,43,51,9,4.66,0.83,22.99%,26.04%,20.33%,24
Kicking Horse,Montana,109,45,None,8027993,$66743,77.06%,64,N/A,N/A,N/A,35,38.53%,N/A,6.42%,N/A,N/A,0.0%,0.0%,72.48%,Lake County,36.20%,57.10%,0.0%,0.0%,73.39%,20.18%,0.0%,N/A,80,29,51,26.41,108,143.2,5.4,92,3120,3.1,2.42,MT-40580,47.4567633,-114.0717189,54%,73%,34%,51%,33%,23.0,32,45,51,16,5.86,6.02,39.95%,19.89%,57.22%,79
Kila,Montana,411,103,Kalispell,54604,$38333,22.11%,49,N/A,N/A,N/A,44,64.72%,$648,37.35%,N/A,N/A,26.28%,3.21%,48.15%,Flathead County,28.00%,63.70%,0.0%,0.0%,82.48%,0.73%,0.49%,N/A,84,31,53,17.18,128,56.3,5.4,90,2976,3.2,3.98,MT-40675,48.1215306,-114.4767022,54%,73%,34%,54%,38%,21.1,31,46,48,17,4.29,3.9,32.19%,18.24%,43.0%,36
King Arthur Park,Montana,1933,4202,Bozeman,66756,$86953,43.75%,35,N/A,N/A,N/A,17,85.83%,$1670,58.26%,N/A,N/A,2.64%,0.0%,86.81%,Gallatin County,45.10%,44.20%,0.0%,0.0%,96.9%,0.0%,0.0%,N/A,84,33,51,17.47,112,46.8,6.9,87,4365,3.8,0.46,MT-40685,45.6663982,-111.1268847,57%,71%,42%,46%,32%,28.0,27,42,52,14,5.3,1.78,40.3%,37.91%,39.89%,26
Kings Point,Montana,206,153,None,8027993,$101806,45.21%,40,N/A,N/A,N/A,28,25.73%,$1045,52.41%,N/A,N/A,0.0%,0.0%,95.18%,Lake County,36.20%,57.10%,0.0%,0.0%,51.46%,0.0%,0.0%,N/A,85,32,53,16.08,108,143.2,5.4,88,2496,3.1,1.35,MT-40725,47.7583937,-114.140981,54%,73%,34%,54%,38%,21.1,31,46,53,22,3.94,3.51,37.7%,25.27%,43.44%,79
Klein,Montana,156,12,None,8027993,$54595,0.0%,7,N/A,N/A,N/A,41,100.0%,N/A,13.56%,N/A,N/A,0.0%,0.0%,100.0%,Musselshell County,13.60%,80.60%,0.0%,0.0%,100.0%,0.0%,0.0%,N/A,91,36,55,15.92,74,45.4,7.2,94,2925,3.8,12.85,MT-41050,46.3982605,-108.5525823,58%,70%,45%,45%,34%,26.4,29,45,54,14,5.54,1.38,21.81%,24.73%,16.11%,22
Kremlin,Montana,58,132,None,8027993,$40625,15.69%,56,N/A,N/A,N/A,32,87.93%,N/A,55.17%,N/A,N/A,12.07%,11.54%,89.66%,Hill County,36.80%,54.00%,0.0%,0.0%,100.0%,0.0%,0.0%,N/A,85,30,55,12.9,75,44.0,N/A,96,2580,3.8,0.44,MT-41725,48.5706267,-110.0860847,67%,82%,51%,49%,33%,24.8,28,43,51,7,4.55,1.4,23.64%,26.04%,20.22%,27
Lake Mary Ronan,Montana,45,43,None,8027993,$40938,28.89%,68,N/A,N/A,N/A,32,100.0%,N/A,24.44%,N/A,N/A,6.67%,0.0%,44.44%,Lake County,36.20%,57.10%,0.0%,0.0%,100.0%,0.0%,0.0%,N/A,82,35,47,24.76,112,56.3,5.4,89,5166,3.1,1.05,MT-41910,47.9433665,-114.394974,54%,73%,34%,54%,38%,21.1,31,46,56,26,4.59,7.27,32.19%,18.24%,43.0%,36
Lakeside,Montana,2245,159,Kalispell,54604,$61940,28.07%,60,N/A,N/A,N/A,30,82.46%,$829,41.1%,N/A,N/A,26.9%,1.38%,52.52%,Flathead County,28.00%,63.70%,0.09%,0.0%,98.84%,1.07%,1.51%,N/A,82,32,50,24.76,122,56.3,5.4,89,5166,3.2,14.08,MT-41950,48.0181622,-114.2274079,54%,73%,34%,54%,38%,21.1,31,46,51,19,4.59,7.27,32.19%,18.24%,43.0%,36
Lame Deer,Montana,2288,41,None,8027993,$49408,13.56%,24,N/A,N/A,N/A,39,61.84%,$615,69.79%,N/A,N/A,32.53%,16.4%,52.66%,Rosebud County,28.60%,65.20%,0.0%,0.35%,2.19%,2.62%,0.0%,N/A,89,35,54,16.62,74,52.7,7.2,87,3138,3.7,55.59,MT-42250,45.6176514,-106.6133954,60%,71%,52%,51%,37%,31.9,29,46,53,10,4.27,2.32,23.45%,19.23%,26.44%,28
Laurel,Montana,6797,3132,Billings,131182,$56902,21.41%,39,N/A,N/A,N/A,47,70.29%,$835,45.91%,413,2615,5.77%,2.41%,71.73%,Yellowstone County,31.50%,58.10%,1.1%,0.0%,91.56%,3.13%,0.56%,Mountain Standard Time,90,36,54,15.93,94,50.4,7.2,84,3111,3.8,2.17,MT-42700,45.6734098,-108.7705487,58%,70%,45%,45%,34%,26.4,29,45,58,16,4.35,1.88,27.56%,29.67%,22.67%,30
Lavina,Montana,157,155,Billings,131182,$46250,22.31%,53,N/A,N/A,N/A,72,77.71%,$625,44.68%,N/A,N/A,8.92%,5.1%,69.5%,Golden Valley County,15.00%,77.00%,0.0%,0.0%,78.34%,9.55%,0.0%,Mountain Standard Time,88,36,52,15.85,76,45.4,7.2,96,3096,3.8,1.01,MT-42850,46.2950149,-108.9388082,58%,70%,45%,45%,34%,26.4,29,45,52,11,5.36,1.55,23.29%,25.49%,18.78%,22
Lewistown,Montana,5923,1035,None,8027993,$34065,20.26%,43,N/A,N/A,N/A,77,72.95%,$728,54.11%,N/A,N/A,21.59%,6.11%,53.38%,Fergus County,20.60%,73.10%,1.6%,1.27%,92.32%,2.18%,2.52%,N/A,83,33,50,17.68,103,59.1,6.9,92,3789,3.7,5.72,MT-43375,47.0513799,-109.4523914,58%,73%,43%,46%,33%,24.8,28,43,52,12,6.2,1.57,31.51%,33.19%,26.67%,30
Lewistown Heights,Montana,312,132,None,8027993,$69063,14.81%,50,N/A,N/A,N/A,42,100.0%,N/A,43.51%,N/A,N/A,9.62%,0.0%,73.33%,Fergus County,20.60%,73.10%,12.5%,0.0%,87.5%,0.0%,12.5%,N/A,83,33,50,17.68,103,59.1,6.9,92,3789,3.7,2.36,MT-43400,47.0783828,-109.4735286,58%,73%,43%,46%,33%,24.8,28,43,52,12,6.2,1.57,31.51%,33.19%,26.67%,30
Libby,Montana,2758,1499,None,8027993,$37434,16.19%,48,N/A,N/A,N/A,57,60.27%,$543,46.92%,145,2254,16.32%,2.86%,52.39%,Lincoln County,21.90%,72.10%,0.07%,0.76%,84.26%,6.53%,3.01%,N/A,86,34,52,20.69,128,33.4,5.4,54,1929,3,1.84,MT-43450,48.3870061,-115.5559915,52%,73%,28%,54%,38%,21.1,31,46,51,22,4.65,4.98,39.89%,22.53%,50.78%,15
Lima,Montana,171,311,None,8027993,$41563,14.6%,59,N/A,N/A,N/A,78,94.74%,N/A,45.27%,N/A,N/A,28.65%,0.0%,39.44%,Beaverhead County,23.60%,69.10%,0.0%,0.0%,98.25%,0.0%,0.0%,N/A,83,29,54,10.97,83,46.8,6.9,97,5742,4.1,0.55,MT-43525,44.6384067,-112.5919223,62%,79%,43%,45%,25%,23.0,29,41,47,9,3.93,1.14,31.23%,24.4%,31.78%,26
Lincoln,Montana,1017,58,Helena,66633,$36271,16.01%,45,N/A,N/A,N/A,47,81.71%,$712,40.96%,N/A,N/A,8.55%,0.21%,58.43%,Lewis and Clark County,41.00%,47.90%,0.0%,0.0%,84.66%,6.19%,0.49%,N/A,83,34,49,24.76,92,37.6,6.9,92,4755,3.9,17.55,MT-43675,46.9530253,-112.6693267,57%,71%,42%,46%,32%,28.0,27,42,51,16,3.73,8.9,30.99%,18.68%,43.44%,23
Lindisfarne,Montana,465,180,None,8027993,$161694,48.28%,53,N/A,N/A,N/A,31,100.0%,N/A,13.73%,N/A,N/A,0.0%,7.51%,76.2%,Lake County,36.20%,57.10%,0.0%,0.0%,100.0%,0.0%,0.0%,N/A,85,32,53,16.08,108,56.3,5.4,88,2496,3.1,2.58,MT-43710,47.8041938,-114.2120913,54%,73%,34%,54%,38%,21.1,31,46,53,22,3.94,3.51,37.7%,25.27%,43.44%,36
Little Bitterroot Lake,Montana,139,16,Kalispell,54604,$39000,44.26%,68,N/A,N/A,N/A,30,100.0%,N/A,33.33%,N/A,N/A,5.76%,25.0%,27.91%,Flathead County,28.00%,63.70%,0.0%,0.0%,100.0%,0.0%,0.0%,N/A,84,31,53,17.18,143,56.3,5.4,90,2976,3.2,8.43,MT-43830,48.1179855,-114.7206466,54%,73%,34%,54%,38%,21.1,31,46,48,17,4.29,3.9,33.53%,18.46%,45.89%,36
Little Browning,Montana,136,186,None,8027993,$53889,0.0%,10,N/A,N/A,N/A,51,0.0%,N/A,83.33%,N/A,N/A,41.91%,0.0%,48.15%,Glacier County,61.50%,31.90%,0.0%,0.0%,30.88%,0.0%,0.0%,N/A,82,31,51,15.85,65,39.9,5.4,97,3429,3.1,0.73,MT-43835,48.6251029,-112.3500421,58%,73%,43%,46%,33%,24.8,28,43,50,12,4.69,2.16,20.0%,22.97%,15.33%,24
Livingston,Montana,7696,1365,None,8027993,$44591,27.33%,41,N/A,N/A,N/A,64,69.79%,$812,57.9%,N/A,N/A,14.13%,2.06%,66.77%,Park County,38.40%,53.20%,0.22%,0.65%,92.44%,3.33%,1.57%,N/A,88,36,52,17.37,92,116.8,6.9,91,4212,3.6,5.64,MT-43975,45.6665458,-110.55382,57%,71%,42%,46%,32%,28.0,27,42,51,18,4.76,2.35,29.1%,31.76%,19.56%,37
Lockwood,Montana,8206,638,Billings,131182,$62572,17.77%,36,N/A,N/A,N/A,41,79.38%,$853,42.44%,N/A,N/A,17.31%,3.98%,70.78%,Yellowstone County,31.50%,58.10%,0.0%,0.0%,86.42%,8.2%,1.99%,Mountain Standard Time,87,36,51,15.8,88,60.7,7.2,72,2892,3.8,12.86,MT-44200,45.819949,-108.4071631,58%,70%,45%,45%,34%,26.4,29,45,57,15,4.46,1.76,24.93%,25.49%,18.33%,34
Lodge Grass,Montana,481,1850,None,8027993,$35417,6.69%,25,N/A,N/A,N/A,63,67.57%,$600,61.66%,N/A,N/A,50.94%,20.86%,45.13%,Big Horn County,49.40%,43.70%,0.0%,0.0%,5.82%,2.29%,0.0%,N/A,89,35,54,16.62,79,52.7,7.2,93,3138,3.7,0.26,MT-44275,45.3142604,-107.3677828,60%,71%,52%,51%,37%,31.9,29,46,53,10,4.27,2.32,23.45%,19.23%,26.44%,28
Lodge Pole,Montana,344,26,None,8027993,$37500,12.09%,26,N/A,N/A,N/A,35,23.26%,$489,59.49%,N/A,N/A,40.41%,31.82%,57.39%,Blaine County,44.80%,47.20%,0.0%,0.0%,0.0%,11.34%,0.0%,N/A,81,31,50,21.28,62,44.0,N/A,97,3690,3.6,13.39,MT-44350,48.0272379,-108.5517282,67%,82%,51%,49%,33%,26.1,28,47,55,12,7.33,2.76,23.67%,27.58%,18.11%,27
Logan,Montana,17,34,Bozeman,66756,$82917,0.0%,N/A,N/A,N/A,N/A,71,100.0%,N/A,100.0%,N/A,N/A,0.0%,0.0%,52.94%,Gallatin County,45.10%,44.20%,0.0%,0.0%,100.0%,0.0%,0.0%,N/A,86,32,54,16.27,97,46.8,6.9,93,3879,3.8,0.5,MT-44500,45.8843445,-111.4235474,57%,71%,42%,46%,32%,28.0,27,42,50,10,4.9,1.58,29.34%,29.45%,20.78%,26
Lolo,Montana,4064,430,Missoula,90782,$60903,31.16%,32,N/A,N/A,N/A,32,76.67%,$730,40.14%,N/A,N/A,5.19%,0.89%,74.62%,Missoula County,51.90%,36.60%,4.48%,0.54%,91.02%,3.17%,5.49%,Mountain Standard Time,87,31,56,15.12,129,45.2,5.4,90,2847,3.1,9.46,MT-44650,46.7755961,-114.1017981,54%,73%,34%,51%,33%,23.0,32,45,52,18,4.19,3.19,34.11%,24.62%,42.11%,39
Loma,Montana,121,35,None,8027993,$40972,0.0%,69,N/A,N/A,N/A,36,100.0%,N/A,56.2%,N/A,N/A,0.0%,0.0%,34.71%,Chouteau County,28.10%,64.50%,0.0%,0.0%,100.0%,0.0%,0.0%,N/A,89,35,54,13.85,65,46.6,6.9,95,2358,3.9,3.44,MT-44800,47.9511199,-110.488612,58%,73%,43%,46%,33%,24.8,28,43,53,9,4.32,1.77,24.79%,24.4%,23.78%,30
Lonepine,Montana,129,10,None,8027993,$48958,15.24%,60,N/A,N/A,N/A,48,78.29%,$613,18.42%,N/A,N/A,10.85%,0.0%,35.09%,Sanders County,20.50%,72.00%,0.0%,0.0%,83.72%,2.33%,3.1%,N/A,85,32,53,16.08,109,56.3,5.4,92,2496,3.2,13.44,MT-44950,47.6945345,-114.640732,54%,73%,34%,54%,38%,21.1,31,46,53,22,3.94,3.51,37.7%,25.27%,43.44%,36
Malmstrom AFB,Montana,3902,764,Great Falls,69250,$51967,36.48%,23,N/A,N/A,N/A,14,0.0%,$996,25.52%,N/A,N/A,5.05%,1.65%,83.64%,Cascade County,35.20%,56.80%,0.95%,9.64%,70.32%,13.07%,1.54%,Mountain Standard Time,87,35,52,16.11,90,76.8,6.9,87,3204,3.8,5.11,MT-47275,47.5058478,-111.1825129,58%,73%,43%,46%,33%,24.8,28,43,56,19,4.82,2.32,24.36%,23.3%,23.67%,44
Malta,Montana,2058,1923,None,8027993,$44924,17.46%,50,N/A,N/A,N/A,59,87.99%,$533,46.08%,N/A,N/A,6.15%,6.55%,54.86%,Phillips County,14.60%,79.40%,1.26%,0.0%,80.95%,5.54%,3.64%,N/A,87,30,57,13.39,63,44.1,N/A,94,2070,3.7,1.07,MT-47425,48.3554924,-107.8702092,67%,82%,51%,52%,35%,26.1,28,47,58,9,4.87,1.42,23.67%,27.58%,18.11%,33
Manhattan,Montana,1950,1121,Bozeman,66756,$61103,33.49%,42,N/A,N/A,N/A,44,78.13%,$1347,32.73%,375,1072,10.62%,1.5%,70.37%,Gallatin County,45.10%,44.20%,0.0%,0.0%,93.95%,1.03%,1.69%,N/A,86,32,54,16.27,97,46.8,6.9,93,3879,3.8,1.74,MT-47575,45.8548748,-111.3348435,57%,71%,42%,46%,32%,28.0,27,42,50,10,4.9,1.58,29.34%,29.45%,20.78%,26
Marion,Montana,1041,62,Kalispell,54604,$54138,17.47%,48,N/A,N/A,N/A,16,89.91%,$854,36.07%,N/A,N/A,21.34%,7.32%,57.45%,Flathead County,28.00%,63.70%,0.38%,0.0%,92.7%,2.21%,4.03%,N/A,84,31,53,17.18,142,56.3,5.4,90,2976,3.2,16.87,MT-47875,48.0858064,-114.6709737,54%,73%,34%,54%,38%,21.1,31,46,48,17,4.29,3.9,32.19%,18.24%,43.0%,36
Martin City,Montana,369,213,Kalispell,54604,$29125,19.43%,51,N/A,N/A,N/A,38,73.71%,$573,56.0%,N/A,N/A,29.54%,5.85%,48.86%,Flathead County,28.00%,63.70%,0.0%,0.0%,98.1%,0.0%,0.0%,N/A,84,30,54,35.47,138,56.3,5.4,91,2889,3.2,1.73,MT-48100,48.3935618,-114.0307794,54%,73%,34%,54%,38%,21.1,31,46,54,21,6.15,10.13,37.32%,24.95%,46.44%,36
Martinsdale,Montana,42,48,None,8027993,$50298,80.95%,53,N/A,N/A,N/A,64,100.0%,N/A,100.0%,N/A,N/A,11.9%,0.0%,73.81%,Meagher County,19.80%,74.60%,0.0%,0.0%,100.0%,0.0%,0.0%,N/A,78,29,49,27.73,86,59.1,6.9,97,6951,3.7,0.87,MT-48175,46.4547415,-110.3119738,57%,71%,42%,46%,32%,28.0,27,42,43,12,6.9,5.14,32.19%,24.73%,36.0%,30
Marysville,Montana,71,142,Helena,66633,$45417,8.96%,57,N/A,N/A,N/A,36,76.06%,N/A,45.07%,N/A,N/A,29.58%,0.0%,74.65%,Lewis and Clark County,41.00%,47.90%,0.0%,0.0%,100.0%,0.0%,0.0%,N/A,82,30,52,29.07,95,37.6,6.9,93,6420,3.9,0.5,MT-48250,46.7502417,-112.3027327,57%,71%,42%,46%,32%,28.0,27,42,46,10,5.02,8.71,38.08%,23.96%,47.22%,23
Maxville,Montana,135,19,None,8027993,$70536,23.89%,58,N/A,N/A,N/A,22,76.3%,N/A,46.22%,N/A,N/A,6.67%,0.0%,26.89%,Granite County,26.60%,67.10%,0.0%,0.0%,100.0%,0.0%,0.0%,N/A,82,34,48,19.29,91,45.2,5.4,91,5121,3,6.97,MT-48625,46.4759511,-113.2355462,54%,73%,34%,51%,33%,23.0,32,45,43,14,3.85,4.44,27.7%,17.91%,33.11%,39
Medicine Lake,Montana,183,458,None,8027993,$37222,41.06%,54,N/A,N/A,N/A,57,66.12%,$650,55.83%,N/A,N/A,2.19%,0.0%,57.67%,Sheridan County,26.00%,67.60%,0.0%,0.0%,96.72%,0.0%,1.09%,N/A,85,23,62,15.58,69,44.2,N/A,95,1776,3.7,0.4,MT-48775,48.5021997,-104.5016765,60%,73%,52%,58%,47%,27.9,29,50,55,2,7.03,1.06,25.67%,32.53%,21.0%,33
Melstone,Montana,100,161,None,8027993,$26071,5.56%,51,N/A,N/A,N/A,59,49.0%,$611,49.35%,N/A,N/A,13.0%,0.0%,72.97%,Musselshell County,13.60%,80.60%,0.0%,0.0%,76.0%,5.0%,0.0%,N/A,89,36,53,16.42,71,47.4,7.2,94,2682,3.8,0.62,MT-49000,46.5986956,-107.8682547,58%,70%,45%,45%,34%,26.4,29,45,58,15,4.88,1.59,20.71%,23.19%,16.0%,35
Midvale,Montana,357,850,None,8027993,$52964,N/A,N/A,N/A,N/A,N/A,32,N/A,N/A,75.40%,N/A,N/A,26.7%,5.00%,N/A,Lincoln County,21.90%,72.10%,N/A,N/A,N/A,N/A,0%,N/A,87,32,55,14.92,103,33.4,5.4,93,2316,3,0.42,MT-49400,48.889079,-115.052348,52%,73%,28%,54%,38%,21.1,31,46,54,20,4.41,3.06,27.75%,22.75%,31.11%,15
Miles City,Montana,8372,2492,None,8027993,$53571,28.53%,42,N/A,N/A,N/A,63,67.02%,$907,50.09%,262,2907,13.05%,4.47%,66.45%,Custer County,22.70%,70.50%,0.66%,0.96%,91.4%,3.92%,2.31%,N/A,90,32,58,12.7,79,38.6,7.2,75,2400,3.6,3.36,MT-49525,46.4058195,-105.8384946,60%,71%,52%,51%,37%,27.4,30,48,60,10,4.33,0.62,22.82%,26.92%,14.44%,18
Missoula,Montana,74994,2174,Missoula,90782,$50947,50.97%,33,N/A,N/A,N/A,42,52.48%,$900,61.0%,411,4086,16.75%,5.02%,73.33%,Missoula County,51.90%,36.60%,2.05%,0.88%,87.29%,3.89%,3.16%,Mountain Standard Time,87,31,56,15.12,120,45.2,5.4,62,2847,3.1,34.5,MT-50200,46.8750319,-114.0214437,54%,73%,34%,51%,33%,23.0,32,45,52,18,4.19,3.19,34.11%,24.62%,42.11%,39
Montana City,Montana,2821,83,Helena,66633,$105134,47.81%,43,N/A,N/A,N/A,25,95.71%,$1172,28.06%,N/A,N/A,3.66%,4.27%,65.75%,Jefferson County,29.80%,62.20%,0.28%,0.5%,91.6%,5.39%,3.97%,N/A,88,32,56,11.59,90,37.6,6.9,92,3501,3.6,34.1,MT-51175,46.5257203,-111.9400325,57%,71%,42%,46%,32%,28.0,27,42,56,14,3.75,1.66,24.44%,23.63%,23.67%,23
Moore,Montana,187,645,None,8027993,$43750,20.74%,49,N/A,N/A,N/A,48,83.42%,$675,38.41%,N/A,N/A,15.51%,1.19%,56.76%,Fergus County,20.60%,73.10%,0.0%,0.0%,86.1%,0.0%,0.0%,N/A,83,33,50,21.94,95,59.1,6.9,97,3906,3.7,0.29,MT-51550,46.9749559,-109.695113,58%,73%,43%,46%,33%,24.8,28,43,52,12,6.27,3.59,31.51%,33.19%,26.67%,30
Muddy,Montana,604,21,None,8027993,$39167,1.09%,24,N/A,N/A,N/A,29,64.07%,$553,64.32%,N/A,N/A,40.89%,4.63%,57.94%,Big Horn County,49.40%,43.70%,0.0%,0.0%,6.13%,6.62%,1.49%,N/A,89,35,54,16.62,74,52.7,7.2,89,3138,3.7,28.63,MT-52315,45.5797806,-106.7753496,60%,71%,52%,51%,37%,31.9,29,46,53,10,4.27,2.32,23.45%,19.23%,26.44%,28
Musselshell,Montana,23,9,None,8027993,$56250,40.0%,53,N/A,N/A,N/A,48,60.87%,N/A,10.0%,N/A,N/A,0.0%,0.0%,65.0%,Musselshell County,13.60%,80.60%,0.0%,0.0%,100.0%,0.0%,0.0%,N/A,89,36,53,16.42,73,47.4,7.2,94,2682,3.8,2.55,MT-52600,46.5033002,-108.0962922,58%,70%,45%,45%,34%,26.4,29,45,58,15,4.88,1.59,20.71%,23.19%,16.0%,35
Nashua,Montana,326,459,None,8027993,$60227,30.77%,40,N/A,N/A,N/A,57,83.13%,$653,50.37%,N/A,N/A,19.94%,7.36%,60.37%,Valley County,22.80%,69.30%,0.31%,0.61%,83.44%,0.61%,0.61%,N/A,90,30,60,14.59,81,44.1,N/A,93,1974,3.6,0.71,MT-52900,48.1335506,-106.3571186,60%,73%,52%,52%,35%,26.1,28,47,59,10,5.77,1.34,26.96%,31.87%,25.22%,33
Neihart,Montana,35,18,Great Falls,69250,$41875,43.33%,62,N/A,N/A,N/A,54,77.14%,N/A,23.33%,N/A,N/A,22.86%,0.0%,33.33%,Cascade County,35.20%,56.80%,0.0%,0.0%,91.43%,0.0%,0.0%,Mountain Standard Time,82,31,51,34.91,100,77.4,6.9,95,6777,3.8,1.99,MT-53200,46.9352106,-110.7360547,58%,73%,43%,46%,33%,24.8,28,43,47,10,7.15,8.62,39.4%,27.47%,47.67%,44
Niarada,Montana,8,0,Kalispell,54604,$0,0.0%,N/A,N/A,N/A,N/A,32,50.0%,N/A,100.0%,N/A,N/A,0.0%,0.0%,50.0%,Flathead County,28.00%,63.70%,0.0%,0.0%,100.0%,0.0%,50.0%,N/A,85,32,53,24.76,109,56.3,5.4,91,5166,3.2,N/A,MT-53725,47.8309261,-114.5577886,54%,73%,34%,54%,38%,21.1,31,46,53,22,4.59,7.27,32.19%,18.24%,43.0%,36
North Browning,Montana,2862,990,None,8027993,$34625,22.58%,27,N/A,N/A,N/A,38,42.92%,$386,68.75%,N/A,N/A,35.67%,9.23%,47.27%,Glacier County,61.50%,31.90%,0.0%,0.49%,3.63%,4.02%,0.42%,N/A,76,29,47,30.43,87,39.9,5.4,93,4395,3.1,2.89,MT-54510,48.570508,-113.0266176,58%,73%,43%,54%,38%,21.1,31,46,47,11,6.21,8.17,41.51%,31.1%,49.67%,24
Noxon,Montana,162,131,None,8027993,$61771,20.61%,48,N/A,N/A,N/A,61,82.72%,N/A,58.44%,N/A,N/A,31.48%,0.0%,48.65%,Sanders County,20.50%,72.00%,0.0%,0.0%,100.0%,0.0%,0.0%,N/A,87,33,54,38.78,153,74.4,5.4,90,2115,3.2,1.24,MT-54925,47.985046,-115.7708575,52%,73%,28%,54%,38%,21.1,31,46,49,22,4.61,13.94,45.75%,23.3%,60.22%,35
Old Agency,Montana,61,107,None,8027993,$12500,21.05%,45,N/A,N/A,N/A,49,63.93%,N/A,65.12%,N/A,N/A,50.82%,7.14%,34.15%,Sanders County,20.50%,72.00%,0.0%,0.0%,6.56%,0.0%,0.0%,N/A,88,32,56,37.04,111,51.8,5.4,92,5625,3.2,0.57,MT-55260,47.3226021,-114.2987623,54%,73%,34%,51%,33%,23.0,32,45,49,18,5.6,11.82,40.14%,21.54%,54.44%,39
Olney,Montana,113,85,Kalispell,54604,$27143,5.56%,46,N/A,N/A,N/A,47,73.45%,N/A,81.44%,N/A,N/A,29.2%,0.0%,46.39%,Flathead County,28.00%,63.70%,0.0%,0.0%,100.0%,0.0%,0.0%,N/A,84,31,53,27.88,108,56.3,5.4,91,4605,3.2,1.33,MT-55450,48.5488297,-114.5720072,54%,73%,34%,54%,38%,21.1,31,46,48,17,4.87,8.71,33.53%,18.46%,45.89%,36
Opheim,Montana,67,319,None,8027993,$31750,10.45%,60,N/A,N/A,N/A,74,68.66%,$461,70.15%,N/A,N/A,2.99%,0.0%,62.69%,Valley County,22.80%,69.30%,0.0%,0.0%,94.03%,5.97%,1.49%,N/A,83,23,60,14.55,73,44.2,N/A,95,2631,3.6,0.21,MT-55525,48.8570553,-106.4083596,60%,73%,52%,52%,35%,26.1,28,47,51,1,6.45,1.2,19.42%,25.38%,14.56%,33
Orchard Homes,Montana,5480,975,Missoula,90782,$71316,44.86%,42,N/A,N/A,N/A,47,65.93%,$1080,40.83%,N/A,N/A,6.37%,3.98%,60.64%,Missoula County,51.90%,36.60%,2.12%,0.0%,91.77%,0.99%,3.32%,Mountain Standard Time,87,31,56,15.12,121,45.2,5.4,72,2847,3.1,5.62,MT-55675,46.8559104,-114.0778569,54%,73%,34%,51%,33%,23.0,32,45,52,18,4.19,3.19,34.11%,24.62%,42.11%,39
Outlook,Montana,102,82,None,8027993,$73750,25.81%,32,N/A,N/A,N/A,43,96.08%,N/A,12.9%,N/A,N/A,1.96%,0.0%,66.13%,Sheridan County,26.00%,67.60%,0.0%,0.0%,91.18%,7.84%,3.92%,N/A,82,21,61,16.4,61,44.2,N/A,96,2088,3.7,1.25,MT-56050,48.8887845,-104.7849143,60%,73%,52%,58%,47%,27.9,29,50,56,3,7.69,1.44,24.47%,31.87%,17.78%,33
Ovando,Montana,69,8,None,8027993,$64063,7.41%,54,N/A,N/A,N/A,42,86.96%,$688,22.95%,N/A,N/A,0.0%,7.69%,42.62%,Powell County,19.70%,72.60%,0.0%,0.0%,82.61%,0.0%,0.0%,N/A,85,32,53,25.69,100,143.2,5.4,93,5715,3.7,9.01,MT-56125,47.0207283,-113.1717353,54%,73%,34%,51%,33%,23.0,32,45,42,10,4.62,7.25,31.95%,18.57%,41.67%,79
Pablo,Montana,2032,419,None,8027993,$23750,16.96%,25,N/A,N/A,N/A,29,46.19%,$556,63.68%,N/A,N/A,49.27%,11.42%,61.85%,Lake County,36.20%,57.10%,0.0%,1.18%,28.05%,9.06%,2.17%,N/A,85,32,53,26.41,109,143.2,5.4,91,3120,3.1,4.85,MT-56350,47.603525,-114.1058676,54%,73%,34%,54%,38%,21.1,31,46,53,22,5.86,6.02,35.81%,20.99%,47.67%,79
Paradise,Montana,114,456,None,8027993,$34844,5.41%,43,N/A,N/A,N/A,72,68.42%,N/A,65.22%,N/A,N/A,24.56%,35.56%,52.33%,Sanders County,20.50%,72.00%,0.0%,0.0%,96.49%,3.51%,0.0%,N/A,86,31,55,37.04,120,51.8,5.4,91,5625,3.2,0.25,MT-56425,47.3856769,-114.7988737,54%,73%,34%,51%,33%,23.0,32,45,45,18,5.6,11.82,40.14%,21.54%,54.44%,39
Park City,Montana,1090,694,None,8027993,$65000,12.13%,38,N/A,N/A,N/A,36,75.6%,$938,41.97%,N/A,N/A,2.84%,8.39%,57.41%,Stillwater County,18.60%,75.10%,0.0%,0.0%,100.0%,0.0%,0.0%,N/A,87,35,52,15.93,89,54.7,7.2,93,3111,3.7,1.57,MT-56575,45.6309457,-108.9253102,58%,70%,45%,45%,34%,26.4,29,45,50,11,4.35,1.88,23.23%,24.73%,16.78%,28
Parker School,Montana,659,89,None,8027993,$36250,24.49%,27,N/A,N/A,N/A,41,97.57%,N/A,47.75%,N/A,N/A,25.95%,3.33%,27.4%,Hill County,36.80%,54.00%,0.0%,0.0%,0.91%,0.0%,0.91%,N/A,87,32,55,27.22,76,44.0,N/A,96,4299,3.8,7.39,MT-56650,48.2468013,-109.7342358,67%,82%,51%,49%,33%,24.8,28,43,55,13,5.92,5.63,29.07%,20.11%,35.0%,27
Philipsburg,Montana,937,1102,None,8027993,$37500,28.85%,47,N/A,N/A,N/A,63,72.28%,$637,64.14%,N/A,N/A,15.63%,9.33%,51.16%,Granite County,26.60%,67.10%,0.0%,0.0%,94.56%,4.27%,1.07%,N/A,82,34,48,41.12,104,45.2,5.4,91,4818,3,0.85,MT-57175,46.3324293,-113.2960022,54%,73%,34%,51%,33%,23.0,32,45,43,14,7.66,11.58,46.49%,29.45%,55.78%,39
Piltzville,Montana,690,920,Missoula,90782,$82868,15.07%,35,N/A,N/A,N/A,53,38.41%,$1343,56.29%,N/A,N/A,5.1%,0.83%,80.33%,Missoula County,51.90%,36.60%,0.0%,0.0%,93.62%,6.38%,0.0%,Mountain Standard Time,87,31,56,21.29,119,45.2,5.4,83,3042,3.1,0.75,MT-57475,46.8582563,-113.8590863,54%,73%,34%,51%,33%,23.0,32,45,52,18,3.94,5.38,44.0%,21.87%,61.33%,39
Pinesdale,Montana,999,768,None,8027993,$50313,4.57%,20,N/A,N/A,N/A,41,80.08%,$1089,56.48%,N/A,N/A,24.42%,3.98%,76.08%,Ravalli County,27.60%,65.70%,0.0%,0.0%,96.5%,1.6%,1.4%,N/A,85,34,51,15.24,107,45.2,5.4,88,3279,3,1.3,MT-57700,46.3338786,-114.2231669,54%,73%,34%,51%,33%,23.0,32,45,50,18,3.31,3.57,29.89%,21.76%,33.78%,39
Pioneer Junction,Montana,880,250,None,8027993,$39583,19.11%,64,N/A,N/A,N/A,35,98.98%,N/A,16.41%,N/A,N/A,12.95%,10.39%,35.54%,Lincoln County,21.90%,72.10%,0.0%,0.0%,95.57%,0.0%,4.66%,N/A,86,34,52,20.69,128,33.4,5.4,92,1929,3,3.52,MT-57950,48.3157984,-115.518258,52%,73%,28%,54%,38%,21.1,31,46,51,22,4.65,4.98,45.75%,23.3%,60.22%,15
Plains,Montana,1019,1644,None,8027993,$23413,14.51%,44,N/A,N/A,N/A,47,52.69%,$659,61.42%,N/A,N/A,19.78%,0.69%,48.93%,Sanders County,20.50%,72.00%,0.0%,0.69%,92.05%,1.96%,1.28%,N/A,88,33,55,21.76,130,51.8,5.4,91,2175,3.2,0.62,MT-58150,47.4601958,-114.8842018,54%,73%,34%,51%,33%,23.0,32,45,54,24,3.32,6.63,43.18%,24.51%,55.56%,39
Plentywood,Montana,1527,1123,None,8027993,$51182,21.79%,48,N/A,N/A,N/A,59,79.26%,$718,48.27%,N/A,N/A,8.56%,1.85%,59.33%,Sheridan County,26.00%,67.60%,0.98%,0.0%,88.28%,5.83%,2.49%,N/A,84,24,60,15.77,61,44.2,N/A,96,1869,3.7,1.36,MT-58375,48.7760201,-104.5572968,60%,73%,52%,58%,47%,27.9,29,50,54,1,6.91,1.47,24.47%,31.87%,17.78%,33
Plevna,Montana,311,527,None,8027993,$63839,27.39%,26,N/A,N/A,N/A,49,73.63%,N/A,37.79%,N/A,N/A,11.07%,0.0%,73.37%,Fallon County,10.40%,86.20%,0.0%,0.0%,97.11%,0.64%,0.0%,N/A,87,31,56,16.27,77,35.3,N/A,91,2541,3.7,0.59,MT-58450,46.4183415,-104.5185946,60%,73%,52%,58%,47%,27.4,30,48,56,7,5.63,1.47,27.92%,30.11%,26.11%,30
Polson,Montana,5033,1109,None,8027993,$39604,27.19%,45,N/A,N/A,N/A,41,55.17%,$765,50.12%,512,3881,12.28%,4.63%,58.87%,Lake County,36.20%,57.10%,0.72%,0.83%,68.13%,3.26%,3.4%,N/A,85,32,53,16.08,108,143.2,5.4,89,2496,3.1,4.54,MT-58750,47.6886189,-114.1410724,54%,73%,34%,54%,38%,21.1,31,46,53,22,3.94,3.51,37.7%,25.27%,43.44%,79
Ponderosa Pines,Montana,420,11,Bozeman,66756,$73710,9.38%,50,N/A,N/A,N/A,30,96.43%,N/A,16.03%,N/A,N/A,0.0%,0.0%,73.54%,Gallatin County,45.10%,44.20%,0.0%,0.0%,100.0%,0.0%,0.0%,N/A,86,32,54,16.21,88,37.6,6.9,94,3690,3.8,39.65,MT-58840,46.0373811,-111.34997,57%,71%,42%,46%,32%,28.0,27,42,54,15,5.18,1.74,29.34%,29.45%,20.78%,23
Pony,Montana,138,103,None,8027993,$39196,42.57%,40,N/A,N/A,N/A,59,68.84%,N/A,39.09%,N/A,N/A,13.77%,0.0%,59.05%,Madison County,24.90%,69.50%,0.0%,0.0%,90.58%,5.8%,0.0%,N/A,86,38,48,39.44,102,46.8,6.9,97,7590,3.6,1.34,MT-58900,45.662844,-111.8825786,57%,71%,42%,46%,32%,28.0,27,42,57,23,6.99,8.51,40.63%,27.69%,46.11%,26
Poplar,Montana,971,3468,None,8027993,$47083,16.49%,29,N/A,N/A,N/A,65,73.74%,$605,71.54%,N/A,N/A,29.19%,8.39%,41.16%,Roosevelt County,42.70%,49.20%,0.0%,0.41%,16.79%,3.19%,1.44%,N/A,85,24,61,14.34,55,44.2,N/A,95,1908,3.7,0.28,MT-58975,48.1104823,-105.1968873,60%,73%,52%,52%,35%,26.1,28,47,54,1,6.47,1.1,25.67%,32.53%,21.0%,33
Power,Montana,153,102,None,8027993,$41964,20.17%,56,N/A,N/A,N/A,51,67.32%,$825,51.88%,N/A,N/A,1.96%,2.5%,60.15%,Teton County,25.30%,68.10%,0.0%,0.0%,97.39%,0.0%,0.65%,N/A,81,34,47,13.84,81,76.8,6.9,95,3234,3.9,1.5,MT-59500,47.7204503,-111.694337,58%,73%,43%,46%,33%,24.8,28,43,54,15,4.73,1.37,16.66%,19.12%,13.89%,44
Pray,Montana,719,25,None,8027993,$75109,32.01%,59,N/A,N/A,N/A,25,72.04%,$1169,30.42%,N/A,N/A,15.02%,4.05%,58.18%,Park County,38.40%,53.20%,0.0%,0.0%,95.13%,2.36%,0.83%,N/A,84,33,51,15.75,95,116.8,6.9,97,4611,3.6,28.63,MT-59725,45.4150696,-110.6532827,57%,71%,42%,46%,32%,28.0,27,42,53,19,4.85,1.94,26.71%,31.32%,23.44%,37
Pryor,Montana,579,15,None,8027993,$43750,13.58%,29,N/A,N/A,N/A,39,67.36%,N/A,49.12%,N/A,N/A,42.49%,18.85%,61.77%,Big Horn County,49.40%,43.70%,0.0%,0.0%,20.9%,5.18%,0.0%,N/A,89,35,54,15.86,74,50.4,7.2,95,3711,3.7,39.8,MT-59950,45.4125186,-108.5291337,58%,70%,45%,45%,34%,26.4,29,45,53,14,3.7,2.04,27.56%,29.67%,22.67%,30
Rader Creek,Montana,295,15,Helena,66633,$70552,25.62%,51,N/A,N/A,N/A,24,81.69%,N/A,38.84%,N/A,N/A,4.07%,8.26%,50.0%,Jefferson County,29.80%,62.20%,0.0%,0.0%,93.22%,6.78%,9.49%,N/A,83,30,53,24.25,86,46.8,6.9,96,6567,3.6,20.25,MT-60450,45.8455505,-112.3160373,57%,71%,42%,46%,32%,28.0,27,42,47,7,6.67,3.71,31.45%,25.49%,29.56%,26
Radersburg,Montana,56,224,None,8027993,$16364,23.21%,78,N/A,N/A,N/A,42,100.0%,N/A,100.0%,N/A,N/A,17.86%,0.0%,0.0%,Broadwater County,18.30%,74.90%,0.0%,0.0%,100.0%,0.0%,0.0%,N/A,85,33,52,12.94,84,37.6,6.9,95,3624,3.6,0.25,MT-60475,46.1963661,-111.6313548,57%,71%,42%,46%,32%,28.0,27,42,52,14,5.17,1.18,33.81%,30.11%,31.33%,23
Ravalli,Montana,220,84,None,8027993,$66302,14.55%,38,N/A,N/A,N/A,47,96.36%,N/A,80.0%,N/A,N/A,11.36%,5.63%,72.73%,Lake County,36.20%,57.10%,0.0%,0.0%,89.55%,0.0%,0.0%,N/A,80,29,51,37.04,110,143.2,5.4,92,5625,3.1,2.63,MT-61075,47.2798079,-114.1658121,54%,73%,34%,51%,33%,23.0,32,45,51,16,5.6,11.82,40.14%,21.54%,54.44%,79
Red Lodge,Montana,2134,787,Billings,131182,$49286,44.31%,52,N/A,N/A,N/A,59,61.07%,$711,51.86%,215,993,12.86%,1.36%,65.19%,Carbon County,30.50%,62.60%,2.11%,1.08%,87.68%,5.81%,3.33%,Mountain Standard Time,82,34,48,23.23,81,25.3,7.2,95,5163,3.9,2.71,MT-61525,45.1933392,-109.2501437,58%,70%,45%,45%,34%,26.4,29,45,51,14,4.68,3.58,28.08%,25.38%,24.22%,16
Reed Point,Montana,247,441,None,8027993,$35577,14.94%,49,N/A,N/A,N/A,39,90.28%,N/A,43.32%,N/A,N/A,7.38%,4.42%,52.07%,Stillwater County,18.60%,75.10%,0.0%,0.0%,93.12%,4.05%,0.0%,N/A,86,36,50,15.83,78,59.4,6.9,93,3294,3.7,0.56,MT-61900,45.7070844,-109.5472809,58%,70%,45%,45%,34%,26.4,29,45,51,10,4.0,1.98,25.51%,29.67%,20.33%,30
Reserve,Montana,36,27,None,8027993,$111250,21.43%,57,N/A,N/A,N/A,65,80.56%,N/A,40.0%,N/A,N/A,30.56%,0.0%,50.0%,Sheridan County,26.00%,67.60%,0.0%,0.0%,97.22%,0.0%,0.0%,N/A,85,23,62,15.58,64,44.2,N/A,95,1776,3.7,1.35,MT-62125,48.6023665,-104.467607,60%,73%,52%,58%,47%,27.9,29,50,55,2,7.03,1.06,24.47%,31.87%,17.78%,33
Rexford,Montana,58,644,None,8027993,$34375,0.0%,64,N/A,N/A,N/A,41,100.0%,N/A,36.21%,N/A,N/A,36.21%,54.55%,18.97%,Lincoln County,21.90%,72.10%,0.0%,0.0%,79.31%,20.69%,0.0%,N/A,87,32,55,14.92,107,33.4,5.4,93,2316,3,0.09,MT-62200,48.8997922,-115.1714313,52%,73%,28%,54%,38%,21.1,31,46,54,20,4.41,3.06,27.75%,22.75%,31.11%,15
Richey,Montana,167,642,None,8027993,$66667,24.81%,46,N/A,N/A,N/A,66,81.44%,N/A,42.95%,N/A,N/A,3.59%,3.7%,72.48%,Dawson County,17.80%,75.30%,0.6%,0.0%,94.61%,3.59%,2.99%,N/A,86,27,59,16.08,56,63.7,N/A,95,2166,3.5,0.26,MT-62275,47.6439033,-105.0695981,60%,73%,52%,58%,47%,27.9,29,50,57,6,6.36,1.37,14.99%,19.56%,9.56%,43
Riverbend,Montana,332,84,None,8027993,$55208,15.96%,38,N/A,N/A,N/A,43,51.51%,$1050,59.58%,N/A,N/A,23.99%,0.0%,63.57%,Mineral County,25.80%,66.10%,2.11%,0.0%,87.05%,10.84%,5.72%,N/A,88,32,56,63.42,119,51.8,5.4,89,5532,3.2,3.94,MT-63042,47.1471873,-114.8319108,54%,73%,34%,51%,33%,23.0,32,45,49,18,5.73,25.49,46.05%,23.96%,60.11%,39
Roberts,Montana,298,75,Billings,131182,$65000,41.63%,45,N/A,N/A,N/A,43,57.38%,$917,52.63%,N/A,N/A,15.1%,2.35%,63.91%,Carbon County,30.50%,62.60%,0.0%,0.0%,100.0%,0.0%,0.0%,Mountain Standard Time,82,34,48,14.68,73,54.7,7.2,97,4251,3.9,3.98,MT-63400,45.343614,-109.1817505,58%,70%,45%,45%,34%,26.4,29,45,51,14,3.71,1.28,18.6%,20.88%,13.56%,28
Rocky Boy West,Montana,836,153,None,8027993,$29643,6.95%,27,N/A,N/A,N/A,33,22.13%,$298,64.55%,N/A,N/A,36.93%,4.58%,50.44%,Chouteau County,28.10%,64.50%,0.0%,0.0%,3.95%,0.96%,0.0%,N/A,87,32,55,14.8,76,44.0,N/A,96,2532,3.9,5.45,MT-63928,48.2971534,-109.9918391,67%,82%,51%,49%,33%,24.8,28,43,55,13,5.03,1.55,23.64%,26.04%,20.22%,27
Rocky Boy's Agency,Montana,353,41,None,8027993,$47798,17.59%,30,N/A,N/A,N/A,48,43.63%,$418,64.39%,N/A,N/A,25.21%,0.0%,57.2%,Hill County,36.80%,54.00%,0.0%,0.0%,1.98%,0.0%,0.0%,N/A,87,32,55,27.22,76,44.0,N/A,96,4299,3.8,8.58,MT-63900,48.2589974,-109.764736,67%,82%,51%,49%,33%,24.8,28,43,55,13,5.92,5.63,29.07%,20.11%,35.0%,27
Rocky Point,Montana,126,207,None,8027993,$132895,36.51%,70,N/A,N/A,N/A,44,100.0%,N/A,0.0%,N/A,N/A,0.0%,0.0%,11.9%,Lake County,36.20%,57.10%,0.0%,0.0%,100.0%,0.0%,30.95%,N/A,85,32,53,16.08,108,143.2,5.4,88,2496,3.1,0.61,MT-63940,47.7323268,-114.1854755,54%,73%,34%,54%,38%,21.1,31,46,53,22,3.94,3.51,37.7%,25.27%,43.44%,79
Rollins,Montana,156,54,None,8027993,$33958,53.74%,61,N/A,N/A,N/A,41,87.3%,N/A,32.03%,N/A,N/A,12.42%,3.16%,62.09%,Lake County,36.20%,57.10%,2.56%,0.0%,80.13%,12.18%,8.33%,N/A,82,35,47,22.42,112,56.3,5.4,89,2724,3.1,2.87,MT-64075,47.9105288,-114.1948678,54%,73%,34%,54%,38%,21.1,31,46,56,26,5.57,5.07,32.19%,18.24%,43.0%,36
Ronan,Montana,1812,1510,None,8027993,$30368,19.29%,37,N/A,N/A,N/A,50,51.87%,$625,63.74%,899,2366,25.2%,9.9%,57.45%,Lake County,36.20%,57.10%,1.99%,0.77%,49.61%,8.33%,2.48%,N/A,85,32,53,26.41,109,143.2,5.4,92,3120,3.1,1.2,MT-64150,47.5286943,-114.1005355,54%,73%,34%,51%,33%,23.0,32,45,53,22,5.86,6.02,35.81%,20.99%,47.67%,79
Roscoe,Montana,41,178,Billings,131182,$0,31.71%,68,N/A,N/A,N/A,58,100.0%,N/A,0.0%,N/A,N/A,0.0%,0.0%,34.15%,Carbon County,30.50%,62.60%,0.0%,0.0%,100.0%,0.0%,0.0%,Mountain Standard Time,76,32,44,18.25,79,76.8,7.2,97,4116,3.9,0.23,MT-64300,45.3518131,-109.4933464,58%,70%,45%,45%,34%,26.4,29,45,51,16,4.34,2.58,18.08%,21.87%,14.56%,20
Rosebud,Montana,36,47,None,8027993,$51429,47.22%,62,N/A,N/A,N/A,76,100.0%,N/A,19.44%,N/A,N/A,13.89%,0.0%,58.33%,Rosebud County,28.60%,65.20%,0.0%,0.0%,100.0%,0.0%,0.0%,N/A,89,34,55,16.56,74,38.6,7.2,90,2301,3.7,0.76,MT-64375,46.2711658,-106.4468782,60%,71%,52%,51%,37%,27.4,30,48,59,12,4.63,1.96,23.92%,25.6%,21.0%,18
Roundup,Montana,1723,1336,None,8027993,$34395,14.06%,51,N/A,N/A,N/A,73,62.49%,$766,49.83%,N/A,N/A,15.09%,3.9%,49.48%,Musselshell County,13.60%,80.60%,1.8%,0.0%,91.29%,3.25%,5.4%,N/A,91,36,55,15.92,74,45.4,7.2,92,2925,3.8,1.29,MT-64525,46.4484563,-108.5401487,58%,70%,45%,45%,34%,26.4,29,45,54,14,5.54,1.38,21.81%,24.73%,16.11%,22
Roy,Montana,120,35,None,8027993,$39219,11.96%,58,N/A,N/A,N/A,46,42.5%,$707,53.13%,N/A,N/A,26.67%,2.9%,71.88%,Fergus County,20.60%,73.10%,0.0%,3.33%,77.5%,0.0%,11.67%,N/A,87,32,55,15.89,75,59.1,N/A,97,2661,3.7,3.4,MT-64675,47.3342983,-108.9599947,67%,82%,51%,49%,33%,26.4,29,45,56,10,5.23,1.59,21.26%,24.73%,15.67%,30
Rudyard,Montana,224,243,None,8027993,$65625,24.81%,35,N/A,N/A,N/A,59,39.29%,$532,58.11%,N/A,N/A,3.17%,0.0%,76.35%,Hill County,36.80%,54.00%,0.0%,0.0%,99.11%,0.0%,0.0%,N/A,85,30,55,12.97,56,44.0,N/A,96,3039,3.8,0.92,MT-64900,48.5598724,-110.5500607,67%,82%,51%,49%,33%,24.8,28,43,53,8,4.71,1.54,17.97%,22.2%,14.0%,27
Ryegate,Montana,283,377,Billings,131182,$48750,15.22%,57,N/A,N/A,N/A,77,77.39%,$1021,42.24%,N/A,N/A,25.44%,0.0%,40.52%,Golden Valley County,15.00%,77.00%,0.0%,4.24%,78.09%,14.84%,4.59%,Mountain Standard Time,88,37,51,17.36,71,59.1,6.9,96,3339,3.8,0.75,MT-64975,46.298439,-109.2537471,58%,70%,45%,45%,34%,26.4,29,45,53,14,5.72,1.82,23.7%,26.37%,20.33%,30
Saco,Montana,279,930,None,8027993,$44236,8.67%,41,N/A,N/A,N/A,68,73.48%,$464,61.54%,N/A,N/A,30.11%,6.63%,71.24%,Phillips County,14.60%,79.40%,0.0%,0.0%,87.81%,0.0%,0.0%,N/A,84,27,57,14.52,66,44.2,N/A,94,1998,3.7,0.3,MT-65050,48.4570704,-107.3413346,67%,82%,51%,52%,35%,26.1,28,47,55,5,6.09,1.15,17.48%,22.86%,13.11%,33
Saddle Butte,Montana,101,40,None,8027993,$94028,17.57%,39,N/A,N/A,N/A,18,80.2%,N/A,28.95%,N/A,N/A,0.0%,30.0%,65.79%,Hill County,36.80%,54.00%,0.0%,0.0%,97.03%,0.0%,0.0%,N/A,87,30,57,12.25,84,44.0,N/A,94,2364,3.8,2.51,MT-65065,48.5234471,-109.6448809,67%,82%,51%,49%,33%,24.8,28,43,54,10,4.09,1.58,25.84%,26.15%,25.44%,27
Sand Coulee,Montana,201,75,Great Falls,69250,$57500,35.15%,55,N/A,N/A,N/A,49,81.59%,$738,25.7%,N/A,N/A,6.47%,15.19%,48.6%,Cascade County,35.20%,56.80%,0.0%,0.0%,100.0%,0.0%,1.49%,Mountain Standard Time,87,35,52,16.11,89,77.4,6.9,95,3204,3.8,2.69,MT-65950,47.4024097,-111.1726147,58%,73%,43%,46%,33%,24.8,28,43,56,19,4.82,2.32,24.36%,23.3%,23.67%,44
Sangrey,Montana,418,66,None,8027993,$22132,15.42%,24,N/A,N/A,N/A,42,34.45%,$318,74.75%,N/A,N/A,43.54%,18.98%,47.57%,Hill County,36.80%,54.00%,0.0%,0.0%,0.0%,1.44%,0.0%,N/A,86,30,56,27.22,76,44.0,N/A,96,4299,3.8,6.31,MT-66212,48.284465,-109.820587,67%,82%,51%,49%,33%,24.8,28,43,55,10,5.92,5.63,29.07%,20.11%,35.0%,27
Santa Rita,Montana,155,45,None,8027993,$11713,0.0%,42,N/A,N/A,N/A,45,76.77%,N/A,71.94%,N/A,N/A,92.9%,20.0%,32.37%,Glacier County,61.50%,31.90%,0.0%,0.0%,87.1%,1.29%,0.0%,N/A,82,31,51,15.85,65,39.9,5.4,95,3429,3.1,3.46,MT-66250,48.698468,-112.3187671,58%,73%,43%,46%,33%,24.8,28,43,50,12,4.69,2.16,20.0%,22.97%,15.33%,24
Savage,Montana,234,325,None,8027993,$65000,21.74%,51,N/A,N/A,N/A,55,58.55%,$588,58.45%,N/A,N/A,9.83%,0.0%,63.77%,Richland County,13.80%,80.20%,0.0%,0.0%,96.15%,3.85%,3.85%,N/A,89,31,58,15.37,80,63.7,N/A,92,1809,3.7,0.72,MT-66550,47.4536468,-104.3413497,60%,73%,52%,58%,47%,27.9,29,50,58,9,5.85,1.17,18.19%,23.74%,12.44%,43
Scobey,Montana,1047,1415,None,8027993,$42083,15.82%,52,N/A,N/A,N/A,63,76.17%,$505,47.09%,N/A,N/A,2.73%,0.72%,63.62%,Daniels County,17.50%,75.90%,0.57%,0.0%,90.16%,2.48%,1.43%,N/A,85,24,61,14.32,71,44.2,N/A,97,2187,3.8,0.74,MT-66925,48.7903893,-105.4206267,60%,73%,52%,52%,35%,26.1,28,47,52,1,6.25,0.94,23.34%,28.9%,18.56%,33
Sedan,Montana,56,1,Bozeman,66756,$101250,27.27%,68,N/A,N/A,N/A,34,60.71%,N/A,41.82%,N/A,N/A,25.0%,0.0%,63.64%,Gallatin County,45.10%,44.20%,0.0%,0.0%,100.0%,0.0%,0.0%,N/A,85,31,54,49.15,108,116.8,6.9,95,6693,3.8,60.99,MT-67075,45.9652876,-110.8887386,57%,71%,42%,46%,32%,28.0,27,42,49,12,8.39,12.83,41.53%,26.15%,51.22%,37
Seeley Lake,Montana,1512,123,Missoula,90782,$42768,23.17%,57,N/A,N/A,N/A,32,94.91%,$865,39.79%,N/A,N/A,3.37%,5.89%,44.38%,Missoula County,51.90%,36.60%,3.37%,0.0%,92.06%,3.51%,8.6%,Mountain Standard Time,85,31,54,22.68,129,143.2,5.4,89,3720,3.1,12.26,MT-67150,47.1624212,-113.454746,54%,73%,34%,51%,33%,23.0,32,45,44,13,4.21,7.56,47.64%,22.09%,67.56%,79
Shawmut,Montana,47,22,None,8027993,$39375,38.3%,59,N/A,N/A,N/A,72,57.45%,N/A,19.15%,N/A,N/A,14.89%,0.0%,48.94%,Wheatland County,18.90%,74.20%,0.0%,0.0%,100.0%,0.0%,0.0%,N/A,88,37,51,17.36,73,59.1,6.9,98,3339,3.7,2.15,MT-67225,46.3446628,-109.512154,58%,70%,45%,45%,34%,26.4,29,45,53,14,5.72,1.82,23.7%,26.37%,20.33%,30
Shelby,Montana,2875,497,None,8027993,$44250,21.09%,46,N/A,N/A,N/A,62,60.44%,$557,55.76%,N/A,N/A,10.33%,1.54%,49.7%,Toole County,19.70%,73.50%,0.28%,0.87%,83.03%,3.86%,3.55%,N/A,83,32,51,12.83,63,39.9,5.4,91,3042,3.8,5.78,MT-67450,48.5030692,-111.8613803,58%,73%,43%,46%,33%,24.8,28,43,51,9,4.41,1.56,22.99%,26.04%,20.33%,24
Shepherd,Montana,944,425,Billings,131182,$130000,41.05%,39,N/A,N/A,N/A,30,85.38%,N/A,29.95%,N/A,N/A,5.08%,0.0%,76.01%,Yellowstone County,31.50%,58.10%,0.0%,0.0%,84.22%,0.0%,0.0%,Mountain Standard Time,89,36,53,14.82,78,40.3,7.2,88,2775,3.8,2.22,MT-67525,45.9468051,-108.3463477,58%,70%,45%,45%,34%,26.4,29,45,55,13,4.24,1.63,24.14%,25.71%,19.33%,25
Sheridan,Montana,869,860,None,8027993,$70313,31.98%,57,N/A,N/A,N/A,48,86.89%,$642,45.15%,N/A,N/A,5.72%,1.88%,56.88%,Madison County,24.90%,69.50%,0.0%,0.0%,90.91%,3.11%,2.76%,N/A,81,32,49,14.41,90,46.8,6.9,98,4938,3.6,1.01,MT-67600,45.4588328,-112.1946403,57%,71%,42%,46%,32%,28.0,27,42,51,13,4.91,1.75,19.01%,23.85%,12.11%,26
Sidney,Montana,6351,1930,None,8027993,$60284,17.11%,35,N/A,N/A,N/A,42,68.01%,$771,50.13%,470,1191,6.67%,1.36%,69.8%,Richland County,13.80%,80.20%,0.0%,0.0%,86.49%,3.92%,2.49%,N/A,88,29,59,16.55,77,63.7,N/A,88,1767,3.7,3.29,MT-67900,47.7151888,-104.1680378,60%,73%,52%,58%,47%,27.9,29,50,58,9,6.65,1.52,18.19%,23.74%,12.44%,43
Silesia,Montana,16,9,Billings,131182,$45833,31.25%,62,N/A,N/A,N/A,41,100.0%,N/A,31.25%,N/A,N/A,0.0%,0.0%,100.0%,Carbon County,30.50%,62.60%,0.0%,0.0%,100.0%,0.0%,0.0%,Mountain Standard Time,87,35,52,15.93,77,54.7,7.2,93,3111,3.9,1.87,MT-68050,45.5559615,-108.8367996,58%,70%,45%,45%,34%,26.4,29,45,50,11,4.35,1.88,23.23%,24.73%,16.78%,28
Silver Gate,Montana,88,20,None,8027993,$222935,19.48%,57,N/A,N/A,N/A,43,100.0%,N/A,7.79%,N/A,N/A,0.0%,0.0%,54.55%,Park County,38.40%,53.20%,0.0%,0.0%,100.0%,0.0%,0.0%,N/A,75,24,51,25.92,143,221.5,6.9,96,6855,3.6,4.36,MT-68425,45.0197855,-109.9829403,58%,70%,45%,45%,34%,26.4,29,45,40,1,5.64,6.69,36.25%,30.11%,42.33%,60
Simms,Montana,338,44,Great Falls,69250,$83317,22.61%,39,N/A,N/A,N/A,72,73.37%,$677,16.91%,N/A,N/A,0.0%,0.0%,65.7%,Cascade County,35.20%,56.80%,0.0%,0.0%,93.79%,0.0%,1.78%,Mountain Standard Time,81,34,47,12.46,77,55.9,6.9,92,3642,3.8,7.61,MT-68575,47.4930817,-111.9474363,58%,73%,43%,46%,33%,24.8,28,43,54,15,4.28,1.31,16.66%,19.12%,13.89%,32
Somers,Montana,1079,366,Kalispell,54604,$46775,9.42%,65,N/A,N/A,N/A,41,53.67%,$953,33.3%,N/A,N/A,3.3%,0.0%,47.35%,Flathead County,28.00%,63.70%,0.0%,0.0%,99.44%,0.19%,0.0%,N/A,82,32,50,18.82,123,56.3,5.4,89,2685,3.2,2.95,MT-69475,48.0824674,-114.2343731,54%,73%,34%,54%,38%,21.1,31,46,51,19,5.29,4.44,35.56%,27.36%,41.67%,36
South Browning,Montana,1742,744,None,8027993,$18587,14.41%,27,N/A,N/A,N/A,46,19.12%,$377,71.78%,N/A,N/A,41.87%,18.47%,55.96%,Glacier County,61.50%,31.90%,0.0%,0.0%,2.64%,5.4%,0.0%,N/A,76,29,47,30.43,87,39.9,5.4,93,4395,3.1,2.34,MT-69680,48.5458637,-113.0127055,58%,73%,43%,54%,38%,21.1,31,46,47,11,6.21,8.17,42.99%,21.65%,59.89%,24
South Glastonbury,Montana,379,22,None,8027993,$56838,31.91%,59,N/A,N/A,N/A,32,92.61%,N/A,14.72%,N/A,N/A,17.94%,0.0%,46.11%,Park County,38.40%,53.20%,2.9%,0.0%,94.46%,0.0%,6.07%,N/A,84,33,51,47.83,102,92.4,6.9,97,7407,3.6,17.49,MT-69713,45.32584,-110.808081,57%,71%,42%,46%,32%,28.0,27,42,53,19,8.71,11.43,47.23%,34.51%,54.67%,66
South Hills,Montana,586,100,Helena,66633,$143958,72.89%,46,N/A,N/A,N/A,18,98.12%,N/A,25.26%,N/A,N/A,0.85%,0.0%,55.51%,Jefferson County,29.80%,62.20%,0.0%,0.0%,93.69%,1.88%,0.51%,N/A,88,32,56,11.59,90,37.6,6.9,91,3501,3.6,5.87,MT-69725,46.5564075,-111.9975418,57%,71%,42%,46%,32%,28.0,27,42,56,14,3.75,1.66,24.44%,23.63%,23.67%,23
Spokane Creek,Montana,438,25,None,8027993,$77679,36.91%,42,N/A,N/A,N/A,19,67.81%,N/A,43.45%,N/A,N/A,0.0%,25.42%,66.85%,Broadwater County,18.30%,74.90%,0.0%,0.0%,100.0%,0.0%,0.0%,N/A,88,32,56,11.59,87,37.6,6.9,95,3501,3.6,17.29,MT-69900,46.5343102,-111.7391343,57%,71%,42%,46%,32%,28.0,27,42,56,14,3.75,1.66,24.44%,23.63%,23.67%,23
Springdale,Montana,26,200,None,8027993,$43333,0.0%,60,N/A,N/A,N/A,36,84.62%,N/A,46.15%,N/A,N/A,15.38%,0.0%,80.77%,Park County,38.40%,53.20%,0.0%,0.0%,100.0%,0.0%,0.0%,N/A,88,36,52,15.91,110,116.8,6.9,97,3873,3.6,0.13,MT-70150,45.7381149,-110.223542,58%,70%,45%,45%,34%,26.4,29,45,51,18,3.86,2.13,25.97%,26.48%,19.67%,37
Springhill,Montana,198,71,Bozeman,66756,$104750,46.04%,49,N/A,N/A,N/A,36,74.24%,N/A,22.15%,N/A,N/A,0.0%,0.0%,88.61%,Gallatin County,45.10%,44.20%,0.0%,0.0%,100.0%,0.0%,0.0%,N/A,87,31,56,49.15,110,46.8,6.9,95,6693,3.8,2.78,MT-70375,45.8787086,-111.0773511,57%,71%,42%,46%,32%,28.0,27,42,50,9,8.39,12.83,41.53%,26.15%,51.22%,26
St. Ignatius,Montana,785,1481,None,8027993,$40694,16.53%,36,N/A,N/A,N/A,52,68.8%,$714,63.9%,N/A,N/A,20.48%,6.88%,48.51%,Lake County,36.20%,57.10%,0.0%,0.0%,51.21%,3.44%,0.64%,N/A,80,29,51,37.04,108,143.2,5.4,92,5625,3.1,0.53,MT-65275,47.3186878,-114.0955784,54%,73%,34%,51%,33%,23.0,32,45,51,16,5.6,11.82,40.14%,21.54%,54.44%,79
St. Marie,Montana,325,14,None,8027993,$37386,3.56%,39,N/A,N/A,N/A,58,79.08%,$1079,69.71%,N/A,N/A,28.31%,11.63%,78.47%,Valley County,22.80%,69.30%,0.0%,0.0%,80.0%,0.0%,3.08%,N/A,86,25,61,13.4,82,44.2,N/A,93,2520,3.6,22.9,MT-65400,48.4052914,-106.498559,60%,73%,52%,52%,35%,26.1,28,47,58,6,5.76,0.88,26.71%,30.99%,25.33%,33
St. Pierre,Montana,357,44,None,8027993,$26250,12.18%,22,N/A,N/A,N/A,40,56.58%,$338,73.62%,N/A,N/A,40.9%,30.49%,34.6%,Hill County,36.80%,54.00%,0.0%,0.0%,0.0%,0.0%,0.0%,N/A,87,32,55,27.22,76,44.0,N/A,96,4299,3.8,8.08,MT-65537,48.236038,-109.820185,67%,82%,51%,49%,33%,24.8,28,43,55,13,5.92,5.63,29.07%,20.11%,35.0%,27
St. Regis,Montana,207,241,None,8027993,$41964,28.99%,31,N/A,N/A,N/A,40,57.36%,$753,49.66%,N/A,N/A,29.95%,0.0%,59.59%,Mineral County,25.80%,66.10%,0.0%,0.48%,96.62%,2.9%,0.0%,N/A,86,31,55,38.08,131,51.8,5.4,89,2889,3.2,0.86,MT-65575,47.3015736,-115.101472,54%,73%,34%,51%,33%,23.0,32,45,45,18,4.45,14.25,46.05%,23.96%,60.11%,39
