City,State,Population,People per sq mi,Metro Name,Metro population,Median household income,% with at least Bachelor's degree,Median age,Median home price,Median home sqft,Median home cost per sqft,Median home age,Homeownership Rate,Avg Apartment Monthly Rent,Single Population,Num Violent Crimes Per 100k residents,Num Property Crimes Per 100k residents,Poverty Rate,Unemployment rate,Labor Force Participation rate,County,% Democrat,% Republican,% Asian,% Black,% Non-Hispanic White,% Hispanic,Foreign Born %,Timezone,Hottest month's avg high (F),Coldest month's avg high (F),Hottest high minus coldest high,Hottest month's avg low (F),Coldest month's avg low (F),Annual Relative Humidity (afternoon),Summer Relative Humidity (afternoon),Annual dew point (F),Average summer dew point (F),Hottest month's avg heat index high (F),Annual Sunshine - Percentage of Possible,Summer Sunshine - Percentage of Possible,Winter Sunshine - Percentage of Possible,Annual rainfall (in),Summer rainfall (in),Winter rainfall (in),Percent of days that include precipitation,Percent of Summer days that include precipitation,Percent of Winter days that include precipitation,Annual snowfall (in),Days of snow per year,Average yearly windspeed (mph),Number of days with thunder per year,Air quality Index,Elevation (ft),UV Index,Land Area (sq mi),Fips Code,Latitude,Longitude
Absarokee,Montana,998,466,None,N/A,$57212,34.36%,47,N/A,N/A,N/A,40,81.11%,$943,41.98%,N/A,N/A,11.7%,0.0%,58.5%,Stillwater County,18.60%,75.10%,0.0%,0.0%,88.88%,0.2%,1.9%,N/A,86,36,50,51,10,45%,34%,29,45,84,58%,70%,45%,18.25,4.34,2.58,18.08%,21.87%,14.56%,76.8,20,7.2,26.4,96,4116,3.7,2.14,MT-00175,45.5241797,-109.4473302
Alberton,Montana,567,1031,None,N/A,$71250,17.43%,30,N/A,N/A,N/A,42,72.25%,$1161,41.0%,N/A,N/A,14.97%,0.95%,75.96%,Mineral County,25.80%,66.10%,2.47%,1.23%,81.66%,3.17%,2.82%,N/A,88,32,56,49,18,51%,33%,32,45,86,54%,73%,34%,18.56,3.65,4.77,38.71%,26.7%,47.67%,51.8,39,5.4,23.0,89,2799,3.2,0.55,MT-00700,47.0037423,-114.4817671
Alder,Montana,108,54,None,N/A,$39167,29.03%,58,N/A,N/A,N/A,65,100.0%,$717,44.09%,N/A,N/A,13.89%,0.0%,56.99%,Madison County,24.90%,69.50%,0.0%,0.0%,100.0%,0.0%,6.48%,N/A,81,32,49,51,13,46%,32%,27,42,80,57%,71%,42%,12.77,4.48,1.5,44.19%,30.33%,50.78%,46.8,26,6.9,28.0,98,4752,3.6,2.01,MT-00850,45.3215934,-112.1092181
Alzada,Montana,17,33,None,N/A,N/A,18.75%,72,N/A,N/A,N/A,41,88.0%,N/A,11.76%,N/A,N/A,58.82%,0.0%,47.06%,Carter County,8.90%,86.30%,0.0%,0.0%,100.0%,0.0%,0.0%,N/A,86,30,56,53,8,52%,44%,31,51,86,62%,70%,56%,19.77,7.89,1.67,27.64%,29.89%,28.22%,55.1,19,7.2,39.2,94,3030,3.8,0.51,MT-01300,45.0205494,-104.4127872
Amsterdam,Montana,145,54,Bozeman,116725,$96750,38.52%,43,N/A,N/A,N/A,42,72.78%,N/A,36.43%,N/A,N/A,17.02%,0.0%,66.67%,Gallatin County,45.10%,44.20%,3.45%,0.0%,79.31%,2.76%,4.14%,N/A,87,31,56,50,9,46%,32%,27,42,85,57%,71%,42%,13.03,4.26,1.14,29.34%,29.45%,20.78%,46.8,26,6.9,28.0,93,4047,3.8,2.71,MT-01525,45.74627,-111.3301027
Anaconda-Deer Lodge,Montana,9131,12,None,N/A,N/A,N/A,N/A,N/A,N/A,N/A,N/A,N/A,N/A,N/A,N/A,N/A,N/A,N/A,N/A,Deer Lodge County,48.90%,41.90%,N/A,N/A,N/A,N/A,N/A,N/A,N/A,N/A,N/A,N/A,N/A,N/A,N/A,N/A,N/A,N/A,N/A,N/A,N/A,N/A,N/A,N/A,N/A,N/A,N/A,N/A,N/A,N/A,N/A,95,N/A,3.7,760.92,N/A,N/A,N/A
Antelope,Montana,40,200,None,N/A,N/A,N/A,N/A,N/A,N/A,N/A,N/A,100.0%,N/A,0.0%,N/A,N/A,0.0%,0.0%,0.0%,Sheridan County,26.00%,67.60%,0.0%,0.0%,0.0%,0.0%,0.0%,N/A,84,24,60,54,1,58%,47%,29,50,84,60%,73%,52%,15.77,6.91,1.47,24.47%,31.87%,17.78%,44.2,33,N/A,27.9,96,1869,3.7,0.2,MT-02050,48.6897144,-104.4540172
Arlee,Montana,651,101,None,N/A,$53000,29.01%,35,N/A,N/A,N/A,38,66.89%,$772,54.53%,N/A,N/A,22.55%,6.34%,59.29%,Lake County,36.20%,57.10%,0.0%,0.0%,44.55%,6.3%,0.0%,N/A,87,32,55,55,19,51%,33%,32,45,85,54%,73%,34%,21.61,4.44,5.45,40.14%,21.54%,54.44%,44.8,38,5.4,23.0,92,3879,3.1,6.47,MT-02425,47.1678859,-114.083845
Ashland,Montana,956,46,None,N/A,$39429,12.98%,34,N/A,N/A,N/A,40,25.5%,$638,69.56%,N/A,N/A,28.81%,8.73%,64.51%,Rosebud County,28.60%,65.20%,0.0%,0.63%,22.38%,1.88%,0.0%,N/A,91,35,56,56,12,51%,37%,30,48,90,60%,71%,52%,17.93,5.0,2.4,25.29%,25.71%,24.78%,41.0,27,7.2,27.4,88,3147,3.7,20.67,MT-02800,45.5976875,-106.2974979
Augusta,Montana,222,241,Helena,82397,$43333,23.0%,63,N/A,N/A,N/A,53,71.43%,$826,31.0%,N/A,N/A,16.67%,0.0%,47.5%,Lewis and Clark County,41.00%,47.90%,0.0%,0.0%,91.89%,0.0%,0.0%,N/A,80,34,46,46,10,46%,33%,28,43,79,58%,73%,43%,17.42,5.11,2.25,33.1%,20.55%,41.56%,55.9,32,6.9,24.8,92,4197,3.9,0.92,MT-03025,47.4893289,-112.3921568
Avon,Montana,145,11,None,N/A,$97656,48.78%,30,N/A,N/A,N/A,55,81.89%,$786,51.67%,N/A,N/A,1.38%,0.0%,45.83%,Powell County,19.70%,72.60%,0.0%,0.0%,100.0%,0.0%,0.0%,N/A,82,30,52,46,10,46%,32%,27,42,80,57%,71%,42%,19.54,5.11,3.37,38.08%,23.96%,47.22%,37.6,23,6.9,28.0,93,4644,3.7,13.36,MT-03175,46.6263824,-112.5820011
Azure,Montana,454,101,None,N/A,$32279,6.63%,19,N/A,N/A,N/A,32,57.54%,$359,76.4%,N/A,N/A,53.08%,45.45%,36.51%,Hill County,36.80%,54.00%,0.0%,0.0%,0.0%,0.0%,0.0%,N/A,86,30,56,55,10,49%,33%,28,43,84,67%,82%,51%,27.22,5.92,5.63,29.07%,20.11%,35.0%,44.0,27,N/A,24.8,96,4299,3.8,4.5,MT-03212,48.300529,-109.800248
Babb,Montana,279,29,None,N/A,N/A,0.0%,32,N/A,N/A,N/A,34,100.0%,N/A,52.97%,N/A,N/A,16.13%,0.0%,58.38%,Glacier County,61.50%,31.90%,0.0%,0.0%,0.0%,4.66%,0.0%,N/A,75,30,45,46,13,54%,38%,31,46,74,58%,73%,43%,26.71,5.06,6.62,41.51%,31.1%,49.67%,56.3,36,5.4,21.1,97,4164,3.1,9.49,MT-03250,48.8777196,-113.4408486
Bainville,Montana,313,248,None,N/A,$115000,47.18%,36,N/A,N/A,N/A,15,81.13%,$739,39.32%,N/A,N/A,0.0%,0.0%,91.04%,Roosevelt County,42.70%,49.20%,0.32%,0.0%,76.68%,0.0%,0.96%,N/A,87,27,60,56,5,58%,47%,29,50,88,60%,73%,52%,15.51,6.45,1.29,27.21%,31.98%,26.56%,38.5,38,N/A,27.9,94,1773,3.7,1.26,MT-03400,48.1394206,-104.2196926
Baker,Montana,1535,1358,None,N/A,$78971,13.94%,37,N/A,N/A,N/A,46,86.77%,$772,39.33%,155,363,11.96%,0.0%,60.27%,Fallon County,10.40%,86.20%,0.0%,0.07%,93.94%,0.98%,2.54%,N/A,87,29,58,56,8,58%,47%,30,48,88,60%,73%,52%,14.85,5.92,0.56,24.19%,32.09%,13.22%,35.3,30,N/A,27.4,91,2718,3.7,1.13,MT-03475,46.3640519,-104.2741431
Ballantine,Montana,293,322,Billings,182997,N/A,12.6%,59,N/A,N/A,N/A,82,71.88%,N/A,58.13%,N/A,N/A,3.75%,0.0%,44.31%,Yellowstone County,31.50%,58.10%,0.0%,0.0%,87.03%,10.24%,0.0%,Mountain Standard Time,89,36,53,55,13,45%,34%,29,45,87,58%,70%,45%,14.82,4.24,1.63,24.14%,25.71%,19.33%,40.3,25,7.2,26.4,89,2775,3.8,0.91,MT-03625,45.9510983,-108.1428461
Basin,Montana,360,28,Helena,82397,$49167,27.99%,54,N/A,N/A,N/A,44,97.75%,N/A,37.88%,N/A,N/A,4.51%,0.0%,59.7%,Jefferson County,29.80%,62.20%,5.56%,0.83%,86.67%,6.94%,5.56%,N/A,84,33,51,49,11,46%,32%,27,42,82,57%,71%,42%,30.1,6.9,6.93,39.04%,25.6%,45.44%,37.6,23,6.9,28.0,95,7314,3.6,12.71,MT-04150,46.2834561,-112.2870957
Batavia,Montana,740,409,Kalispell,103400,$61346,25.0%,40,$335000,774,$433,41,93.13%,$1152,44.1%,N/A,N/A,17.43%,1.81%,65.98%,Flathead County,28.00%,63.70%,0.0%,0.0%,89.73%,2.3%,0.0%,N/A,84,31,53,48,17,54%,38%,31,46,83,54%,73%,34%,17.18,4.29,3.9,36.79%,26.48%,47.56%,56.3,36,5.4,21.1,90,2976,3.2,1.81,MT-04230,48.1778329,-114.4106747
Bear Dance,Montana,262,94,None,N/A,$71458,40.74%,58,N/A,N/A,N/A,46,95.15%,N/A,34.73%,N/A,N/A,6.87%,10.32%,48.09%,Lake County,36.20%,57.10%,0.0%,0.0%,76.72%,0.0%,14.5%,N/A,82,35,47,56,26,54%,38%,31,46,81,54%,73%,34%,22.42,5.57,5.07,35.81%,20.99%,47.67%,56.3,36,5.4,21.1,89,2724,3.1,2.78,MT-04410,47.9019115,-114.0273162
Bearcreek,Montana,93,845,Billings,182997,$111500,45.21%,51,N/A,N/A,N/A,41,61.11%,$840,61.11%,N/A,N/A,4.3%,0.0%,86.67%,Carbon County,30.50%,62.60%,0.0%,0.0%,95.7%,2.15%,0.0%,Mountain Standard Time,82,34,48,51,14,45%,34%,29,45,81,58%,70%,45%,20.38,4.38,3.21,28.08%,25.38%,24.22%,25.3,16,7.2,26.4,95,5103,3.9,0.11,MT-04300,45.1605557,-109.1574208
Beaver Creek,Montana,365,80,None,N/A,$95813,13.73%,45,N/A,N/A,N/A,48,93.16%,N/A,31.74%,N/A,N/A,1.47%,1.75%,78.97%,Hill County,36.80%,54.00%,0.0%,0.0%,91.51%,0.0%,0.0%,N/A,87,30,57,54,10,49%,33%,28,43,85,67%,82%,51%,12.25,4.09,1.58,25.84%,26.15%,25.44%,44.0,27,N/A,24.8,95,2364,3.8,4.59,MT-04575,48.5436672,-109.8069203
Belfry,Montana,240,144,Billings,182997,$45625,18.23%,34,N/A,N/A,N/A,51,64.47%,N/A,52.91%,N/A,N/A,39.58%,14.58%,52.17%,Carbon County,30.50%,62.60%,0.0%,0.0%,64.58%,32.5%,0.0%,Mountain Standard Time,82,34,48,51,14,45%,34%,29,45,81,58%,70%,45%,20.38,4.38,3.21,17.81%,22.64%,12.89%,25.3,16,7.2,26.4,95,5103,3.9,1.67,MT-04900,45.137464,-108.9984926
Belgrade,Montana,11425,2793,Bozeman,116725,$88896,37.37%,33,$500000,1684,$297,20,60.94%,$1582,43.49%,380,1901,12.57%,2.47%,77.72%,Gallatin County,45.10%,44.20%,0.35%,0.11%,86.21%,6.0%,2.73%,N/A,87,31,56,50,9,46%,32%,27,42,85,57%,71%,42%,13.03,4.26,1.14,29.34%,29.45%,20.78%,46.8,26,6.9,28.0,75,4047,3.8,4.09,MT-04975,45.7788651,-111.1735706
Belknap,Montana,249,52,None,N/A,N/A,N/A,N/A,N/A,N/A,N/A,N/A,100.0%,N/A,0.0%,N/A,N/A,0.0%,0.0%,0.0%,Sanders County,20.50%,72.00%,0.0%,0.0%,0.0%,0.0%,0.0%,N/A,88,33,55,54,24,54%,38%,31,46,87,54%,73%,34%,26.12,4.28,8.23,43.18%,24.51%,55.56%,51.8,39,5.4,21.1,90,2373,3.2,4.76,MT-05050,47.6473164,-115.4221274
Belt,Montana,525,1544,Great Falls,84178,$72083,20.85%,48,N/A,N/A,N/A,54,74.3%,$910,55.51%,N/A,N/A,9.14%,7.48%,68.01%,Cascade County,35.20%,56.80%,0.38%,0.76%,88.95%,8.57%,1.71%,Mountain Standard Time,87,35,52,56,19,46%,33%,28,43,85,58%,73%,43%,16.11,4.82,2.32,24.36%,23.3%,23.67%,77.4,44,6.9,24.8,95,3204,3.8,0.34,MT-05275,47.3872016,-110.9277368
Biddle,Montana,33,2,None,N/A,N/A,60.61%,60,N/A,N/A,N/A,35,56.86%,N/A,27.27%,N/A,N/A,0.0%,0.0%,69.7%,Powder River County,12.10%,84.00%,0.0%,0.0%,100.0%,0.0%,0.0%,N/A,91,35,56,58,14,51%,37%,29,46,90,60%,71%,52%,15.94,5.32,1.33,20.6%,23.08%,16.56%,32.8,18,7.2,31.9,88,3030,3.8,17.12,MT-05650,45.1050654,-105.3115481
Big Arm,Montana,142,26,None,N/A,N/A,11.22%,32,N/A,N/A,N/A,44,100.0%,N/A,14.78%,N/A,N/A,55.63%,0.0%,56.12%,Lake County,36.20%,57.10%,0.0%,0.0%,39.44%,0.0%,0.0%,N/A,85,32,53,53,22,54%,38%,31,46,84,54%,73%,34%,16.08,3.94,3.51,37.7%,25.27%,43.44%,56.3,36,5.4,21.1,88,2496,3.1,5.42,MT-05800,47.7936085,-114.2700284
Big Sandy,Montana,844,1758,None,N/A,$58083,16.61%,36,N/A,N/A,N/A,58,69.44%,$620,46.92%,N/A,N/A,9.12%,10.25%,61.92%,Chouteau County,28.10%,64.50%,0.59%,0.95%,77.84%,0.0%,2.13%,N/A,87,32,55,55,13,49%,33%,28,43,85,67%,82%,51%,14.8,5.03,1.55,29.07%,20.11%,35.0%,44.0,27,6.9,24.8,95,2532,3.9,0.48,MT-06250,48.1785616,-110.1133406
Big Sky,Montana,2388,20,Bozeman,116725,$103625,58.34%,39,$2490000,2028,$1228,20,67.59%,$1712,50.51%,N/A,N/A,6.85%,2.12%,77.97%,Gallatin County,45.10%,44.20%,0.0%,0.21%,93.63%,3.81%,7.5%,N/A,80,27,53,42,7,46%,32%,27,42,79,57%,71%,42%,25.52,6.02,5.07,42.77%,31.43%,49.33%,46.8,26,6.9,28.0,99,6027,3.8,120.01,MT-06325,45.2592298,-111.3426049
Big Timber,Montana,1530,1611,None,N/A,$63514,15.14%,39,N/A,N/A,N/A,49,65.4%,$1009,45.43%,N/A,N/A,10.1%,5.05%,59.55%,Sweet Grass County,19.10%,75.70%,0.0%,3.27%,88.5%,2.61%,0.92%,N/A,87,36,51,54,19,45%,34%,29,45,85,58%,70%,45%,17.18,4.47,1.95,20.68%,22.86%,12.89%,116.8,37,6.9,26.4,95,3750,3.6,0.95,MT-06475,45.834634,-109.9486713
Bigfork,Montana,5249,168,Kalispell,103400,$82648,51.01%,54,N/A,N/A,N/A,26,75.05%,$1103,44.44%,N/A,N/A,6.15%,2.85%,47.98%,Flathead County,28.00%,63.70%,0.0%,0.11%,84.13%,9.3%,3.43%,N/A,82,32,50,51,19,54%,38%,31,46,81,54%,73%,34%,27.32,6.33,7.13,45.34%,25.27%,59.89%,56.3,36,5.4,21.1,88,2790,3.2,31.25,MT-05875,48.0852099,-114.0550784
Billings,Montana,118321,2642,Billings,182997,$71855,37.0%,38,$370000,2044,$181,41,68.08%,$1097,51.78%,N/A,4082,10.61%,3.48%,66.15%,Yellowstone County,31.50%,58.10%,0.86%,1.02%,83.22%,7.2%,1.98%,Mountain Standard Time,89,35,54,60,19,45%,34%,29,45,87,58%,70%,45%,15.18,3.86,2.06,27.01%,25.71%,23.89%,60.7,34,7.2,26.4,71,3276,3.8,44.78,MT-06550,45.7890615,-108.5525012
Birney,Montana,81,5,None,N/A,N/A,0.0%,26,N/A,N/A,N/A,46,46.0%,N/A,29.27%,N/A,N/A,0.0%,0.0%,51.22%,Rosebud County,28.60%,65.20%,0.0%,0.0%,0.0%,0.0%,0.0%,N/A,89,35,54,53,10,51%,37%,29,46,88,60%,71%,52%,16.62,4.27,2.32,23.45%,19.23%,26.44%,52.7,28,7.2,31.9,87,3138,3.7,15.09,MT-06925,45.4154868,-106.4933805
Black Eagle,Montana,654,425,Great Falls,84178,$55588,11.32%,41,$75000,1339,$56,71,53.83%,$857,68.05%,N/A,N/A,43.58%,0.0%,63.9%,Cascade County,35.20%,56.80%,0.0%,0.0%,81.96%,9.02%,0.0%,Mountain Standard Time,87,35,52,56,19,46%,33%,28,43,85,58%,73%,43%,16.11,4.82,2.32,24.36%,23.3%,23.67%,76.8,44,6.9,24.8,90,3204,3.8,1.54,MT-07150,47.5269919,-111.2669305
Boneau,Montana,284,120,None,N/A,N/A,0.0%,41,N/A,N/A,N/A,29,21.03%,$303,85.23%,N/A,N/A,35.21%,0.0%,46.41%,Chouteau County,28.10%,64.50%,0.0%,0.0%,0.0%,0.0%,0.0%,N/A,87,32,55,55,13,49%,33%,28,43,85,67%,82%,51%,27.22,5.92,5.63,29.07%,20.11%,35.0%,44.0,27,N/A,24.8,95,4299,3.9,2.37,MT-08162,48.2926227,-109.8631243
Bonner-West Riverside,Montana,1445,944,Missoula,117379,$59609,23.49%,41,N/A,N/A,N/A,31,53.63%,$939,66.08%,N/A,N/A,14.67%,2.01%,71.08%,Missoula County,51.90%,36.60%,0.0%,0.0%,67.13%,10.45%,1.59%,Mountain Standard Time,87,31,56,52,18,51%,33%,32,45,85,54%,73%,34%,21.29,3.94,5.38,44.0%,21.87%,61.33%,45.2,39,5.4,23.0,83,3042,3.1,1.53,MT-08462,46.8767065,-113.886806
Boulder,Montana,1326,1184,Helena,82397,$61250,26.45%,41,N/A,N/A,N/A,48,62.88%,$692,54.3%,156,782,8.72%,6.46%,62.18%,Jefferson County,29.80%,62.20%,0.0%,0.0%,91.55%,2.04%,0.0%,N/A,84,33,51,49,11,46%,32%,27,42,82,57%,71%,42%,13.55,5.29,1.27,39.04%,25.6%,45.44%,37.6,23,6.9,28.0,95,4485,3.6,1.12,MT-08575,46.2358397,-112.1197495
Box Elder,Montana,39,49,None,N/A,N/A,0.0%,25,N/A,N/A,N/A,55,66.67%,N/A,16.67%,N/A,N/A,0.0%,0.0%,76.67%,Hill County,36.80%,54.00%,0.0%,0.0%,48.72%,0.0%,0.0%,N/A,87,32,55,55,13,49%,33%,28,43,85,67%,82%,51%,14.8,5.03,1.55,23.64%,26.04%,20.22%,44.0,27,N/A,24.8,96,2532,3.8,0.79,MT-08725,48.3230497,-110.0176641
Boyd,Montana,26,93,Billings,182997,N/A,15.38%,56,N/A,N/A,N/A,18,57.81%,N/A,23.08%,N/A,N/A,50.0%,0.0%,50.0%,Carbon County,30.50%,62.60%,0.0%,0.0%,69.23%,0.0%,0.0%,Mountain Standard Time,87,35,52,50,11,45%,34%,29,45,85,58%,70%,45%,15.26,3.77,1.82,23.23%,24.73%,16.78%,54.7,28,7.2,26.4,93,3510,3.9,0.28,MT-08800,45.454067,-109.0696604
Bozeman,Montana,55042,2672,Bozeman,116725,$79903,65.1%,29,$647000,1763,$367,22,44.22%,$1611,63.33%,N/A,1692,14.83%,3.09%,72.08%,Gallatin County,45.10%,44.20%,2.12%,0.89%,85.72%,5.61%,5.2%,N/A,84,33,51,53,14,46%,32%,27,42,82,57%,71%,42%,20.66,5.41,2.86,40.3%,37.91%,39.89%,46.8,26,6.9,28.0,78,4494,3.8,20.6,MT-08950,45.6832588,-111.0557557
Brady,Montana,86,28,None,N/A,$70673,8.86%,67,N/A,N/A,N/A,69,100.0%,N/A,36.71%,N/A,N/A,15.12%,0.0%,41.77%,Pondera County,27.10%,66.10%,0.0%,0.0%,80.23%,0.0%,0.0%,N/A,84,33,51,52,12,46%,33%,28,43,82,58%,73%,43%,13.45,3.97,1.8,20.16%,21.98%,18.22%,55.0,23,6.9,24.8,95,3246,3.9,3.09,MT-09250,48.0279123,-111.8440639
Bridger,Montana,850,1063,Billings,182997,$35893,10.62%,41,N/A,N/A,N/A,57,66.41%,$657,52.88%,0,789,16.59%,8.11%,62.98%,Carbon County,30.50%,62.60%,0.0%,0.0%,92.47%,2.71%,0.0%,Mountain Standard Time,89,35,54,53,14,45%,34%,29,45,87,58%,70%,45%,12.97,3.28,1.26,23.23%,24.73%,16.78%,54.7,28,7.2,26.4,94,3276,3.9,0.8,MT-09475,45.2945924,-108.9166657
Broadus,Montana,426,1217,None,N/A,$54792,12.11%,48,N/A,N/A,N/A,43,86.12%,$588,49.6%,N/A,N/A,3.15%,2.57%,72.15%,Powder River County,12.10%,84.00%,0.0%,0.0%,92.49%,0.0%,0.0%,N/A,92,36,56,59,13,51%,37%,30,48,92,60%,71%,52%,15.98,5.18,1.7,20.6%,23.08%,16.56%,32.8,18,7.2,27.4,88,2772,3.8,0.35,MT-09700,45.4430534,-105.4083492
Broadview,Montana,152,585,Billings,182997,$66250,28.97%,45,$207000,1125,$184,34,88.39%,N/A,54.74%,N/A,N/A,9.87%,7.45%,69.63%,Yellowstone County,31.50%,58.10%,0.0%,0.0%,86.84%,0.0%,0.66%,Mountain Standard Time,88,36,52,52,11,45%,34%,29,45,86,58%,70%,45%,15.85,5.36,1.55,23.29%,25.49%,18.78%,45.4,22,7.2,26.4,87,3096,3.8,0.26,MT-09775,46.0987888,-108.8788663
Brockton,Montana,497,502,None,N/A,N/A,1.21%,23,N/A,N/A,N/A,40,61.88%,N/A,75.49%,N/A,N/A,47.28%,2.04%,33.11%,Roosevelt County,42.70%,49.20%,0.0%,0.0%,1.81%,0.0%,0.0%,N/A,85,24,61,54,1,58%,47%,29,50,86,60%,73%,52%,14.34,6.47,1.1,25.67%,32.53%,21.0%,44.2,33,N/A,27.9,95,1908,3.7,0.99,MT-10000,48.1525283,-104.9065649
Browning,Montana,990,3536,None,N/A,$34318,13.15%,29,N/A,N/A,N/A,46,55.76%,$617,72.48%,N/A,N/A,40.59%,15.58%,58.62%,Glacier County,61.50%,31.90%,0.4%,0.0%,2.93%,2.02%,0.3%,N/A,76,29,47,47,11,54%,38%,31,46,75,58%,73%,43%,30.43,6.21,8.17,42.99%,21.65%,59.89%,39.9,24,5.4,21.1,93,4395,3.1,0.28,MT-10375,48.5563442,-113.0150949
Busby,Montana,483,34,None,N/A,$62222,28.42%,35,N/A,N/A,N/A,46,59.15%,$340,55.01%,N/A,N/A,15.09%,18.75%,68.38%,Big Horn County,49.40%,43.70%,0.0%,0.0%,5.59%,7.04%,0.0%,N/A,89,35,54,53,10,51%,37%,29,46,88,60%,71%,52%,16.62,4.27,2.32,23.45%,19.23%,26.44%,52.7,28,7.2,31.9,89,3138,3.7,14.32,MT-11200,45.5280376,-106.9752392
Butte-Silver Bow,Montana,34929,49,Butte-Silver Bow,35017,$57633,27.73%,40,$310000,2039,$152,64,73.27%,$808,53.92%,N/A,N/A,16.12%,4.3%,58.28%,Silver Bow County,52.40%,38.80%,0.33%,0.12%,89.14%,4.68%,1.45%,N/A,83,30,53,47,7,46%,32%,27,42,81,57%,71%,42%,12.06,4.5,1.1,28.19%,30.44%,22.78%,37.6,23,6.9,28.0,86,5034,3.7,713.81,MT-11397,45.9019864,-112.6570785
Bynum,Montana,12,7,None,N/A,$45625,0.0%,76,N/A,N/A,N/A,45,100.0%,N/A,16.67%,N/A,N/A,0.0%,0.0%,16.67%,Teton County,25.30%,68.10%,0.0%,0.0%,100.0%,0.0%,0.0%,N/A,82,33,49,53,15,46%,33%,28,43,80,58%,73%,43%,15.3,4.51,1.68,23.15%,23.96%,21.56%,55.9,32,5.4,24.8,95,3693,3.9,1.63,MT-11500,47.9681239,-112.3164757
Camas,Montana,40,73,None,N/A,$27917,20.0%,68,N/A,N/A,N/A,41,78.65%,N/A,67.5%,N/A,N/A,57.5%,26.09%,57.5%,Sanders County,20.50%,72.00%,0.0%,0.0%,72.5%,7.5%,0.0%,N/A,85,32,53,53,22,54%,38%,31,46,84,54%,73%,34%,16.08,3.94,3.51,37.7%,25.27%,43.44%,51.8,39,5.4,21.1,92,2496,3.2,0.55,MT-11800,47.6179218,-114.655991
Camp Three,Montana,70,16,None,N/A,$54722,32.2%,63,N/A,N/A,N/A,82,53.52%,N/A,46.88%,N/A,N/A,32.35%,0.0%,46.67%,Musselshell County,13.60%,80.60%,0.0%,0.0%,88.57%,0.0%,0.0%,N/A,91,36,55,54,14,45%,34%,29,45,89,58%,70%,45%,15.92,5.54,1.38,21.81%,24.73%,16.11%,45.4,22,7.2,26.4,92,2925,3.8,4.45,MT-11995,46.4533047,-108.5741138
Cardwell,Montana,43,20,Helena,82397,N/A,60.0%,30,N/A,N/A,N/A,54,100.0%,N/A,37.04%,N/A,N/A,9.3%,5.56%,66.67%,Jefferson County,29.80%,62.20%,0.0%,0.0%,90.7%,0.0%,0.0%,N/A,86,32,54,54,15,46%,32%,27,42,84,57%,71%,42%,39.44,6.99,8.51,40.63%,27.69%,46.11%,46.8,26,6.9,28.0,96,7590,3.6,2.15,MT-12400,45.8620795,-111.955444
Carlton,Montana,497,81,Missoula,117379,$81648,27.89%,62,N/A,N/A,N/A,25,100.0%,N/A,26.64%,N/A,N/A,14.69%,0.0%,62.5%,Missoula County,51.90%,36.60%,0.0%,0.0%,88.13%,0.0%,7.85%,Mountain Standard Time,88,34,54,50,19,51%,33%,32,45,86,54%,73%,34%,14.05,3.92,3.23,25.97%,21.32%,27.67%,45.2,39,5.4,23.0,90,3255,3.1,6.16,MT-12435,46.6796246,-114.071893
Carter,Montana,118,41,None,N/A,$32188,4.84%,25,N/A,N/A,N/A,79,59.6%,N/A,86.75%,N/A,N/A,28.81%,0.0%,38.55%,Chouteau County,28.10%,64.50%,0.0%,0.0%,83.9%,0.0%,2.54%,N/A,86,32,54,52,14,46%,33%,28,43,84,58%,73%,43%,14.98,4.73,1.81,25.53%,24.62%,22.56%,46.6,30,6.9,24.8,94,3156,3.9,2.9,MT-12625,47.7812053,-110.9399765
Cascade,Montana,654,991,Great Falls,84178,$48750,20.43%,44,$425000,2348,$181,51,67.92%,$844,46.94%,N/A,N/A,13.21%,3.95%,54.09%,Cascade County,35.20%,56.80%,0.0%,0.0%,92.2%,2.6%,0.0%,Mountain Standard Time,87,37,50,52,18,46%,33%,28,43,85,58%,73%,43%,15.29,4.58,1.99,28.36%,26.92%,28.22%,77.4,44,6.9,24.8,95,3072,3.8,0.66,MT-12775,47.277082,-111.7026704
Charlo,Montana,344,173,None,N/A,$39107,16.73%,46,N/A,N/A,N/A,43,59.77%,$833,67.25%,N/A,N/A,13.95%,3.57%,59.36%,Lake County,36.20%,57.10%,0.0%,1.16%,78.78%,5.23%,1.74%,N/A,85,32,53,53,22,51%,33%,32,45,83,54%,73%,34%,26.41,5.86,6.02,37.7%,25.27%,43.44%,143.2,79,5.4,23.0,92,3120,3.1,1.99,MT-13900,47.4427023,-114.1716063
Charlos Heights,Montana,213,181,None,N/A,$88042,15.96%,53,N/A,N/A,N/A,36,0.0%,N/A,46.95%,N/A,N/A,3.76%,0.0%,66.2%,Ravalli County,27.60%,65.70%,0.0%,0.0%,31.92%,0.0%,8.45%,N/A,83,33,50,50,18,51%,33%,32,45,81,54%,73%,34%,14.09,4.12,3.12,42.11%,22.09%,57.67%,45.2,39,5.4,23.0,86,3549,3,1.18,MT-13975,46.1337344,-114.1810592
Chester,Montana,704,1437,None,N/A,$53583,26.96%,53,N/A,N/A,N/A,51,56.78%,$662,51.78%,N/A,N/A,11.98%,0.78%,46.47%,Liberty County,21.40%,72.60%,0.0%,0.0%,95.6%,0.0%,0.43%,N/A,83,31,52,53,5,49%,33%,28,43,81,67%,82%,51%,14.69,4.84,2.14,23.89%,27.03%,21.11%,61.6,21,6.9,24.8,96,2865,3.7,0.49,MT-14200,48.511293,-110.9661429
Chinook,Montana,1460,2808,None,N/A,$71500,41.9%,39,N/A,N/A,N/A,65,73.31%,$811,42.65%,N/A,N/A,10.36%,2.74%,65.23%,Blaine County,44.80%,47.20%,0.0%,0.0%,90.48%,0.0%,0.34%,N/A,86,28,58,54,5,49%,33%,28,43,84,67%,82%,51%,14.21,5.19,1.21,25.84%,26.15%,25.44%,44.0,27,N/A,24.8,94,2214,3.6,0.52,MT-14575,48.5901284,-109.2318202
Choteau,Montana,1719,1177,None,N/A,$53929,25.35%,43,N/A,N/A,N/A,64,66.55%,$713,46.53%,N/A,N/A,9.17%,0.96%,54.32%,Teton County,25.30%,68.10%,0.0%,0.23%,93.95%,0.17%,0.52%,N/A,83,36,47,49,13,46%,33%,28,43,81,58%,73%,43%,12.06,3.99,1.3,23.15%,23.96%,21.56%,55.9,32,6.9,24.8,96,3516,3.9,1.46,MT-14650,47.8136733,-112.1793986
Churchill,Montana,1120,315,Bozeman,116725,$95550,36.6%,42,N/A,N/A,N/A,33,85.06%,$1479,26.74%,N/A,N/A,6.34%,0.7%,68.05%,Gallatin County,45.10%,44.20%,0.54%,0.0%,95.71%,3.75%,0.54%,N/A,87,31,56,50,9,46%,32%,27,42,85,57%,71%,42%,13.03,4.26,1.14,29.34%,29.45%,20.78%,46.8,26,6.9,28.0,93,4047,3.8,3.55,MT-14875,45.7499549,-111.3102527
Circle,Montana,543,696,None,N/A,$81250,29.02%,43,N/A,N/A,N/A,59,72.1%,$545,40.17%,N/A,N/A,8.59%,0.0%,60.67%,McCone County,14.10%,78.70%,1.29%,0.0%,96.69%,0.0%,1.29%,N/A,88,30,58,58,10,52%,35%,30,48,86,60%,73%,52%,15.4,5.98,1.35,17.75%,22.09%,15.89%,44.1,33,N/A,27.4,96,2268,3.7,0.78,MT-14950,47.4176639,-105.5870406
Clancy,Montana,1729,44,Helena,82397,$116800,41.9%,38,$540000,2584,$209,33,93.2%,$1109,34.89%,N/A,N/A,6.72%,0.96%,61.28%,Jefferson County,29.80%,62.20%,0.0%,0.0%,86.41%,0.64%,0.81%,N/A,83,33,50,44,10,46%,32%,27,42,81,57%,71%,42%,18.93,5.68,2.66,32.08%,23.3%,35.44%,37.6,23,6.9,28.0,93,4272,3.6,39.17,MT-15100,46.4492649,-112.0029237
Clinton,Montana,884,270,Missoula,117379,$89482,22.84%,43,N/A,N/A,N/A,22,92.74%,$1109,50.2%,N/A,N/A,6.22%,4.91%,71.72%,Missoula County,51.90%,36.60%,1.58%,0.0%,90.95%,1.24%,0.0%,Mountain Standard Time,85,32,53,42,10,51%,33%,32,45,83,54%,73%,34%,21.29,3.94,5.38,44.0%,21.87%,61.33%,45.2,39,5.4,23.0,83,3042,3.1,3.27,MT-15475,46.771794,-113.7168937
Clyde Park,Montana,364,984,None,N/A,$57813,17.53%,50,N/A,N/A,N/A,43,65.73%,$1012,31.37%,N/A,N/A,11.81%,4.76%,60.38%,Park County,38.40%,53.20%,0.0%,0.0%,93.96%,0.0%,0.82%,N/A,85,31,54,49,12,46%,32%,27,42,83,57%,71%,42%,14.62,4.47,1.3,20.36%,23.41%,14.0%,116.8,37,6.9,28.0,96,4587,3.6,0.37,MT-15550,45.8839439,-110.6057863
Colstrip,Montana,2156,532,None,N/A,$86000,25.24%,44,N/A,N/A,N/A,37,85.31%,$632,37.01%,88,220,9.1%,6.53%,68.93%,Rosebud County,28.60%,65.20%,0.0%,0.0%,72.12%,7.56%,1.76%,N/A,87,35,52,58,13,51%,37%,30,48,85,60%,71%,52%,17.63,4.71,2.12,25.78%,25.38%,23.56%,41.0,27,7.2,27.4,88,2943,3.7,4.05,MT-16525,45.8943066,-106.6280581
Columbia Falls,Montana,5531,2514,Kalispell,103400,$65313,31.63%,38,$587000,1997,$294,41,64.39%,$1003,51.74%,193,1211,16.06%,6.85%,69.4%,Flathead County,28.00%,63.70%,0.76%,0.0%,92.73%,4.63%,2.4%,N/A,84,31,53,48,17,54%,38%,31,46,83,54%,73%,34%,16.72,4.39,4.2,36.79%,26.48%,47.56%,56.3,36,5.4,21.1,79,2703,3.2,2.2,MT-16600,48.3708216,-114.1903118
Columbus,Montana,1925,1405,None,N/A,$62500,20.6%,46,$235000,1124,$209,50,76.99%,$926,53.21%,N/A,N/A,12.74%,4.31%,62.42%,Stillwater County,18.60%,75.10%,1.14%,0.0%,92.68%,3.53%,2.65%,N/A,86,36,50,51,10,45%,34%,29,45,84,58%,70%,45%,15.83,4.0,1.98,25.51%,29.67%,20.33%,59.4,30,7.2,26.4,91,3294,3.7,1.37,MT-16825,45.6359665,-109.2487858
Condon,Montana,271,13,Missoula,117379,$57813,33.46%,63,N/A,N/A,N/A,34,96.44%,N/A,25.46%,N/A,N/A,13.65%,2.0%,36.9%,Missoula County,51.90%,36.60%,0.0%,0.0%,96.31%,0.0%,1.85%,Mountain Standard Time,80,29,51,51,16,51%,33%,32,45,79,54%,73%,34%,40.18,4.64,14.89,39.95%,19.89%,57.22%,143.2,79,5.4,23.0,89,4344,3.1,21.4,MT-17050,47.5225133,-113.6986391
Conner,Montana,102,57,None,N/A,N/A,4.9%,75,N/A,N/A,N/A,35,85.26%,N/A,60.78%,N/A,N/A,12.75%,0.0%,15.69%,Ravalli County,27.60%,65.70%,0.0%,0.0%,100.0%,0.0%,0.0%,N/A,83,33,50,50,18,51%,33%,32,45,81,54%,73%,34%,14.09,4.12,3.12,40.93%,27.03%,50.11%,47.0,20,5.4,23.0,89,3549,3,1.78,MT-17200,45.928969,-114.1326066
Conrad,Montana,2553,2010,None,N/A,$47348,21.01%,40,N/A,N/A,N/A,61,83.29%,$888,54.26%,N/A,N/A,17.94%,5.98%,60.28%,Pondera County,27.10%,66.10%,0.0%,0.0%,90.13%,2.31%,1.33%,N/A,84,33,51,52,12,46%,33%,28,43,82,58%,73%,43%,13.45,3.97,1.8,20.16%,21.98%,18.22%,55.0,23,6.9,24.8,95,3246,3.9,1.27,MT-17275,48.1740833,-111.9465917
Cooke City,Montana,94,10,None,N/A,$41750,38.75%,46,N/A,N/A,N/A,38,43.48%,$1225,32.95%,N/A,N/A,13.83%,0.0%,67.05%,Park County,38.40%,53.20%,0.0%,0.0%,93.62%,3.19%,9.57%,N/A,75,24,51,40,1,45%,34%,29,45,74,58%,70%,45%,40.33,6.81,12.59,43.81%,31.21%,52.22%,221.5,60,7.2,26.4,96,7956,3.6,9.54,MT-17350,45.0186883,-109.9119002
Coram,Montana,415,112,Kalispell,103400,$52222,21.65%,56,N/A,N/A,N/A,46,80.79%,N/A,40.84%,N/A,N/A,7.71%,10.58%,31.71%,Flathead County,28.00%,63.70%,0.0%,0.0%,94.22%,0.0%,2.65%,N/A,82,29,53,50,20,54%,38%,31,46,81,54%,73%,34%,42.43,6.86,13.3,39.01%,23.96%,51.89%,56.3,36,5.4,21.1,91,3978,3.2,3.71,MT-17500,48.4306142,-114.0444426
Corvallis,Montana,1356,2338,None,N/A,$83011,15.74%,35,N/A,N/A,N/A,28,68.09%,$1275,57.2%,N/A,N/A,10.55%,4.21%,77.16%,Ravalli County,27.60%,65.70%,0.0%,1.99%,92.48%,1.99%,0.0%,N/A,87,35,52,51,19,51%,33%,32,45,85,54%,73%,34%,10.79,2.72,2.31,29.89%,21.76%,33.78%,45.2,39,5.4,23.0,83,3300,3,0.58,MT-17725,46.3139565,-114.112083
Corwin Springs,Montana,177,126,None,N/A,$47969,51.98%,67,N/A,N/A,N/A,33,82.18%,$225,70.62%,N/A,N/A,2.26%,0.0%,77.4%,Park County,38.40%,53.20%,0.0%,5.65%,46.89%,41.81%,47.46%,N/A,88,33,55,54,16,46%,32%,27,42,86,57%,71%,42%,13.48,3.59,2.22,35.67%,31.1%,41.56%,92.4,66,6.9,28.0,96,4824,3.6,1.41,MT-17800,45.1277824,-110.7997291
Craig,Montana,47,157,Helena,82397,$94286,25.58%,59,N/A,N/A,N/A,34,75.0%,N/A,70.21%,N/A,N/A,0.0%,0.0%,57.45%,Lewis and Clark County,41.00%,47.90%,2.13%,0.0%,85.11%,0.0%,0.0%,N/A,87,36,51,52,20,46%,32%,27,42,85,57%,71%,42%,15.57,4.65,1.93,26.25%,22.97%,27.0%,37.6,23,6.9,28.0,94,3189,3.9,0.3,MT-18025,47.0743991,-111.9645453
Crane,Montana,185,73,None,N/A,$76007,65.56%,17,N/A,N/A,N/A,32,97.57%,N/A,60.71%,N/A,N/A,9.73%,0.0%,18.75%,Richland County,13.80%,80.20%,0.0%,0.0%,100.0%,0.0%,0.0%,N/A,89,31,58,58,9,58%,47%,29,50,91,60%,73%,52%,16.47,5.98,1.48,18.19%,23.74%,12.44%,63.7,43,N/A,27.9,92,1755,3.7,2.52,MT-18100,47.5771702,-104.2508542
Crow Agency,Montana,2110,287,None,N/A,$49333,12.39%,25,N/A,N/A,N/A,35,61.31%,$470,76.48%,N/A,N/A,40.67%,38.12%,50.04%,Big Horn County,49.40%,43.70%,0.0%,0.0%,2.94%,0.0%,0.0%,N/A,92,37,55,56,12,45%,34%,29,45,91,58%,70%,45%,16.55,4.3,2.03,23.45%,19.23%,26.44%,52.7,28,7.2,26.4,91,2634,3.7,7.34,MT-18250,45.6026547,-107.459157
Culbertson,Montana,578,567,None,N/A,$103750,32.34%,46,N/A,N/A,N/A,57,89.15%,$1044,42.49%,N/A,N/A,7.0%,4.32%,70.5%,Roosevelt County,42.70%,49.20%,0.35%,0.52%,84.6%,1.9%,1.04%,N/A,87,27,60,56,5,58%,47%,29,50,88,60%,73%,52%,15.51,6.45,1.29,25.67%,32.53%,21.0%,44.2,33,N/A,27.9,94,1773,3.7,1.02,MT-18475,48.1447919,-104.5181157
Custer,Montana,155,484,Billings,182997,$70000,23.2%,60,$75000,1667,$45,64,78.15%,$431,62.5%,N/A,N/A,18.06%,2.38%,61.76%,Yellowstone County,31.50%,58.10%,0.0%,0.0%,96.13%,0.0%,0.0%,Mountain Standard Time,88,35,53,58,14,45%,34%,29,45,86,58%,70%,45%,15.87,4.74,1.77,27.4%,29.23%,24.67%,47.4,35,7.2,26.4,89,2442,3.8,0.32,MT-18700,46.1292266,-107.5555489
Cut Bank,Montana,3040,2621,None,N/A,$55848,19.18%,40,N/A,N/A,N/A,66,67.19%,$921,53.21%,1184,3752,22.26%,2.15%,49.98%,Glacier County,61.50%,31.90%,0.53%,0.0%,69.87%,1.78%,0.86%,N/A,82,31,51,50,12,46%,33%,28,43,80,58%,73%,43%,15.85,4.69,2.16,20.0%,22.97%,15.33%,39.9,24,5.4,24.8,95,3429,3.1,1.16,MT-18775,48.6343467,-112.330422
Darby,Montana,575,913,None,N/A,$40943,11.7%,54,N/A,N/A,N/A,44,49.63%,$883,44.05%,N/A,N/A,14.61%,3.37%,56.14%,Ravalli County,27.60%,65.70%,4.87%,0.17%,80.0%,0.87%,2.26%,N/A,83,33,50,50,18,51%,33%,32,45,81,54%,73%,34%,14.09,4.12,3.12,42.11%,22.09%,57.67%,45.2,39,5.4,23.0,91,3549,3,0.63,MT-19300,46.023245,-114.1788067
Dayton,Montana,103,187,None,N/A,$84688,48.78%,66,N/A,N/A,N/A,47,54.95%,N/A,25.53%,N/A,N/A,3.88%,14.29%,22.34%,Lake County,36.20%,57.10%,0.0%,0.0%,88.35%,0.0%,3.88%,N/A,82,35,47,56,26,54%,38%,31,46,81,54%,73%,34%,24.76,4.59,7.27,32.19%,18.24%,43.0%,56.3,36,5.4,21.1,88,5166,3.1,0.55,MT-19525,47.8643487,-114.2765082
Deer Lodge,Montana,3035,2010,None,N/A,$53676,21.9%,53,N/A,N/A,N/A,66,59.5%,$781,42.15%,242,588,8.09%,2.3%,49.32%,Powell County,19.70%,72.60%,2.21%,0.0%,94.76%,0.82%,2.6%,N/A,82,32,50,45,11,46%,32%,27,42,80,57%,71%,42%,14.78,4.94,1.43,46.49%,29.45%,55.78%,37.6,23,6.9,28.0,95,4434,3.7,1.51,MT-19825,46.3980732,-112.7333842
Denton,Montana,198,279,None,N/A,$57500,19.15%,49,N/A,N/A,N/A,82,78.66%,$1058,50.28%,N/A,N/A,5.56%,2.02%,58.93%,Fergus County,20.60%,73.10%,0.0%,0.0%,95.45%,0.51%,0.0%,N/A,82,35,47,53,14,46%,33%,28,43,80,58%,73%,43%,19.84,6.39,2.09,31.51%,33.19%,26.67%,46.6,30,6.9,24.8,97,4443,3.7,0.71,MT-20425,47.322167,-109.9481613
Dillon,Montana,4020,2116,None,N/A,$51458,32.93%,31,N/A,N/A,N/A,49,56.68%,$821,59.34%,187,304,16.51%,4.17%,61.22%,Beaverhead County,23.60%,69.10%,0.4%,1.34%,88.46%,3.78%,0.72%,N/A,85,31,54,48,12,46%,32%,27,42,83,57%,71%,42%,11.34,3.36,1.24,24.0%,23.74%,20.56%,46.8,26,6.9,28.0,92,4689,4.1,1.9,MT-20800,45.2178762,-112.6345787
Dixon,Montana,270,41,None,N/A,$43750,20.89%,37,N/A,N/A,N/A,40,71.83%,$740,61.06%,N/A,N/A,28.89%,19.05%,49.53%,Sanders County,20.50%,72.00%,0.0%,0.0%,65.19%,9.26%,3.7%,N/A,88,32,56,49,18,51%,33%,32,45,86,54%,73%,34%,37.04,5.6,11.82,40.14%,21.54%,54.44%,51.8,39,5.4,23.0,92,5625,3.2,6.63,MT-20950,47.3172265,-114.3569525
Dodson,Montana,156,918,None,N/A,$41172,1.71%,77,N/A,N/A,N/A,48,91.41%,N/A,36.0%,N/A,N/A,7.05%,36.36%,17.6%,Phillips County,14.60%,79.40%,0.0%,0.0%,57.05%,3.21%,0.0%,N/A,87,30,57,58,9,49%,33%,28,47,85,67%,82%,51%,13.39,4.87,1.42,23.67%,27.58%,18.11%,44.0,27,N/A,26.1,94,2070,3.7,0.17,MT-21025,48.3953385,-108.2472421
Drummond,Montana,255,472,None,N/A,$44375,22.6%,55,N/A,N/A,N/A,79,64.24%,$608,21.86%,N/A,N/A,15.29%,8.7%,44.23%,Granite County,26.60%,67.10%,0.0%,0.0%,94.12%,0.0%,0.39%,N/A,85,32,53,42,10,51%,33%,32,45,83,54%,73%,34%,25.69,4.62,7.25,31.95%,18.57%,41.67%,45.2,39,5.4,23.0,91,5715,3,0.54,MT-21850,46.6665852,-113.1470425
Dupuyer,Montana,131,28,None,N/A,$79167,16.35%,50,N/A,N/A,N/A,57,96.0%,N/A,22.73%,N/A,N/A,3.82%,1.47%,61.82%,Pondera County,27.10%,66.10%,0.0%,0.0%,78.63%,7.63%,3.05%,N/A,82,33,49,53,15,46%,33%,28,43,80,58%,73%,43%,28.36,6.12,5.65,30.74%,21.21%,32.89%,55.0,23,5.4,24.8,97,5259,3.9,4.65,MT-22450,48.1868367,-112.4770336
Dutton,Montana,258,806,None,N/A,$55469,16.75%,52,N/A,N/A,N/A,69,85.27%,$788,42.04%,N/A,N/A,6.98%,3.7%,48.0%,Teton County,25.30%,68.10%,0.0%,0.0%,74.42%,9.3%,0.0%,N/A,83,34,49,51,11,46%,33%,28,43,81,58%,73%,43%,13.84,4.73,1.37,16.66%,19.12%,13.89%,55.9,32,6.9,24.8,95,3234,3.9,0.32,MT-22600,47.847539,-111.7143052
East Glacier Park Village,Montana,199,46,None,N/A,$37500,57.79%,49,N/A,N/A,N/A,40,71.11%,$867,67.44%,N/A,N/A,15.1%,8.7%,53.49%,Glacier County,61.50%,31.90%,1.01%,0.0%,45.23%,0.0%,1.01%,N/A,76,29,47,47,11,54%,38%,31,46,75,58%,73%,43%,30.43,6.21,8.17,42.99%,21.65%,59.89%,56.3,36,5.4,21.1,97,4395,3.1,4.36,MT-22985,48.445916,-113.2235012
East Helena,Montana,1855,461,Helena,82397,$53611,21.87%,36,$445000,1952,$228,53,77.26%,$1020,56.6%,524,2621,17.68%,10.16%,73.78%,Lewis and Clark County,41.00%,47.90%,2.43%,0.0%,87.28%,7.55%,0.38%,N/A,88,32,56,56,14,46%,32%,27,42,86,57%,71%,42%,11.59,3.75,1.66,24.44%,23.63%,23.67%,37.6,23,6.9,28.0,89,3501,3.9,4.02,MT-23125,46.5849871,-111.9158644
East Missoula,Montana,2072,1712,Missoula,117379,$65541,34.55%,42,$345000,1055,$327,43,77.51%,$1039,55.47%,N/A,N/A,8.38%,8.95%,66.48%,Missoula County,51.90%,36.60%,0.0%,0.58%,89.58%,2.99%,1.21%,Mountain Standard Time,87,31,56,52,18,51%,33%,32,45,85,54%,73%,34%,20.18,4.7,4.62,34.11%,24.62%,42.11%,45.2,39,5.4,23.0,79,3246,3.1,1.21,MT-23200,46.8800877,-113.940054
Edgar,Montana,79,116,Billings,182997,$61591,4.35%,55,N/A,N/A,N/A,65,74.32%,N/A,77.63%,N/A,N/A,11.39%,45.76%,77.63%,Carbon County,30.50%,62.60%,0.0%,0.0%,96.2%,0.0%,0.0%,Mountain Standard Time,87,35,52,50,11,45%,34%,29,45,85,58%,70%,45%,13.9,3.86,1.37,23.23%,24.73%,16.78%,54.7,28,7.2,26.4,94,3219,3.9,0.68,MT-23500,45.4636495,-108.855259
Ekalaka,Montana,366,355,None,N/A,$45417,11.93%,63,N/A,N/A,N/A,49,62.5%,$678,46.33%,N/A,N/A,20.12%,0.78%,38.05%,Carter County,8.90%,86.30%,0.0%,0.0%,91.53%,0.82%,1.37%,N/A,87,33,54,58,11,51%,37%,30,48,85,60%,71%,52%,18.48,6.05,1.73,27.32%,29.01%,25.89%,56.1,41,7.2,27.4,94,3138,3.8,1.03,MT-23650,45.8896838,-104.5506136
Elliston,Montana,208,26,None,N/A,$41719,23.33%,35,N/A,N/A,N/A,47,79.46%,$775,61.8%,N/A,N/A,9.13%,5.6%,75.0%,Powell County,19.70%,72.60%,0.0%,0.0%,89.42%,0.0%,0.0%,N/A,82,30,52,46,10,46%,32%,27,42,80,57%,71%,42%,19.54,5.11,3.37,32.08%,23.3%,35.44%,37.6,23,6.9,28.0,93,4644,3.7,8.1,MT-23950,46.558691,-112.4638445
Elmo,Montana,183,572,None,N/A,N/A,10.0%,53,N/A,N/A,N/A,26,17.06%,N/A,74.86%,N/A,N/A,30.05%,58.7%,41.82%,Lake County,36.20%,57.10%,0.0%,0.0%,12.57%,0.0%,6.01%,N/A,85,32,53,53,22,54%,38%,31,46,84,54%,73%,34%,24.76,4.59,7.27,32.19%,18.24%,43.0%,56.3,36,5.4,21.1,88,5166,3.1,0.32,MT-24100,47.8290242,-114.3483487
Emigrant,Montana,387,36,None,N/A,$44375,61.04%,55,N/A,N/A,N/A,30,52.24%,$824,62.4%,N/A,N/A,37.21%,5.77%,42.51%,Park County,38.40%,53.20%,0.0%,0.0%,100.0%,0.0%,0.0%,N/A,84,33,51,53,19,46%,32%,27,42,82,57%,71%,42%,47.83,8.71,11.43,47.23%,34.51%,54.67%,92.4,66,6.9,28.0,97,7407,3.6,10.77,MT-24325,45.3754641,-110.7464475
Ennis,Montana,615,831,None,N/A,$60880,18.32%,53,N/A,N/A,N/A,40,71.87%,$805,35.88%,294,392,11.84%,1.17%,65.46%,Madison County,24.90%,69.50%,0.0%,0.0%,99.02%,0.0%,0.0%,N/A,85,33,52,45,14,46%,32%,27,42,83,57%,71%,42%,13.33,4.36,1.29,28.27%,29.89%,21.78%,46.8,26,6.9,28.0,98,4530,3.6,0.74,MT-24475,45.3461259,-111.731894
Eureka,Montana,2009,1511,None,N/A,$43750,7.38%,38,N/A,N/A,N/A,44,66.04%,$1012,60.82%,88,711,29.35%,8.09%,64.47%,Lincoln County,21.90%,72.10%,0.0%,0.0%,87.66%,3.98%,1.0%,N/A,87,32,55,54,20,54%,38%,31,46,86,52%,73%,28%,14.92,4.41,3.06,27.75%,22.75%,31.11%,33.4,15,5.4,21.1,93,2316,3,1.33,MT-24850,48.8789432,-115.0491768
Evaro,Montana,479,28,Missoula,117379,$68977,22.11%,37,N/A,N/A,N/A,43,65.59%,$1145,43.56%,N/A,N/A,24.01%,5.66%,50.64%,Missoula County,51.90%,36.60%,0.0%,0.0%,42.59%,5.22%,1.46%,Mountain Standard Time,87,32,55,55,19,51%,33%,32,45,85,54%,73%,34%,21.61,4.44,5.45,44.0%,21.87%,61.33%,44.8,38,5.4,23.0,89,3879,3.1,17.16,MT-25000,47.0737072,-114.0206063
Evergreen,Montana,8908,1042,Kalispell,103400,$73015,25.54%,38,$535000,1754,$305,41,80.87%,$1140,47.39%,N/A,N/A,11.89%,4.24%,68.89%,Flathead County,28.00%,63.70%,0.36%,0.0%,90.31%,1.78%,1.48%,N/A,84,31,53,48,17,54%,38%,31,46,83,54%,73%,34%,16.72,4.39,4.2,36.79%,26.48%,47.56%,56.3,36,5.4,21.1,78,2703,3.2,8.55,MT-25075,48.2308358,-114.2700533
Fairfield,Montana,746,2406,None,N/A,$66544,25.22%,31,N/A,N/A,N/A,54,70.43%,$683,44.41%,N/A,N/A,5.68%,4.72%,72.48%,Teton County,25.30%,68.10%,0.0%,2.14%,94.91%,0.0%,1.21%,N/A,81,34,47,54,15,46%,33%,28,43,80,58%,73%,43%,12.46,4.28,1.31,16.66%,19.12%,13.89%,55.9,32,6.9,24.8,93,3642,3.9,0.31,MT-25225,47.6153449,-111.98141
Fairview,Montana,919,1149,None,N/A,$80903,12.86%,37,N/A,N/A,N/A,46,76.04%,$689,53.5%,N/A,N/A,8.16%,10.7%,63.78%,Richland County,13.80%,80.20%,0.0%,3.05%,93.14%,2.5%,0.0%,N/A,88,29,59,58,9,58%,47%,29,50,90,60%,73%,52%,16.55,6.65,1.52,27.21%,31.98%,26.56%,38.5,38,N/A,27.9,93,1767,3.7,0.8,MT-25300,47.8520265,-104.0508943
Fallon,Montana,305,60,None,N/A,N/A,3.13%,37,N/A,N/A,N/A,66,12.56%,$873,56.22%,N/A,N/A,47.54%,0.0%,34.95%,Prairie County,14.50%,80.70%,12.46%,0.0%,85.9%,1.64%,14.1%,N/A,89,30,59,59,8,58%,47%,30,48,91,60%,73%,52%,14.68,5.32,1.1,18.52%,20.22%,16.0%,63.7,43,N/A,27.4,94,2058,3.8,5.08,MT-25375,46.8372753,-105.12702
Finley Point,Montana,436,102,None,N/A,$34519,29.75%,62,N/A,N/A,N/A,40,81.28%,$925,45.56%,N/A,N/A,14.22%,0.0%,40.77%,Lake County,36.20%,57.10%,0.0%,1.83%,82.11%,0.0%,3.67%,N/A,82,35,47,56,26,54%,38%,31,46,81,54%,73%,34%,33.51,6.08,9.24,35.81%,20.99%,47.67%,143.2,79,5.4,21.1,89,4500,3.1,4.27,MT-26226,47.7463515,-114.066591
Flaxville,Montana,73,913,None,N/A,$102727,28.81%,58,N/A,N/A,N/A,61,78.26%,N/A,26.87%,N/A,N/A,32.88%,0.0%,52.24%,Daniels County,17.50%,75.90%,0.0%,0.0%,100.0%,0.0%,6.85%,N/A,85,24,61,52,1,52%,35%,28,47,83,60%,73%,52%,14.32,6.25,0.94,23.34%,28.9%,18.56%,44.2,33,N/A,26.1,97,2187,3.8,0.08,MT-26800,48.8044859,-105.1736293
Florence,Montana,993,1290,None,N/A,$97850,35.02%,54,N/A,N/A,N/A,34,91.06%,$694,39.63%,N/A,N/A,6.85%,9.67%,63.67%,Ravalli County,27.60%,65.70%,0.0%,0.0%,80.46%,9.57%,0.0%,N/A,88,34,54,50,19,51%,33%,32,45,86,54%,73%,34%,14.05,3.92,3.23,25.97%,21.32%,27.67%,45.2,39,5.4,23.0,91,3255,3,0.77,MT-26950,46.6344859,-114.0813467
Forest Hill Village,Montana,234,152,Kalispell,103400,$25579,20.34%,35,N/A,N/A,N/A,44,77.78%,N/A,67.11%,N/A,N/A,53.42%,0.0%,73.19%,Flathead County,28.00%,63.70%,0.0%,0.0%,49.15%,8.55%,0.0%,N/A,82,32,50,51,19,54%,38%,31,46,81,54%,73%,34%,18.82,5.29,4.44,35.56%,27.36%,41.67%,56.3,36,5.4,21.1,89,2685,3.2,1.54,MT-27595,48.1208193,-114.2618574
Forsyth,Montana,1682,1463,None,N/A,$58375,16.77%,35,N/A,N/A,N/A,65,65.75%,$743,51.24%,N/A,N/A,10.1%,2.43%,57.12%,Rosebud County,28.60%,65.20%,2.5%,0.0%,80.68%,2.08%,3.39%,N/A,89,34,55,59,12,45%,34%,30,48,87,58%,70%,45%,16.56,4.63,1.96,23.92%,25.6%,21.0%,38.6,18,7.2,27.4,91,2301,3.7,1.15,MT-27700,46.2669038,-106.6748858
Fort Belknap Agency,Montana,1434,32,None,N/A,N/A,11.33%,24,N/A,N/A,N/A,33,48.56%,$344,78.96%,N/A,N/A,35.85%,43.62%,50.76%,Blaine County,44.80%,47.20%,0.0%,0.0%,1.26%,1.32%,0.0%,N/A,85,29,56,54,8,49%,33%,28,47,83,67%,82%,51%,13.7,5.49,1.37,23.67%,27.58%,18.11%,44.0,27,N/A,26.1,95,2310,3.6,45.5,MT-27850,48.4277673,-108.6828983
Fort Benton,Montana,1470,642,None,N/A,$67171,29.06%,43,N/A,N/A,N/A,64,76.29%,$745,43.66%,N/A,N/A,2.95%,0.0%,52.68%,Chouteau County,28.10%,64.50%,0.0%,0.0%,86.67%,9.18%,1.63%,N/A,88,36,52,54,12,46%,33%,28,43,86,58%,73%,43%,14.09,4.56,1.79,25.53%,24.62%,22.56%,46.6,30,6.9,24.8,94,2421,3.9,2.29,MT-28000,47.8290046,-110.6557801
Fort Peck,Montana,219,246,None,N/A,$88333,40.36%,52,N/A,N/A,N/A,54,80.49%,N/A,23.89%,N/A,N/A,0.0%,0.0%,64.44%,Valley County,22.80%,69.30%,0.0%,0.0%,91.32%,0.0%,0.0%,N/A,90,30,60,59,10,52%,35%,28,47,89,60%,73%,52%,14.69,5.48,1.44,26.96%,31.87%,25.22%,44.1,33,N/A,26.1,95,1854,3.6,0.89,MT-28450,48.0070503,-106.4551984
Fort Shaw,Montana,190,33,Great Falls,84178,$77941,21.69%,57,$398000,1598,$249,41,100.0%,N/A,77.06%,N/A,N/A,21.05%,0.0%,64.71%,Cascade County,35.20%,56.80%,3.68%,0.0%,87.37%,0.0%,3.68%,Mountain Standard Time,85,35,50,49,13,46%,33%,28,43,83,58%,73%,43%,12.46,4.28,1.31,16.66%,19.12%,13.89%,77.4,44,6.9,24.8,92,3291,3.8,5.68,MT-28600,47.4968854,-111.8193451
Fort Smith,Montana,105,76,None,N/A,$52292,0.0%,63,N/A,N/A,N/A,48,88.75%,N/A,94.29%,N/A,N/A,0.0%,0.0%,37.14%,Big Horn County,49.40%,43.70%,0.0%,0.0%,82.86%,17.14%,0.0%,N/A,90,38,52,60,19,45%,34%,29,45,88,58%,70%,45%,18.21,4.07,2.63,36.47%,24.84%,41.11%,10.3,3,7.2,26.4,95,3021,3.7,1.38,MT-28650,45.3134377,-107.9296551
Fortine,Montana,378,53,None,N/A,$64427,28.07%,46,N/A,N/A,N/A,21,60.0%,N/A,33.54%,N/A,N/A,7.67%,0.0%,48.1%,Lincoln County,21.90%,72.10%,0.0%,0.0%,85.98%,11.38%,0.0%,N/A,87,32,55,54,20,54%,38%,31,46,86,54%,73%,34%,64.23,9.97,19.82,44.41%,26.37%,56.67%,33.4,15,5.4,21.1,93,5514,3,7.09,MT-28150,48.772292,-114.9007786
Four Corners,Montana,5562,513,Bozeman,116725,$111474,56.86%,34,$625000,1776,$352,12,84.79%,$1192,37.77%,N/A,N/A,6.44%,0.14%,75.95%,Gallatin County,45.10%,44.20%,0.59%,1.15%,90.6%,1.37%,3.36%,N/A,84,33,51,52,14,46%,32%,27,42,82,57%,71%,42%,17.47,5.3,1.78,40.3%,37.91%,39.89%,46.8,26,6.9,28.0,93,4365,3.8,10.84,MT-28862,45.6697505,-111.1784433
Fox Lake,Montana,173,41,None,N/A,$81458,27.5%,23,N/A,N/A,N/A,34,39.29%,$1100,37.61%,N/A,N/A,2.89%,0.0%,65.05%,Richland County,13.80%,80.20%,5.78%,0.0%,73.41%,0.0%,0.58%,N/A,89,31,58,58,9,58%,47%,29,50,91,60%,73%,52%,16.08,6.36,1.37,18.19%,23.74%,12.44%,63.7,43,N/A,27.9,92,2166,3.7,4.18,MT-29087,47.6857801,-104.6329658
Frazer,Montana,346,214,None,N/A,$33750,13.86%,23,N/A,N/A,N/A,45,39.52%,$331,62.26%,N/A,N/A,39.13%,38.6%,55.61%,Valley County,22.80%,69.30%,0.0%,0.0%,0.58%,2.02%,1.45%,N/A,90,30,60,59,10,52%,35%,28,47,89,60%,73%,52%,14.5,5.79,1.23,22.22%,31.32%,13.56%,44.1,33,N/A,26.1,93,1893,3.6,1.62,MT-29275,48.0532164,-106.048155
Frenchtown,Montana,1629,242,Missoula,117379,$90767,28.12%,34,$495000,1592,$311,27,86.84%,$1458,29.6%,N/A,N/A,13.44%,0.0%,57.14%,Missoula County,51.90%,36.60%,0.0%,5.71%,87.11%,2.76%,0.0%,Mountain Standard Time,87,32,55,55,19,51%,33%,32,45,85,54%,73%,34%,21.61,4.44,5.45,34.03%,25.38%,41.11%,44.8,38,5.4,23.0,86,3879,3.1,6.74,MT-29350,47.028737,-114.2461555
Froid,Montana,304,490,None,N/A,$70750,51.11%,16,N/A,N/A,N/A,65,73.18%,N/A,73.03%,N/A,N/A,3.53%,1.71%,76.97%,Roosevelt County,42.70%,49.20%,0.0%,0.66%,45.72%,0.0%,0.0%,N/A,85,23,62,55,2,58%,47%,29,50,86,60%,73%,52%,14.88,6.62,1.06,25.67%,32.53%,21.0%,44.2,33,N/A,27.9,94,1908,3.7,0.62,MT-29500,48.3380433,-104.4908415
Fromberg,Montana,452,1027,Billings,182997,$59028,20.12%,46,$150000,3488,$43,46,88.61%,$873,47.12%,N/A,N/A,15.91%,18.52%,61.99%,Carbon County,30.50%,62.60%,0.0%,0.0%,85.4%,6.86%,1.55%,Mountain Standard Time,89,35,54,53,14,45%,34%,29,45,87,58%,70%,45%,13.9,3.86,1.37,23.23%,24.73%,16.78%,54.7,28,7.2,26.4,94,3219,3.9,0.44,MT-29575,45.3920335,-108.9064799
Gallatin Gateway,Montana,1092,187,Bozeman,116725,$81429,34.87%,39,N/A,N/A,N/A,31,83.33%,$1160,41.41%,N/A,N/A,7.81%,3.92%,61.01%,Gallatin County,45.10%,44.20%,0.73%,0.0%,85.44%,5.77%,2.01%,N/A,84,33,51,52,14,46%,32%,27,42,82,57%,71%,42%,17.47,5.3,1.78,40.3%,37.91%,39.89%,46.8,26,6.9,28.0,96,4365,3.8,5.85,MT-29875,45.5898032,-111.195309
Gallatin River Ranch,Montana,191,27,Bozeman,116725,$250001,67.61%,62,$949000,3365,$282,12,100.0%,N/A,13.41%,N/A,N/A,0.0%,0.0%,31.58%,Gallatin County,45.10%,44.20%,0.0%,0.0%,97.91%,0.0%,0.0%,N/A,86,32,54,50,10,46%,32%,27,42,84,57%,71%,42%,16.27,4.9,1.58,29.34%,29.45%,20.78%,46.8,26,6.9,28.0,94,3879,3.8,7.08,MT-29885,45.9072184,-111.3312514
Gardiner,Montana,791,137,None,N/A,$57835,45.71%,44,N/A,N/A,N/A,34,50.06%,$795,59.31%,N/A,N/A,15.68%,3.72%,66.62%,Park County,38.40%,53.20%,0.0%,2.91%,90.27%,4.05%,0.25%,N/A,88,33,55,54,16,45%,34%,29,45,86,58%,70%,45%,13.48,3.59,2.22,35.67%,31.1%,41.56%,92.4,66,6.9,26.4,96,4824,3.6,5.79,MT-29950,45.0570426,-110.7422248
Garrison,Montana,138,14,None,N/A,$46250,1.35%,38,N/A,N/A,N/A,41,76.14%,N/A,58.56%,N/A,N/A,8.7%,15.15%,35.11%,Powell County,19.70%,72.60%,0.0%,0.0%,96.38%,0.0%,2.9%,N/A,82,32,50,45,11,46%,32%,27,42,80,57%,71%,42%,14.78,4.94,1.43,46.49%,29.45%,55.78%,37.6,23,6.9,28.0,93,4434,3.7,9.63,MT-30175,46.5259505,-112.8204644
Geraldine,Montana,264,463,None,N/A,$42639,19.14%,57,N/A,N/A,N/A,62,83.91%,$572,54.27%,N/A,N/A,35.23%,2.06%,41.45%,Chouteau County,28.10%,64.50%,0.0%,0.0%,84.09%,14.77%,3.03%,N/A,81,36,45,54,18,46%,33%,28,43,80,58%,73%,43%,17.2,5.61,1.99,25.53%,24.62%,22.56%,46.6,30,6.9,24.8,95,2886,3.9,0.57,MT-30400,47.6021749,-110.2661972
Geyser,Montana,66,74,None,N/A,$40625,28.07%,60,N/A,N/A,N/A,51,60.26%,N/A,61.4%,N/A,N/A,15.15%,3.23%,54.39%,Judith Basin County,19.50%,72.20%,0.0%,0.0%,95.45%,0.0%,0.0%,N/A,82,35,47,53,14,46%,33%,28,43,80,58%,73%,43%,19.84,6.39,2.09,32.99%,33.74%,31.22%,46.6,30,6.9,24.8,98,4443,3.9,0.89,MT-30550,47.2633232,-110.4926927
Gibson Flats,Montana,203,61,Great Falls,84178,N/A,0.0%,45,N/A,N/A,N/A,N/A,100.0%,N/A,26.25%,N/A,N/A,59.61%,0.0%,13.75%,Cascade County,35.20%,56.80%,0.0%,0.0%,93.1%,0.0%,0.0%,Mountain Standard Time,87,35,52,56,19,46%,33%,28,43,85,58%,73%,43%,16.11,4.82,2.32,24.36%,23.3%,23.67%,76.8,44,6.9,24.8,87,3204,3.8,3.34,MT-30625,47.4640114,-111.2404291
Gildford,Montana,132,116,None,N/A,$48897,16.28%,44,N/A,N/A,N/A,79,93.09%,N/A,45.74%,N/A,N/A,3.79%,0.0%,53.19%,Hill County,36.80%,54.00%,0.0%,0.0%,93.94%,3.03%,0.0%,N/A,85,30,55,51,7,49%,33%,28,43,83,67%,82%,51%,12.9,4.55,1.4,17.97%,22.2%,14.0%,44.0,27,N/A,24.8,96,2580,3.8,1.14,MT-30700,48.5737234,-110.3070951
Glasgow,Montana,3194,2281,None,N/A,$76985,19.58%,43,N/A,N/A,N/A,56,69.92%,$794,50.74%,419,1049,13.28%,0.49%,67.59%,Valley County,22.80%,69.30%,0.0%,1.38%,91.64%,0.63%,0.34%,N/A,87,27,60,59,6,52%,35%,28,47,85,60%,73%,52%,14.6,5.66,1.52,26.96%,31.87%,25.22%,44.1,33,N/A,26.1,85,1911,3.6,1.4,MT-31075,48.1990272,-106.632077
Glendive,Montana,4831,1392,None,N/A,$71063,25.77%,44,N/A,N/A,N/A,55,60.51%,$832,49.88%,100,282,9.79%,5.19%,56.75%,Dawson County,17.80%,75.30%,0.0%,0.08%,90.21%,5.15%,2.38%,N/A,89,31,58,61,11,58%,47%,30,48,91,60%,73%,52%,15.92,6.11,1.23,22.96%,27.25%,18.78%,63.7,43,N/A,27.4,88,1899,3.5,3.47,MT-31450,47.1101853,-104.7069117
Grass Range,Montana,97,693,None,N/A,N/A,15.12%,70,N/A,N/A,N/A,42,88.43%,$900,69.23%,N/A,N/A,42.27%,0.0%,50.56%,Fergus County,20.60%,73.10%,0.0%,0.0%,97.94%,0.0%,0.0%,N/A,85,36,49,53,14,45%,34%,29,45,83,58%,70%,45%,18.22,5.91,1.72,18.58%,20.55%,15.0%,59.1,30,N/A,26.4,97,3192,3.7,0.14,MT-32575,47.0260694,-108.8030766
Great Falls,Montana,60412,2627,Great Falls,84178,$63934,28.31%,39,$300000,1911,$157,55,67.08%,$866,52.6%,515,5806,13.99%,3.23%,62.82%,Cascade County,35.20%,56.80%,0.96%,1.21%,82.9%,4.94%,1.7%,Mountain Standard Time,87,35,52,56,19,46%,33%,28,43,85,58%,73%,43%,16.11,4.82,2.32,24.36%,23.3%,23.67%,76.8,44,6.9,24.8,80,3204,3.8,23.0,MT-32800,47.5021931,-111.299581
Greycliff,Montana,94,184,None,N/A,$90650,0.0%,40,N/A,N/A,N/A,34,78.95%,N/A,28.95%,N/A,N/A,9.57%,0.0%,93.42%,Sweet Grass County,19.10%,75.70%,0.0%,0.0%,54.26%,0.0%,0.0%,N/A,87,36,51,54,19,45%,34%,29,45,85,58%,70%,45%,19.19,4.69,2.04,20.68%,22.86%,12.89%,116.8,37,6.9,26.4,95,3993,3.6,0.51,MT-33250,45.7586542,-109.7797931
Hamilton,Montana,4949,2045,None,N/A,$52917,31.36%,48,N/A,N/A,N/A,44,48.97%,$958,57.23%,368,3033,12.02%,1.86%,60.06%,Ravalli County,27.60%,65.70%,0.71%,0.0%,94.32%,2.14%,8.2%,N/A,85,34,51,50,18,51%,33%,32,45,83,54%,73%,34%,15.24,3.31,3.57,29.89%,21.76%,33.78%,45.2,39,5.4,23.0,85,3279,3,2.42,MT-33775,46.2527713,-114.15984
Happys Inn,Montana,146,15,None,N/A,$47976,33.56%,72,N/A,N/A,N/A,41,100.0%,N/A,80.14%,N/A,N/A,41.78%,0.0%,36.99%,Lincoln County,21.90%,72.10%,0.0%,0.0%,100.0%,0.0%,0.0%,N/A,80,30,50,41,14,54%,38%,31,46,80,54%,73%,34%,22.84,3.29,6.92,33.86%,20.22%,42.33%,56.3,36,5.4,21.1,92,3147,3,9.81,MT-34110,48.0637735,-115.1350344
Hardin,Montana,3766,1268,None,N/A,$60463,30.31%,34,N/A,N/A,N/A,52,45.72%,$726,51.56%,N/A,N/A,18.36%,6.13%,64.94%,Big Horn County,49.40%,43.70%,0.45%,0.0%,41.69%,11.15%,0.77%,N/A,92,37,55,56,12,45%,34%,29,45,91,58%,70%,45%,16.55,4.3,2.03,24.14%,25.71%,19.33%,40.3,25,7.2,26.4,87,2634,3.7,2.97,MT-34225,45.7422329,-107.6082342
Harlem,Montana,879,2093,None,N/A,$74545,35.21%,40,N/A,N/A,N/A,66,59.95%,$770,54.81%,N/A,N/A,9.9%,9.07%,69.58%,Blaine County,44.80%,47.20%,0.0%,0.0%,38.23%,4.55%,1.48%,N/A,85,29,56,54,8,49%,33%,28,47,83,67%,82%,51%,13.7,5.49,1.37,23.67%,27.58%,18.11%,44.0,27,N/A,26.1,95,2310,3.6,0.42,MT-34375,48.5318568,-108.7846522
Harlowton,Montana,1054,1673,None,N/A,$53750,13.04%,51,N/A,N/A,N/A,68,68.0%,$766,39.6%,N/A,N/A,19.43%,0.0%,44.38%,Wheatland County,18.90%,74.20%,0.0%,0.0%,93.17%,5.22%,0.19%,N/A,85,35,50,51,15,45%,34%,29,45,83,58%,70%,45%,17.85,6.37,1.96,23.7%,26.37%,20.33%,59.1,30,6.9,26.4,98,3861,3.7,0.63,MT-34450,46.4367759,-109.8351041
Harrison,Montana,96,533,None,N/A,$70625,19.7%,54,N/A,N/A,N/A,50,37.5%,$1111,21.25%,N/A,N/A,26.04%,0.0%,71.25%,Madison County,24.90%,69.50%,0.0%,0.0%,100.0%,0.0%,0.0%,N/A,86,38,48,57,23,46%,32%,27,42,84,57%,71%,42%,39.44,6.99,8.51,40.63%,27.69%,46.11%,46.8,26,6.9,28.0,97,7590,3.6,0.18,MT-34525,45.7043786,-111.7844165
Havre,Montana,9333,2516,None,N/A,$58000,30.88%,33,N/A,N/A,N/A,50,64.53%,$802,55.16%,N/A,3696,16.43%,2.86%,67.55%,Hill County,36.80%,54.00%,0.32%,0.49%,77.61%,3.88%,1.32%,N/A,87,30,57,54,10,49%,33%,28,43,85,67%,82%,51%,12.25,4.09,1.58,25.84%,26.15%,25.44%,44.0,27,N/A,24.8,88,2364,3.8,3.71,MT-35050,48.5427043,-109.6803212
Havre North,Montana,880,263,None,N/A,$36695,3.5%,36,N/A,N/A,N/A,49,64.27%,$786,42.92%,N/A,N/A,45.8%,3.64%,50.57%,Hill County,36.80%,54.00%,0.0%,0.0%,80.45%,1.82%,0.0%,N/A,87,30,57,54,10,49%,33%,28,43,85,67%,82%,51%,12.25,4.09,1.58,25.84%,26.15%,25.44%,44.0,27,N/A,24.8,87,2364,3.8,3.35,MT-35125,48.5632357,-109.6712319
Hays,Montana,967,36,None,N/A,$57875,14.45%,34,N/A,N/A,N/A,40,55.23%,$550,75.0%,N/A,N/A,29.61%,26.04%,56.51%,Blaine County,44.80%,47.20%,0.0%,3.21%,1.96%,4.55%,1.86%,N/A,81,31,50,55,12,49%,33%,28,47,80,67%,82%,51%,21.28,7.33,2.76,23.67%,27.58%,18.11%,44.0,27,N/A,26.1,97,3690,3.6,27.1,MT-35275,48.0103697,-108.66065
Heart Butte,Montana,504,111,None,N/A,$28977,11.2%,27,N/A,N/A,N/A,33,44.33%,$459,80.23%,N/A,N/A,46.68%,12.57%,50.45%,Pondera County,27.10%,66.10%,0.0%,0.4%,1.98%,0.6%,0.0%,N/A,76,29,47,47,11,54%,38%,31,46,75,58%,73%,43%,53.13,7.56,17.65,47.81%,27.58%,61.0%,55.0,23,5.4,21.1,97,6309,3.9,4.56,MT-35350,48.2904973,-112.8363303
Hebgen Lake Estates,Montana,53,294,Bozeman,116725,$29261,58.49%,74,N/A,N/A,N/A,16,100.0%,N/A,100.0%,N/A,N/A,0.0%,0.0%,24.53%,Gallatin County,45.10%,44.20%,0.0%,0.0%,83.02%,0.0%,0.0%,N/A,80,25,55,39,1,46%,32%,27,42,79,57%,71%,42%,25.08,4.16,7.54,30.14%,19.45%,41.44%,92.4,66,6.9,28.0,96,6126,3.8,0.18,MT-35435,44.7692403,-111.1904533
Helena,Montana,33126,1969,Helena,82397,$69341,50.38%,40,$375000,1494,$251,45,61.08%,$1058,56.59%,579,4267,9.11%,3.09%,62.41%,Lewis and Clark County,41.00%,47.90%,0.92%,0.85%,87.16%,4.77%,1.75%,N/A,88,32,56,56,14,46%,32%,27,42,86,57%,71%,42%,15.18,4.92,2.29,24.44%,23.63%,23.67%,37.6,23,6.9,28.0,83,3540,3.9,16.82,MT-35600,46.5965478,-112.020199
Helena Flats,Montana,1014,120,Kalispell,103400,$88125,26.93%,41,N/A,N/A,N/A,30,81.3%,N/A,25.78%,N/A,N/A,1.68%,5.07%,75.79%,Flathead County,28.00%,63.70%,1.48%,1.38%,88.46%,2.76%,2.96%,N/A,84,31,53,48,17,54%,38%,31,46,83,54%,73%,34%,16.72,4.39,4.2,36.79%,26.48%,47.56%,56.3,36,5.4,21.1,87,2703,3.2,8.44,MT-35622,48.2863579,-114.2369139
Helena Valley Northeast,Montana,4398,83,Helena,82397,$137724,46.99%,48,$545000,1886,$289,25,95.15%,$1221,38.02%,N/A,N/A,6.25%,1.66%,63.93%,Lewis and Clark County,41.00%,47.90%,1.09%,0.0%,90.68%,6.07%,1.48%,N/A,88,32,56,56,14,46%,32%,27,42,86,57%,71%,42%,11.6,4.12,0.86,24.44%,23.63%,23.67%,37.6,23,6.9,28.0,91,3726,3.9,53.24,MT-35628,46.6973461,-111.9428385
Helena Valley Northwest,Montana,5070,310,Helena,82397,$101278,36.93%,36,$453000,2004,$226,17,95.65%,$1640,27.53%,N/A,N/A,2.54%,2.18%,67.81%,Lewis and Clark County,41.00%,47.90%,0.12%,0.0%,92.27%,1.12%,1.01%,N/A,88,32,56,56,14,46%,32%,27,42,86,57%,71%,42%,11.6,4.12,0.86,24.44%,23.63%,23.67%,37.6,23,6.9,28.0,93,3726,3.9,16.38,MT-35631,46.7288853,-112.0630761
Helena Valley Southeast,Montana,9533,443,Helena,82397,$63824,21.74%,38,$465000,1898,$245,33,82.66%,$1231,47.89%,N/A,N/A,13.87%,5.54%,66.95%,Lewis and Clark County,41.00%,47.90%,0.59%,0.83%,93.21%,1.99%,0.83%,N/A,88,32,56,56,14,46%,32%,27,42,86,57%,71%,42%,11.59,3.75,1.66,24.44%,23.63%,23.67%,37.6,23,6.9,28.0,90,3501,3.9,21.51,MT-35634,46.6218514,-111.8973416
Helena Valley West Central,Montana,8224,312,Helena,82397,$89040,39.71%,39,$460000,1925,$239,32,84.61%,$1225,37.9%,N/A,N/A,4.86%,4.57%,64.84%,Lewis and Clark County,41.00%,47.90%,0.16%,0.38%,87.83%,4.72%,2.93%,N/A,88,32,56,56,14,46%,32%,27,42,86,57%,71%,42%,15.18,4.92,2.29,24.44%,23.63%,23.67%,37.6,23,6.9,28.0,89,3540,3.9,26.4,MT-35637,46.6633993,-112.0604641
Helena West Side,Montana,1584,104,Helena,82397,$67692,48.33%,35,$300000,1034,$290,43,91.24%,$781,42.25%,N/A,N/A,4.02%,0.0%,76.29%,Lewis and Clark County,41.00%,47.90%,0.0%,0.0%,86.43%,0.63%,1.7%,N/A,88,32,56,56,14,46%,32%,27,42,86,57%,71%,42%,15.18,4.92,2.29,24.44%,23.63%,23.67%,37.6,23,6.9,28.0,89,3540,3.9,15.29,MT-35640,46.5966096,-112.1148006
Heron,Montana,312,61,None,N/A,$29357,36.06%,32,N/A,N/A,N/A,43,36.65%,N/A,28.9%,N/A,N/A,62.5%,0.0%,36.7%,Sanders County,20.50%,72.00%,0.0%,0.0%,97.44%,1.28%,0.0%,N/A,84,33,51,49,24,52%,30%,34,43,82,52%,73%,28%,37.86,5.39,14.01,42.52%,19.67%,55.78%,74.4,35,8.7,10.3,90,2049,3.2,5.09,MT-35875,48.0637563,-115.9802264
Herron,Montana,36,8,None,N/A,$52083,25.93%,46,N/A,N/A,N/A,42,100.0%,N/A,10.0%,N/A,N/A,0.0%,0.0%,44.44%,Hill County,36.80%,54.00%,0.0%,0.0%,100.0%,0.0%,0.0%,N/A,87,30,57,54,10,49%,33%,28,43,85,67%,82%,51%,12.25,4.09,1.58,25.84%,26.15%,25.44%,44.0,27,N/A,24.8,95,2364,3.8,4.68,MT-35912,48.5341318,-109.7717551
Highwood,Montana,209,40,None,N/A,$71875,36.72%,29,N/A,N/A,N/A,40,64.63%,N/A,22.29%,N/A,N/A,6.22%,16.67%,76.62%,Chouteau County,28.10%,64.50%,0.0%,0.0%,98.09%,0.0%,0.0%,N/A,87,35,52,55,16,46%,33%,28,43,85,58%,73%,43%,16.74,5.29,2.22,25.53%,24.62%,22.56%,46.6,30,6.9,24.8,95,3291,3.9,5.18,MT-36250,47.5991781,-110.7695987
Hingham,Montana,95,559,None,N/A,$85000,5.49%,57,N/A,N/A,N/A,72,75.0%,N/A,41.05%,N/A,N/A,1.05%,25.42%,62.11%,Hill County,36.80%,54.00%,0.0%,0.0%,100.0%,0.0%,4.21%,N/A,85,30,55,51,7,49%,33%,28,43,83,67%,82%,51%,12.9,4.55,1.4,17.97%,22.2%,14.0%,44.0,27,N/A,24.8,96,2580,3.8,0.17,MT-36400,48.555449,-110.4212879
Hinsdale,Montana,250,39,None,N/A,$40250,26.6%,51,N/A,N/A,N/A,60,58.45%,$537,41.48%,N/A,N/A,24.4%,2.99%,58.52%,Valley County,22.80%,69.30%,0.0%,0.0%,80.4%,10.8%,4.4%,N/A,86,28,58,56,8,52%,35%,28,47,84,67%,82%,51%,15.26,5.41,1.38,17.48%,22.86%,13.11%,44.2,33,N/A,26.1,95,2565,3.6,6.47,MT-36475,48.4035638,-107.0582539
Hobson,Montana,145,690,None,N/A,$34750,24.32%,66,N/A,N/A,N/A,65,79.78%,$619,58.82%,N/A,N/A,18.62%,23.33%,46.15%,Judith Basin County,19.50%,72.20%,0.0%,0.0%,88.28%,2.07%,0.0%,N/A,84,36,48,52,13,46%,33%,28,43,82,58%,73%,43%,17.87,6.11,1.61,31.51%,33.19%,26.67%,59.1,30,6.9,24.8,98,3933,3.9,0.21,MT-36700,46.9994313,-109.8733386
Hot Springs,Montana,558,1468,None,N/A,$21319,14.71%,54,N/A,N/A,N/A,67,60.0%,$683,59.72%,0,526,23.67%,10.53%,41.47%,Sanders County,20.50%,72.00%,0.36%,0.36%,84.59%,4.84%,1.79%,N/A,85,32,53,53,22,54%,38%,31,46,84,54%,73%,34%,16.08,3.94,3.51,37.7%,25.27%,43.44%,51.8,39,5.4,21.1,92,2496,3.2,0.38,MT-37825,47.6092026,-114.6703543
Hungry Horse,Montana,663,464,Kalispell,103400,N/A,25.83%,29,N/A,N/A,N/A,32,76.91%,N/A,49.32%,N/A,N/A,6.18%,0.0%,63.8%,Flathead County,28.00%,63.70%,0.0%,0.0%,96.38%,0.0%,0.0%,N/A,84,30,54,54,21,54%,38%,31,46,83,54%,73%,34%,35.47,6.15,10.13,37.32%,24.95%,46.44%,56.3,36,5.4,21.1,91,2889,3.2,1.43,MT-38125,48.384279,-114.0651861
Huntley,Montana,534,351,Billings,182997,$91667,11.97%,39,N/A,N/A,N/A,10,90.23%,$1119,48.63%,N/A,N/A,0.0%,0.0%,71.07%,Yellowstone County,31.50%,58.10%,0.0%,0.0%,100.0%,0.0%,2.43%,Mountain Standard Time,89,36,53,55,13,45%,34%,29,45,87,58%,70%,45%,14.82,4.24,1.63,24.14%,25.71%,19.33%,40.3,25,7.2,26.4,89,2775,3.8,1.52,MT-38200,45.8994725,-108.3054174
Huson,Montana,59,77,Missoula,117379,$54792,20.34%,60,N/A,N/A,N/A,40,71.67%,N/A,62.71%,N/A,N/A,0.0%,0.0%,49.15%,Missoula County,51.90%,36.60%,0.0%,0.0%,100.0%,0.0%,0.0%,Mountain Standard Time,88,32,56,49,18,51%,33%,32,45,86,54%,73%,34%,18.56,3.65,4.77,38.71%,26.7%,47.67%,51.8,39,5.4,23.0,86,2799,3.1,0.77,MT-38275,47.0324477,-114.3401646
Hysham,Montana,300,1364,None,N/A,$46000,15.11%,43,N/A,N/A,N/A,60,81.7%,$594,48.03%,N/A,N/A,18.0%,3.23%,61.02%,Treasure County,13.30%,79.20%,3.33%,0.0%,87.67%,8.67%,3.33%,N/A,88,35,53,58,14,45%,34%,30,48,86,58%,70%,45%,15.87,4.74,1.77,23.92%,25.6%,21.0%,38.6,18,7.2,27.4,91,2442,3.8,0.22,MT-38350,46.2909208,-107.2304989
Indian Springs,Montana,97,22,None,N/A,N/A,N/A,N/A,N/A,N/A,N/A,N/A,0.0%,N/A,0.0%,N/A,N/A,0.0%,0.0%,0.0%,Lincoln County,21.90%,72.10%,0.0%,0.0%,0.0%,0.0%,0.0%,N/A,87,32,55,54,20,54%,38%,31,46,86,52%,73%,28%,14.92,4.41,3.06,27.75%,22.75%,31.11%,33.4,15,5.4,21.1,93,2316,3,4.5,MT-38480,48.9534231,-115.0445919
Inverness,Montana,31,8,None,N/A,$80250,29.03%,79,N/A,N/A,N/A,39,100.0%,N/A,41.94%,N/A,N/A,0.0%,0.0%,41.94%,Hill County,36.80%,54.00%,0.0%,0.0%,100.0%,0.0%,0.0%,N/A,85,30,55,53,8,49%,33%,28,43,83,67%,82%,51%,12.97,4.71,1.54,17.97%,22.2%,14.0%,44.0,27,6.9,24.8,96,3039,3.8,3.9,MT-38725,48.5598625,-110.7100772
Ismay,Montana,1,2,None,N/A,N/A,0.0%,N/A,N/A,N/A,N/A,N/A,0.0%,N/A,100.0%,N/A,N/A,0.0%,0.0%,100.0%,Custer County,22.70%,70.50%,0.0%,0.0%,100.0%,0.0%,0.0%,N/A,87,31,56,56,7,58%,47%,30,48,88,60%,73%,52%,16.27,5.63,1.47,27.92%,30.11%,26.11%,35.3,30,N/A,27.4,92,2541,3.6,0.42,MT-38950,46.500227,-104.7929313
Jardine,Montana,63,4,None,N/A,N/A,66.67%,47,N/A,N/A,N/A,38,29.27%,N/A,93.65%,N/A,N/A,0.0%,19.05%,100.0%,Park County,38.40%,53.20%,0.0%,0.0%,71.43%,28.57%,26.98%,N/A,88,33,55,54,16,45%,34%,29,45,86,58%,70%,45%,13.48,3.59,2.22,35.67%,31.1%,41.56%,92.4,66,6.9,26.4,96,4824,3.6,14.75,MT-39175,45.056493,-110.6185748
Jefferson City,Montana,446,19,Helena,82397,$73875,33.33%,39,N/A,N/A,N/A,26,80.54%,N/A,23.3%,N/A,N/A,4.93%,0.0%,47.25%,Jefferson County,29.80%,62.20%,0.0%,0.0%,95.74%,2.24%,0.45%,N/A,83,33,50,44,10,46%,32%,27,42,81,57%,71%,42%,18.93,5.68,2.66,32.08%,23.3%,35.44%,37.6,23,6.9,28.0,95,4272,3.6,23.22,MT-39400,46.3779504,-112.0304815
Jette,Montana,221,356,None,N/A,$59417,62.02%,63,N/A,N/A,N/A,50,25.47%,N/A,11.54%,N/A,N/A,12.67%,0.0%,44.23%,Lake County,36.20%,57.10%,0.0%,0.0%,83.71%,0.0%,0.0%,N/A,85,32,53,53,22,54%,38%,31,46,84,54%,73%,34%,16.08,3.94,3.51,37.7%,25.27%,43.44%,143.2,79,5.4,21.1,88,2496,3.1,0.62,MT-39627,47.7169469,-114.1905569
Joliet,Montana,614,2274,Billings,182997,$75469,19.46%,40,$283000,1726,$164,55,90.05%,N/A,26.6%,N/A,N/A,11.24%,0.0%,66.67%,Carbon County,30.50%,62.60%,0.33%,0.0%,95.11%,1.95%,0.0%,Mountain Standard Time,87,35,52,50,11,45%,34%,29,45,85,58%,70%,45%,15.26,3.77,1.82,23.23%,24.73%,16.78%,54.7,28,7.2,26.4,93,3510,3.9,0.27,MT-39700,45.4843669,-108.9721466
Joplin,Montana,269,213,None,N/A,$67292,29.08%,31,N/A,N/A,N/A,54,71.07%,N/A,50.65%,N/A,N/A,30.86%,0.0%,63.83%,Liberty County,21.40%,72.60%,0.0%,0.0%,100.0%,0.0%,0.0%,N/A,85,30,55,53,8,49%,33%,28,43,83,67%,82%,51%,12.97,4.71,1.54,17.97%,22.2%,14.0%,61.6,21,6.9,24.8,96,3039,3.7,1.26,MT-39775,48.5590374,-110.7729026
Jordan,Montana,299,854,None,N/A,$43594,14.54%,56,N/A,N/A,N/A,48,60.92%,$835,44.98%,N/A,N/A,4.88%,0.0%,48.79%,Garfield County,4.70%,90.90%,0.0%,3.01%,95.99%,0.0%,0.0%,N/A,89,32,57,56,8,52%,35%,28,47,87,58%,70%,45%,13.89,4.9,1.53,25.84%,27.47%,26.33%,44.1,33,N/A,26.1,95,2433,3.7,0.35,MT-39925,47.3210539,-106.9098591
Judith Gap,Montana,131,397,None,N/A,N/A,13.08%,61,N/A,N/A,N/A,43,79.84%,$525,57.94%,N/A,N/A,32.82%,1.79%,52.34%,Wheatland County,18.90%,74.20%,0.0%,0.0%,100.0%,0.0%,0.0%,N/A,81,34,47,51,11,45%,34%,29,45,80,58%,70%,45%,18.4,6.05,1.68,37.34%,29.56%,40.0%,59.1,30,6.9,26.4,98,4233,3.7,0.33,MT-40000,46.6790699,-109.7533122
Kalispell,Montana,26830,2158,Kalispell,103400,$61590,32.88%,36,$484000,1692,$286,36,64.37%,$1019,51.84%,416,3354,10.3%,3.58%,65.63%,Flathead County,28.00%,63.70%,1.45%,0.35%,88.09%,5.03%,3.53%,N/A,84,31,53,48,17,54%,38%,31,46,83,54%,73%,34%,16.72,4.39,4.2,36.79%,26.48%,47.56%,56.3,36,5.4,21.1,68,2703,3.2,12.43,MT-40075,48.2153594,-114.3273726
Kerr,Montana,432,475,None,N/A,$46944,42.86%,41,N/A,N/A,N/A,22,100.0%,N/A,26.2%,N/A,N/A,28.94%,0.0%,66.4%,Lake County,36.20%,57.10%,0.0%,0.0%,68.98%,0.0%,0.0%,N/A,85,32,53,53,22,54%,38%,31,46,84,54%,73%,34%,16.08,3.94,3.51,37.7%,25.27%,43.44%,143.2,79,5.4,21.1,88,2496,3.1,0.91,MT-40355,47.6771485,-114.1873209
Kevin,Montana,84,233,None,N/A,$35625,1.27%,62,N/A,N/A,N/A,62,95.38%,N/A,46.99%,N/A,N/A,14.29%,0.0%,35.37%,Toole County,19.70%,73.50%,0.0%,0.0%,96.43%,0.0%,0.0%,N/A,83,32,51,51,9,46%,33%,28,43,81,58%,73%,43%,11.75,4.66,0.83,22.99%,26.04%,20.33%,39.9,24,5.4,24.8,97,3249,3.8,0.36,MT-40525,48.7457418,-111.9654907
Kicking Horse,Montana,69,29,None,N/A,N/A,100.0%,63,N/A,N/A,N/A,36,38.53%,N/A,0.0%,N/A,N/A,0.0%,0.0%,91.3%,Lake County,36.20%,57.10%,0.0%,0.0%,71.01%,28.99%,0.0%,N/A,80,29,51,51,16,51%,33%,32,45,79,54%,73%,34%,26.41,5.86,6.02,39.95%,19.89%,57.22%,143.2,79,5.4,23.0,92,3120,3.1,2.42,MT-40580,47.4567633,-114.0717189
Kila,Montana,406,102,Kalispell,103400,N/A,36.06%,44,$575000,1281,$449,28,64.72%,$1125,55.03%,N/A,N/A,25.37%,0.55%,57.37%,Flathead County,28.00%,63.70%,0.0%,14.04%,79.06%,0.99%,0.0%,N/A,84,31,53,48,17,54%,38%,31,46,83,54%,73%,34%,17.18,4.29,3.9,32.19%,18.24%,43.0%,56.3,36,5.4,21.1,90,2976,3.2,3.98,MT-40675,48.1215306,-114.4767022
King Arthur Park,Montana,2343,5093,Bozeman,116725,$107341,29.8%,35,$643000,1919,$335,16,85.83%,$2201,67.86%,N/A,N/A,5.41%,0.0%,86.7%,Gallatin County,45.10%,44.20%,0.0%,0.0%,92.02%,7.98%,3.76%,N/A,84,33,51,52,14,46%,32%,27,42,82,57%,71%,42%,17.47,5.3,1.78,40.3%,37.91%,39.89%,46.8,26,6.9,28.0,87,4365,3.8,0.46,MT-40685,45.6663982,-111.1268847
Kings Point,Montana,373,276,None,N/A,$105000,70.59%,50,N/A,N/A,N/A,42,25.73%,N/A,39.86%,N/A,N/A,0.0%,0.0%,65.2%,Lake County,36.20%,57.10%,0.0%,0.0%,55.5%,0.0%,10.72%,N/A,85,32,53,53,22,54%,38%,31,46,84,54%,73%,34%,16.08,3.94,3.51,37.7%,25.27%,43.44%,143.2,79,5.4,21.1,88,2496,3.1,1.35,MT-40725,47.7583937,-114.140981
Klein,Montana,292,23,None,N/A,$49387,0.0%,59,N/A,N/A,N/A,44,100.0%,N/A,23.15%,N/A,N/A,10.96%,0.0%,45.81%,Musselshell County,13.60%,80.60%,0.0%,0.0%,92.81%,0.0%,0.0%,N/A,91,36,55,54,14,45%,34%,29,45,89,58%,70%,45%,15.92,5.54,1.38,21.81%,24.73%,16.11%,45.4,22,7.2,26.4,94,2925,3.8,12.85,MT-41050,46.3982605,-108.5525823
Kremlin,Montana,33,75,None,N/A,N/A,22.22%,59,N/A,N/A,N/A,64,87.93%,N/A,63.64%,N/A,N/A,27.27%,0.0%,72.73%,Hill County,36.80%,54.00%,0.0%,0.0%,81.82%,12.12%,0.0%,N/A,85,30,55,51,7,49%,33%,28,43,83,67%,82%,51%,12.9,4.55,1.4,23.64%,26.04%,20.22%,44.0,27,N/A,24.8,96,2580,3.8,0.44,MT-41725,48.5706267,-110.0860847
Lake Mary Ronan,Montana,63,60,None,N/A,N/A,36.84%,34,N/A,N/A,N/A,43,100.0%,N/A,64.0%,N/A,N/A,20.63%,26.67%,30.0%,Lake County,36.20%,57.10%,0.0%,0.0%,100.0%,0.0%,0.0%,N/A,82,35,47,56,26,54%,38%,31,46,81,54%,73%,34%,24.76,4.59,7.27,32.19%,18.24%,43.0%,56.3,36,5.4,21.1,89,5166,3.1,1.05,MT-41910,47.9433665,-114.394974
Lakeside,Montana,2730,194,Kalispell,103400,$83958,30.38%,55,$995000,3210,$310,29,82.46%,N/A,28.64%,N/A,N/A,12.63%,0.0%,61.74%,Flathead County,28.00%,63.70%,4.21%,0.0%,90.4%,1.94%,9.16%,N/A,82,32,50,51,19,54%,38%,31,46,81,54%,73%,34%,24.76,4.59,7.27,32.19%,18.24%,43.0%,56.3,36,5.4,21.1,89,5166,3.2,14.08,MT-41950,48.0181622,-114.2274079
Lame Deer,Montana,1939,35,None,N/A,$26364,11.1%,22,N/A,N/A,N/A,41,61.84%,$553,73.22%,N/A,N/A,51.35%,29.95%,46.38%,Rosebud County,28.60%,65.20%,0.0%,0.41%,1.81%,1.03%,0.0%,N/A,89,35,54,53,10,51%,37%,29,46,88,60%,71%,52%,16.62,4.27,2.32,23.45%,19.23%,26.44%,52.7,28,7.2,31.9,87,3138,3.7,55.59,MT-42250,45.6176514,-106.6133954
Laurel,Montana,7198,3317,Billings,182997,$66382,20.08%,37,$350000,2593,$135,47,70.29%,$953,52.08%,413,2615,12.25%,2.12%,69.86%,Yellowstone County,31.50%,58.10%,2.46%,0.5%,85.4%,6.27%,2.29%,Mountain Standard Time,90,36,54,58,16,45%,34%,29,45,88,58%,70%,45%,15.93,4.35,1.88,27.56%,29.67%,22.67%,50.4,30,7.2,26.4,84,3111,3.8,2.17,MT-42700,45.6734098,-108.7705487
Lavina,Montana,134,133,Billings,182997,$66875,30.84%,40,N/A,N/A,N/A,64,77.71%,$725,53.91%,N/A,N/A,8.21%,0.0%,68.42%,Golden Valley County,15.00%,77.00%,0.0%,0.0%,82.09%,12.69%,0.0%,Mountain Standard Time,88,36,52,52,11,45%,34%,29,45,86,58%,70%,45%,15.85,5.36,1.55,23.29%,25.49%,18.78%,45.4,22,7.2,26.4,96,3096,3.8,1.01,MT-42850,46.2950149,-108.9388082
Lewistown,Montana,6028,1054,None,N/A,$44195,16.94%,47,N/A,N/A,N/A,71,72.95%,$896,53.49%,N/A,N/A,20.64%,6.82%,57.34%,Fergus County,20.60%,73.10%,0.85%,1.08%,91.09%,3.7%,2.22%,N/A,83,33,50,52,12,46%,33%,28,43,81,58%,73%,43%,17.68,6.2,1.57,31.51%,33.19%,26.67%,59.1,30,6.9,24.8,92,3789,3.7,5.72,MT-43375,47.0513799,-109.4523914
Lewistown Heights,Montana,484,205,None,N/A,$86930,12.36%,28,N/A,N/A,N/A,29,100.0%,N/A,43.15%,N/A,N/A,6.2%,0.0%,85.39%,Fergus County,20.60%,73.10%,10.54%,0.0%,89.46%,0.0%,10.54%,N/A,83,33,50,52,12,46%,33%,28,43,81,58%,73%,43%,17.68,6.2,1.57,31.51%,33.19%,26.67%,59.1,30,6.9,24.8,92,3789,3.7,2.36,MT-43400,47.0783828,-109.4735286
Libby,Montana,2948,1602,None,N/A,$39261,17.18%,49,N/A,N/A,N/A,61,60.27%,$679,53.86%,145,2254,26.13%,1.87%,46.21%,Lincoln County,21.90%,72.10%,0.61%,0.27%,86.57%,1.29%,2.1%,N/A,86,34,52,51,22,54%,38%,31,46,85,52%,73%,28%,20.69,4.65,4.98,39.89%,22.53%,50.78%,33.4,15,5.4,21.1,54,1929,3,1.84,MT-43450,48.3870061,-115.5559915
Lima,Montana,237,431,None,N/A,$53906,19.57%,53,N/A,N/A,N/A,57,94.74%,N/A,32.2%,N/A,N/A,17.72%,0.0%,47.21%,Beaverhead County,23.60%,69.10%,0.0%,0.0%,100.0%,0.0%,0.0%,N/A,83,29,54,47,9,45%,25%,29,41,81,62%,79%,43%,10.97,3.93,1.14,31.23%,24.4%,31.78%,46.8,26,6.9,23.0,97,5742,4.1,0.55,MT-43525,44.6384067,-112.5919223
Lincoln,Montana,868,49,Helena,82397,$45912,27.74%,57,$463000,1767,$262,44,81.71%,$764,43.56%,N/A,N/A,4.61%,1.06%,57.79%,Lewis and Clark County,41.00%,47.90%,0.0%,0.0%,94.47%,3.23%,2.3%,N/A,83,34,49,51,16,46%,32%,27,42,81,57%,71%,42%,24.76,3.73,8.9,30.99%,18.68%,43.44%,37.6,23,6.9,28.0,92,4755,3.9,17.55,MT-43675,46.9530253,-112.6693267
Lindisfarne,Montana,434,168,None,N/A,N/A,50.88%,61,N/A,N/A,N/A,28,100.0%,N/A,26.5%,N/A,N/A,17.74%,9.35%,49.31%,Lake County,36.20%,57.10%,0.0%,0.0%,96.54%,0.0%,0.0%,N/A,85,32,53,53,22,54%,38%,31,46,84,54%,73%,34%,16.08,3.94,3.51,37.7%,25.27%,43.44%,56.3,36,5.4,21.1,88,2496,3.1,2.58,MT-43710,47.8041938,-114.2120913
Little Bitterroot Lake,Montana,153,18,Kalispell,103400,$105114,20.66%,51,$899000,1674,$537,23,100.0%,N/A,21.21%,N/A,N/A,0.0%,0.0%,46.21%,Flathead County,28.00%,63.70%,0.0%,0.0%,96.73%,0.0%,0.0%,N/A,84,31,53,48,17,54%,38%,31,46,83,54%,73%,34%,17.18,4.29,3.9,33.53%,18.46%,45.89%,56.3,36,5.4,21.1,90,2976,3.2,8.43,MT-43830,48.1179855,-114.7206466
Little Browning,Montana,61,84,None,N/A,N/A,0.0%,16,N/A,N/A,N/A,49,0.0%,N/A,100.0%,N/A,N/A,31.15%,42.86%,55.26%,Glacier County,61.50%,31.90%,0.0%,0.0%,0.0%,0.0%,0.0%,N/A,82,31,51,50,12,46%,33%,28,43,80,58%,73%,43%,15.85,4.69,2.16,20.0%,22.97%,15.33%,39.9,24,5.4,24.8,97,3429,3.1,0.73,MT-43835,48.6251029,-112.3500421
Livingston,Montana,8635,1531,None,N/A,$65187,35.1%,43,N/A,N/A,N/A,66,69.79%,$987,57.54%,N/A,N/A,15.15%,3.39%,70.65%,Park County,38.40%,53.20%,0.27%,0.0%,93.39%,2.06%,0.86%,N/A,88,36,52,51,18,46%,32%,27,42,86,57%,71%,42%,17.37,4.76,2.35,29.1%,31.76%,19.56%,116.8,37,6.9,28.0,91,4212,3.6,5.64,MT-43975,45.6665458,-110.55382
Lockwood,Montana,7474,581,Billings,182997,$74451,14.68%,36,$387000,2688,$144,38,79.38%,$995,46.07%,N/A,N/A,14.35%,4.22%,67.5%,Yellowstone County,31.50%,58.10%,0.0%,0.0%,81.64%,8.01%,0.63%,Mountain Standard Time,87,36,51,57,15,45%,34%,29,45,85,58%,70%,45%,15.8,4.46,1.76,24.93%,25.49%,18.33%,60.7,34,7.2,26.4,72,2892,3.8,12.86,MT-44200,45.819949,-108.4071631
Lodge Grass,Montana,499,1919,None,N/A,$50000,6.92%,27,N/A,N/A,N/A,63,67.57%,$635,68.51%,N/A,N/A,30.66%,12.07%,52.73%,Big Horn County,49.40%,43.70%,0.0%,0.0%,4.81%,1.2%,0.0%,N/A,89,35,54,53,10,51%,37%,29,46,88,60%,71%,52%,16.62,4.27,2.32,23.45%,19.23%,26.44%,52.7,28,7.2,31.9,93,3138,3.7,0.26,MT-44275,45.3142604,-107.3677828
Lodge Pole,Montana,257,19,None,N/A,N/A,13.57%,27,N/A,N/A,N/A,34,23.26%,$500,68.31%,N/A,N/A,29.18%,30.37%,78.49%,Blaine County,44.80%,47.20%,0.0%,0.0%,0.0%,2.33%,0.0%,N/A,81,31,50,55,12,49%,33%,28,47,80,67%,82%,51%,21.28,7.33,2.76,23.67%,27.58%,18.11%,44.0,27,N/A,26.1,97,3690,3.6,13.39,MT-44350,48.0272379,-108.5517282
Logan,Montana,135,270,Bozeman,116725,N/A,0.0%,N/A,N/A,N/A,N/A,N/A,100.0%,N/A,100.0%,N/A,N/A,0.0%,0.0%,100.0%,Gallatin County,45.10%,44.20%,0.0%,0.0%,100.0%,0.0%,0.0%,N/A,86,32,54,50,10,46%,32%,27,42,84,57%,71%,42%,16.27,4.9,1.58,29.34%,29.45%,20.78%,46.8,26,6.9,28.0,93,3879,3.8,0.5,MT-44500,45.8843445,-111.4235474
Lolo,Montana,4378,463,Missoula,117379,$73700,40.31%,33,$499000,1636,$305,25,76.67%,$1126,46.69%,N/A,N/A,7.17%,1.87%,69.2%,Missoula County,51.90%,36.60%,1.14%,0.41%,90.91%,4.91%,0.85%,Mountain Standard Time,87,31,56,52,18,51%,33%,32,45,85,54%,73%,34%,15.12,4.19,3.19,34.11%,24.62%,42.11%,45.2,39,5.4,23.0,90,2847,3.1,9.46,MT-44650,46.7755961,-114.1017981
Loma,Montana,90,26,None,N/A,$48577,0.0%,69,N/A,N/A,N/A,9,100.0%,N/A,100.0%,N/A,N/A,0.0%,0.0%,27.78%,Chouteau County,28.10%,64.50%,0.0%,0.0%,100.0%,0.0%,0.0%,N/A,89,35,54,53,9,46%,33%,28,43,87,58%,73%,43%,13.85,4.32,1.77,24.79%,24.4%,23.78%,46.6,30,6.9,24.8,95,2358,3.9,3.44,MT-44800,47.9511199,-110.488612
Lonepine,Montana,130,10,None,N/A,$31750,19.57%,57,N/A,N/A,N/A,34,78.29%,N/A,23.15%,N/A,N/A,18.46%,8.93%,51.85%,Sanders County,20.50%,72.00%,0.0%,0.0%,92.31%,3.08%,9.23%,N/A,85,32,53,53,22,54%,38%,31,46,84,54%,73%,34%,16.08,3.94,3.51,37.7%,25.27%,43.44%,56.3,36,5.4,21.1,92,2496,3.2,13.44,MT-44950,47.6945345,-114.640732
Malmstrom AFB,Montana,4191,820,Great Falls,84178,$64079,37.14%,22,N/A,N/A,N/A,16,0.0%,$1195,29.23%,N/A,N/A,8.02%,3.44%,85.29%,Cascade County,35.20%,56.80%,5.87%,8.73%,59.77%,14.94%,3.08%,Mountain Standard Time,87,35,52,56,19,46%,33%,28,43,85,58%,73%,43%,16.11,4.82,2.32,24.36%,23.3%,23.67%,76.8,44,6.9,24.8,87,3204,3.8,5.11,MT-47275,47.5058478,-111.1825129
Malta,Montana,1902,1778,None,N/A,$59449,27.49%,49,N/A,N/A,N/A,53,87.99%,$693,39.39%,N/A,N/A,10.93%,0.0%,58.17%,Phillips County,14.60%,79.40%,0.0%,0.0%,83.44%,2.68%,2.16%,N/A,87,30,57,58,9,52%,35%,28,47,85,67%,82%,51%,13.39,4.87,1.42,23.67%,27.58%,18.11%,44.1,33,N/A,26.1,94,2070,3.7,1.07,MT-47425,48.3554924,-107.8702092
Manhattan,Montana,2149,1235,Bozeman,116725,$69671,32.95%,42,$605000,2079,$291,31,78.13%,$1700,41.87%,375,1072,5.32%,0.0%,74.62%,Gallatin County,45.10%,44.20%,0.0%,0.0%,91.67%,3.91%,1.26%,N/A,86,32,54,50,10,46%,32%,27,42,84,57%,71%,42%,16.27,4.9,1.58,29.34%,29.45%,20.78%,46.8,26,6.9,28.0,93,3879,3.8,1.74,MT-47575,45.8548748,-111.3348435
Marion,Montana,1149,68,Kalispell,103400,$52105,9.29%,48,$503000,1660,$303,17,89.91%,N/A,38.35%,N/A,N/A,12.29%,9.12%,62.71%,Flathead County,28.00%,63.70%,0.44%,0.0%,91.47%,3.66%,2.79%,N/A,84,31,53,48,17,54%,38%,31,46,83,54%,73%,34%,17.18,4.29,3.9,32.19%,18.24%,43.0%,56.3,36,5.4,21.1,90,2976,3.2,16.87,MT-47875,48.0858064,-114.6709737
Martin City,Montana,313,181,Kalispell,103400,N/A,31.95%,70,N/A,N/A,N/A,34,73.71%,N/A,24.92%,N/A,N/A,0.0%,0.0%,42.81%,Flathead County,28.00%,63.70%,0.0%,0.0%,97.76%,0.0%,0.0%,N/A,84,30,54,54,21,54%,38%,31,46,83,54%,73%,34%,35.47,6.15,10.13,37.32%,24.95%,46.44%,56.3,36,5.4,21.1,91,2889,3.2,1.73,MT-48100,48.3935618,-114.0307794
Martinsdale,Montana,34,39,None,N/A,N/A,100.0%,N/A,N/A,N/A,N/A,47,100.0%,N/A,100.0%,N/A,N/A,0.0%,0.0%,82.35%,Meagher County,19.80%,74.60%,0.0%,0.0%,100.0%,0.0%,0.0%,N/A,78,29,49,43,12,46%,32%,27,42,77,57%,71%,42%,27.73,6.9,5.14,32.19%,24.73%,36.0%,59.1,30,6.9,28.0,97,6951,3.7,0.87,MT-48175,46.4547415,-110.3119738
Marysville,Montana,97,194,Helena,82397,$64688,41.57%,61,N/A,N/A,N/A,35,76.06%,N/A,42.39%,N/A,N/A,4.12%,0.0%,58.7%,Lewis and Clark County,41.00%,47.90%,0.0%,0.0%,100.0%,0.0%,0.0%,N/A,82,30,52,46,10,46%,32%,27,42,80,57%,71%,42%,29.07,5.02,8.71,38.08%,23.96%,47.22%,37.6,23,6.9,28.0,93,6420,3.9,0.5,MT-48250,46.7502417,-112.3027327
Maxville,Montana,150,22,None,N/A,$143462,24.29%,22,N/A,N/A,N/A,15,76.3%,N/A,71.57%,N/A,N/A,0.0%,0.0%,59.8%,Granite County,26.60%,67.10%,0.0%,0.0%,100.0%,0.0%,0.0%,N/A,82,34,48,43,14,51%,33%,32,45,80,54%,73%,34%,19.29,3.85,4.44,27.7%,17.91%,33.11%,45.2,39,5.4,23.0,91,5121,3,6.97,MT-48625,46.4759511,-113.2355462
Medicine Lake,Montana,190,475,None,N/A,$41000,21.62%,50,N/A,N/A,N/A,52,66.12%,$492,59.06%,N/A,N/A,12.3%,3.31%,71.6%,Sheridan County,26.00%,67.60%,0.0%,0.0%,83.68%,8.95%,1.05%,N/A,85,23,62,55,2,58%,47%,29,50,86,60%,73%,52%,15.58,7.03,1.06,25.67%,32.53%,21.0%,44.2,33,N/A,27.9,95,1776,3.7,0.4,MT-48775,48.5021997,-104.5016765
Melstone,Montana,75,121,None,N/A,N/A,3.77%,50,N/A,N/A,N/A,54,49.0%,N/A,53.57%,N/A,N/A,8.0%,4.17%,85.71%,Musselshell County,13.60%,80.60%,0.0%,0.0%,66.67%,4.0%,0.0%,N/A,89,36,53,58,15,45%,34%,29,45,87,58%,70%,45%,16.42,4.88,1.59,20.71%,23.19%,16.0%,47.4,35,7.2,26.4,94,2682,3.8,0.62,MT-49000,46.5986956,-107.8682547
Midvale,Montana,357,850,None,N/A,N/A,N/A,N/A,N/A,N/A,N/A,N/A,N/A,N/A,N/A,N/A,N/A,N/A,N/A,N/A,Lincoln County,21.90%,72.10%,N/A,N/A,N/A,N/A,N/A,N/A,87,32,55,54,20,54%,38%,31,46,86,52%,73%,28%,14.92,4.41,3.06,27.75%,22.75%,31.11%,33.4,15,5.4,21.1,93,2316,3,0.42,MT-49400,48.889079,-115.052348
Miles City,Montana,8412,2504,None,N/A,$60732,29.7%,43,N/A,N/A,N/A,64,67.02%,$932,51.43%,262,2907,12.66%,3.23%,66.94%,Custer County,22.70%,70.50%,0.56%,0.5%,88.59%,4.04%,1.91%,N/A,90,32,58,60,10,51%,37%,30,48,89,60%,71%,52%,12.7,4.33,0.62,22.82%,26.92%,14.44%,38.6,18,7.2,27.4,75,2400,3.6,3.36,MT-49525,46.4058195,-105.8384946
Missoula,Montana,75600,2191,Missoula,117379,$65329,51.65%,34,$508000,1530,$332,39,52.48%,$1120,61.96%,411,4086,12.78%,4.71%,72.73%,Missoula County,51.90%,36.60%,1.26%,0.72%,85.17%,5.4%,2.78%,Mountain Standard Time,87,31,56,52,18,51%,33%,32,45,85,54%,73%,34%,15.12,4.19,3.19,34.11%,24.62%,42.11%,45.2,39,5.4,23.0,62,2847,3.1,34.5,MT-50200,46.8750319,-114.0214437
Montana City,Montana,2899,85,Helena,82397,$125223,43.52%,44,$700000,2141,$327,25,95.71%,$1206,26.83%,N/A,N/A,2.94%,1.15%,68.66%,Jefferson County,29.80%,62.20%,0.31%,0.21%,95.65%,1.55%,3.76%,N/A,88,32,56,56,14,46%,32%,27,42,86,57%,71%,42%,11.59,3.75,1.66,24.44%,23.63%,23.67%,37.6,23,6.9,28.0,92,3501,3.6,34.1,MT-51175,46.5257203,-111.9400325
Moore,Montana,204,703,None,N/A,$45972,15.97%,51,N/A,N/A,N/A,48,83.42%,$805,30.06%,N/A,N/A,23.04%,0.0%,50.0%,Fergus County,20.60%,73.10%,0.0%,0.0%,85.78%,1.96%,0.0%,N/A,83,33,50,52,12,46%,33%,28,43,81,58%,73%,43%,21.94,6.27,3.59,31.51%,33.19%,26.67%,59.1,30,6.9,24.8,97,3906,3.7,0.29,MT-51550,46.9749559,-109.695113
Muddy,Montana,641,22,None,N/A,$48409,4.58%,17,N/A,N/A,N/A,37,64.07%,$404,61.41%,N/A,N/A,51.19%,7.25%,58.31%,Big Horn County,49.40%,43.70%,0.0%,0.0%,7.18%,0.0%,0.0%,N/A,89,35,54,53,10,51%,37%,29,46,88,60%,71%,52%,16.62,4.27,2.32,23.45%,19.23%,26.44%,52.7,28,7.2,31.9,89,3138,3.7,28.63,MT-52315,45.5797806,-106.7753496
Musselshell,Montana,34,13,None,N/A,N/A,35.29%,64,N/A,N/A,N/A,45,60.87%,N/A,38.24%,N/A,N/A,35.29%,0.0%,47.06%,Musselshell County,13.60%,80.60%,0.0%,0.0%,100.0%,0.0%,0.0%,N/A,89,36,53,58,15,45%,34%,29,45,87,58%,70%,45%,16.42,4.88,1.59,20.71%,23.19%,16.0%,47.4,35,7.2,26.4,94,2682,3.8,2.55,MT-52600,46.5033002,-108.0962922
Nashua,Montana,309,435,None,N/A,$72500,22.22%,46,N/A,N/A,N/A,59,83.13%,$675,57.54%,N/A,N/A,18.77%,8.55%,46.8%,Valley County,22.80%,69.30%,0.32%,0.0%,78.64%,7.12%,2.27%,N/A,90,30,60,59,10,52%,35%,28,47,89,60%,73%,52%,14.59,5.77,1.34,26.96%,31.87%,25.22%,44.1,33,N/A,26.1,93,1974,3.6,0.71,MT-52900,48.1335506,-106.3571186
Neihart,Montana,33,17,Great Falls,84178,N/A,18.52%,55,N/A,N/A,N/A,54,77.14%,N/A,55.56%,N/A,N/A,36.36%,0.0%,48.15%,Cascade County,35.20%,56.80%,0.0%,0.0%,90.91%,0.0%,0.0%,Mountain Standard Time,82,31,51,47,10,46%,33%,28,43,80,58%,73%,43%,34.91,7.15,8.62,39.4%,27.47%,47.67%,77.4,44,6.9,24.8,95,6777,3.8,1.99,MT-53200,46.9352106,-110.7360547
Niarada,Montana,42,N/A,Kalispell,103400,N/A,50.0%,25,N/A,N/A,N/A,43,50.0%,N/A,100.0%,N/A,N/A,0.0%,20.0%,76.92%,Flathead County,28.00%,63.70%,0.0%,0.0%,47.62%,0.0%,7.14%,N/A,85,32,53,53,22,54%,38%,31,46,84,54%,73%,34%,24.76,4.59,7.27,32.19%,18.24%,43.0%,56.3,36,5.4,21.1,91,5166,3.2,N/A,MT-53725,47.8309261,-114.5577886
North Browning,Montana,2894,1001,None,N/A,$40813,17.08%,27,N/A,N/A,N/A,33,42.92%,$505,69.15%,N/A,N/A,32.72%,15.1%,54.79%,Glacier County,61.50%,31.90%,0.55%,0.79%,1.42%,0.41%,0.0%,N/A,76,29,47,47,11,54%,38%,31,46,75,58%,73%,43%,30.43,6.21,8.17,41.51%,31.1%,49.67%,39.9,24,5.4,21.1,93,4395,3.1,2.89,MT-54510,48.570508,-113.0266176
Noxon,Montana,193,156,None,N/A,$71500,17.79%,48,N/A,N/A,N/A,51,82.72%,N/A,60.59%,N/A,N/A,19.17%,8.55%,68.82%,Sanders County,20.50%,72.00%,0.0%,0.0%,96.37%,0.0%,0.0%,N/A,87,33,54,49,22,54%,38%,31,46,86,52%,73%,28%,38.78,4.61,13.94,45.75%,23.3%,60.22%,74.4,35,5.4,21.1,90,2115,3.2,1.24,MT-54925,47.985046,-115.7708575
Old Agency,Montana,114,200,None,N/A,$33750,6.25%,23,N/A,N/A,N/A,30,63.93%,$275,60.56%,N/A,N/A,59.65%,16.28%,62.32%,Sanders County,20.50%,72.00%,0.0%,0.0%,5.26%,29.82%,0.88%,N/A,88,32,56,49,18,51%,33%,32,45,86,54%,73%,34%,37.04,5.6,11.82,40.14%,21.54%,54.44%,51.8,39,5.4,23.0,92,5625,3.2,0.57,MT-55260,47.3226021,-114.2987623
Olney,Montana,124,93,Kalispell,103400,$19875,24.3%,56,N/A,N/A,N/A,41,73.45%,N/A,74.11%,N/A,N/A,16.94%,0.0%,39.29%,Flathead County,28.00%,63.70%,0.0%,0.0%,90.32%,0.0%,0.0%,N/A,84,31,53,48,17,54%,38%,31,46,83,54%,73%,34%,27.88,4.87,8.71,33.53%,18.46%,45.89%,56.3,36,5.4,21.1,91,4605,3.2,1.33,MT-55450,48.5488297,-114.5720072
Opheim,Montana,109,519,None,N/A,N/A,5.06%,40,N/A,N/A,N/A,76,68.66%,N/A,65.91%,N/A,N/A,6.42%,0.0%,63.41%,Valley County,22.80%,69.30%,0.0%,0.0%,98.17%,0.0%,0.0%,N/A,83,23,60,51,1,52%,35%,28,47,82,60%,73%,52%,14.55,6.45,1.2,19.42%,25.38%,14.56%,44.2,33,N/A,26.1,95,2631,3.6,0.21,MT-55525,48.8570553,-106.4083596
Orchard Homes,Montana,5280,940,Missoula,117379,$68649,45.32%,44,$560000,1783,$314,44,65.93%,$962,42.42%,N/A,N/A,9.74%,4.86%,59.85%,Missoula County,51.90%,36.60%,4.89%,0.0%,88.13%,2.71%,5.45%,Mountain Standard Time,87,31,56,52,18,51%,33%,32,45,85,54%,73%,34%,15.12,4.19,3.19,34.11%,24.62%,42.11%,45.2,39,5.4,23.0,72,2847,3.1,5.62,MT-55675,46.8559104,-114.0778569
Outlook,Montana,47,38,None,N/A,$50313,41.18%,61,N/A,N/A,N/A,35,96.08%,N/A,42.86%,N/A,N/A,21.28%,8.33%,31.58%,Sheridan County,26.00%,67.60%,0.0%,0.0%,97.87%,0.0%,0.0%,N/A,82,21,61,56,3,58%,47%,29,50,82,60%,73%,52%,16.4,7.69,1.44,24.47%,31.87%,17.78%,44.2,33,N/A,27.9,96,2088,3.7,1.25,MT-56050,48.8887845,-104.7849143
Ovando,Montana,47,5,None,N/A,$59167,41.3%,63,N/A,N/A,N/A,18,86.96%,N/A,38.3%,N/A,N/A,0.0%,0.0%,55.32%,Powell County,19.70%,72.60%,0.0%,0.0%,87.23%,0.0%,0.0%,N/A,85,32,53,42,10,51%,33%,32,45,83,54%,73%,34%,25.69,4.62,7.25,31.95%,18.57%,41.67%,143.2,79,5.4,23.0,93,5715,3.7,9.01,MT-56125,47.0207283,-113.1717353
Pablo,Montana,1808,373,None,N/A,$38430,17.88%,31,N/A,N/A,N/A,26,46.19%,$715,67.88%,N/A,N/A,29.44%,6.94%,54.83%,Lake County,36.20%,57.10%,0.0%,0.06%,44.63%,5.7%,1.11%,N/A,85,32,53,53,22,54%,38%,31,46,84,54%,73%,34%,26.41,5.86,6.02,35.81%,20.99%,47.67%,143.2,79,5.4,21.1,91,3120,3.1,4.85,MT-56350,47.603525,-114.1058676
Paradise,Montana,66,264,None,N/A,N/A,0.0%,73,N/A,N/A,N/A,N/A,68.42%,N/A,100.0%,N/A,N/A,0.0%,0.0%,0.0%,Sanders County,20.50%,72.00%,0.0%,0.0%,25.76%,0.0%,0.0%,N/A,86,31,55,45,18,51%,33%,32,45,84,54%,73%,34%,37.04,5.6,11.82,40.14%,21.54%,54.44%,51.8,39,5.4,23.0,91,5625,3.2,0.25,MT-56425,47.3856769,-114.7988737
Park City,Montana,934,595,None,N/A,$73750,11.86%,35,N/A,N/A,N/A,44,75.6%,$1091,41.09%,N/A,N/A,5.35%,2.56%,68.22%,Stillwater County,18.60%,75.10%,0.0%,0.0%,94.97%,0.54%,0.0%,N/A,87,35,52,50,11,45%,34%,29,45,85,58%,70%,45%,15.93,4.35,1.88,23.23%,24.73%,16.78%,54.7,28,7.2,26.4,93,3111,3.7,1.57,MT-56575,45.6309457,-108.9253102
Parker School,Montana,357,48,None,N/A,$43000,10.99%,26,N/A,N/A,N/A,45,97.57%,$359,68.8%,N/A,N/A,31.65%,0.0%,31.2%,Hill County,36.80%,54.00%,0.0%,0.0%,2.52%,0.0%,0.0%,N/A,87,32,55,55,13,49%,33%,28,43,85,67%,82%,51%,27.22,5.92,5.63,29.07%,20.11%,35.0%,44.0,27,N/A,24.8,96,4299,3.8,7.39,MT-56650,48.2468013,-109.7342358
Philipsburg,Montana,1012,1191,None,N/A,$40096,33.0%,50,N/A,N/A,N/A,71,72.28%,$871,53.05%,N/A,N/A,14.45%,13.48%,55.11%,Granite County,26.60%,67.10%,0.0%,0.0%,86.17%,5.34%,0.69%,N/A,82,34,48,43,14,51%,33%,32,45,80,54%,73%,34%,41.12,7.66,11.58,46.49%,29.45%,55.78%,45.2,39,5.4,23.0,91,4818,3,0.85,MT-57175,46.3324293,-113.2960022
Piltzville,Montana,605,807,Missoula,117379,$81000,14.45%,35,N/A,N/A,N/A,82,38.41%,N/A,60.82%,N/A,N/A,13.58%,3.22%,72.71%,Missoula County,51.90%,36.60%,0.0%,0.0%,94.21%,5.79%,0.0%,Mountain Standard Time,87,31,56,52,18,51%,33%,32,45,85,54%,73%,34%,21.29,3.94,5.38,44.0%,21.87%,61.33%,45.2,39,5.4,23.0,83,3042,3.1,0.75,MT-57475,46.8582563,-113.8590863
Pinesdale,Montana,847,652,None,N/A,$70694,11.8%,22,N/A,N/A,N/A,42,80.08%,$1292,56.72%,N/A,N/A,14.44%,1.69%,71.21%,Ravalli County,27.60%,65.70%,0.0%,0.0%,92.21%,5.31%,0.71%,N/A,85,34,51,50,18,51%,33%,32,45,83,54%,73%,34%,15.24,3.31,3.57,29.89%,21.76%,33.78%,45.2,39,5.4,23.0,88,3279,3,1.3,MT-57700,46.3338786,-114.2231669
Pioneer Junction,Montana,734,209,None,N/A,$42250,13.22%,61,N/A,N/A,N/A,43,98.98%,N/A,28.46%,N/A,N/A,1.5%,5.26%,50.97%,Lincoln County,21.90%,72.10%,0.0%,0.0%,99.32%,0.0%,0.68%,N/A,86,34,52,51,22,54%,38%,31,46,85,52%,73%,28%,20.69,4.65,4.98,45.75%,23.3%,60.22%,33.4,15,5.4,21.1,92,1929,3,3.52,MT-57950,48.3157984,-115.518258
Plains,Montana,1077,1737,None,N/A,$24661,19.97%,44,N/A,N/A,N/A,44,52.69%,$782,64.78%,N/A,N/A,19.15%,3.63%,54.47%,Sanders County,20.50%,72.00%,0.0%,1.49%,90.99%,0.19%,2.14%,N/A,88,33,55,54,24,51%,33%,32,45,86,54%,73%,34%,21.76,3.32,6.63,43.18%,24.51%,55.56%,51.8,39,5.4,23.0,91,2175,3.2,0.62,MT-58150,47.4601958,-114.8842018
Plentywood,Montana,1677,1233,None,N/A,$62163,21.27%,50,N/A,N/A,N/A,59,79.26%,$755,50.63%,N/A,N/A,12.5%,4.4%,59.4%,Sheridan County,26.00%,67.60%,0.89%,0.0%,87.66%,3.88%,3.04%,N/A,84,24,60,54,1,58%,47%,29,50,84,60%,73%,52%,15.77,6.91,1.47,24.47%,31.87%,17.78%,44.2,33,N/A,27.9,96,1869,3.7,1.36,MT-58375,48.7760201,-104.5572968
Plevna,Montana,280,475,None,N/A,$73750,50.0%,16,N/A,N/A,N/A,55,73.63%,N/A,53.85%,N/A,N/A,8.93%,0.0%,92.31%,Fallon County,10.40%,86.20%,0.0%,0.0%,93.57%,0.36%,0.0%,N/A,87,31,56,56,7,58%,47%,30,48,88,60%,73%,52%,16.27,5.63,1.47,27.92%,30.11%,26.11%,35.3,30,N/A,27.4,91,2541,3.7,0.59,MT-58450,46.4183415,-104.5185946
Polson,Montana,5334,1175,None,N/A,$51463,28.33%,43,N/A,N/A,N/A,37,55.17%,$921,55.36%,512,3881,19.96%,6.88%,56.2%,Lake County,36.20%,57.10%,0.37%,0.45%,59.56%,7.35%,2.74%,N/A,85,32,53,53,22,54%,38%,31,46,84,54%,73%,34%,16.08,3.94,3.51,37.7%,25.27%,43.44%,143.2,79,5.4,21.1,89,2496,3.1,4.54,MT-58750,47.6886189,-114.1410724
Ponderosa Pines,Montana,969,24,Bozeman,116725,$86102,25.55%,43,N/A,N/A,N/A,13,96.43%,N/A,36.74%,N/A,N/A,11.25%,0.0%,74.86%,Gallatin County,45.10%,44.20%,0.0%,0.0%,95.56%,0.0%,0.0%,N/A,86,32,54,54,15,46%,32%,27,42,84,57%,71%,42%,16.21,5.18,1.74,29.34%,29.45%,20.78%,37.6,23,6.9,28.0,94,3690,3.8,39.65,MT-58840,46.0373811,-111.34997
Pony,Montana,101,75,None,N/A,$46538,45.45%,66,N/A,N/A,N/A,58,68.84%,N/A,52.53%,N/A,N/A,5.94%,0.0%,46.46%,Madison County,24.90%,69.50%,0.0%,0.0%,86.14%,6.93%,1.98%,N/A,86,38,48,57,23,46%,32%,27,42,84,57%,71%,42%,39.44,6.99,8.51,40.63%,27.69%,46.11%,46.8,26,6.9,28.0,97,7590,3.6,1.34,MT-58900,45.662844,-111.8825786
Poplar,Montana,655,2339,None,N/A,$45104,13.79%,29,N/A,N/A,N/A,66,73.74%,$680,73.05%,N/A,N/A,33.28%,7.54%,40.04%,Roosevelt County,42.70%,49.20%,0.0%,0.0%,16.49%,2.9%,0.46%,N/A,85,24,61,54,1,52%,35%,28,47,83,60%,73%,52%,14.34,6.47,1.1,25.67%,32.53%,21.0%,44.2,33,N/A,26.1,95,1908,3.7,0.28,MT-58975,48.1104823,-105.1968873
Power,Montana,194,129,None,N/A,$73929,16.41%,41,N/A,N/A,N/A,47,67.32%,N/A,42.25%,N/A,N/A,17.01%,0.0%,61.97%,Teton County,25.30%,68.10%,0.0%,0.0%,86.6%,0.0%,0.0%,N/A,81,34,47,54,15,46%,33%,28,43,80,58%,73%,43%,13.84,4.73,1.37,16.66%,19.12%,13.89%,76.8,44,6.9,24.8,95,3234,3.9,1.5,MT-59500,47.7204503,-111.694337
Pray,Montana,1018,36,None,N/A,$102143,32.33%,59,N/A,N/A,N/A,22,72.04%,N/A,18.8%,N/A,N/A,5.21%,4.76%,43.15%,Park County,38.40%,53.20%,0.69%,0.0%,85.56%,1.28%,7.56%,N/A,84,33,51,53,19,46%,32%,27,42,82,57%,71%,42%,15.75,4.85,1.94,26.71%,31.32%,23.44%,116.8,37,6.9,28.0,97,4611,3.6,28.63,MT-59725,45.4150696,-110.6532827
Pryor,Montana,639,16,None,N/A,$50547,5.53%,31,N/A,N/A,N/A,36,67.36%,$830,54.39%,N/A,N/A,34.56%,23.17%,54.91%,Big Horn County,49.40%,43.70%,0.0%,0.0%,11.58%,2.19%,0.47%,N/A,89,35,54,53,14,45%,34%,29,45,87,58%,70%,45%,15.86,3.7,2.04,27.56%,29.67%,22.67%,50.4,30,7.2,26.4,95,3711,3.7,39.8,MT-59950,45.4125186,-108.5291337
Rader Creek,Montana,373,18,Helena,82397,$83171,32.51%,56,N/A,N/A,N/A,17,81.69%,N/A,21.49%,N/A,N/A,5.36%,16.9%,39.12%,Jefferson County,29.80%,62.20%,0.0%,0.0%,87.94%,9.12%,12.6%,N/A,83,30,53,47,7,46%,32%,27,42,81,57%,71%,42%,24.25,6.67,3.71,31.45%,25.49%,29.56%,46.8,26,6.9,28.0,96,6567,3.6,20.25,MT-60450,45.8455505,-112.3160373
Radersburg,Montana,55,220,None,N/A,N/A,0.0%,29,N/A,N/A,N/A,19,100.0%,N/A,65.45%,N/A,N/A,65.45%,0.0%,65.45%,Broadwater County,18.30%,74.90%,0.0%,0.0%,34.55%,0.0%,0.0%,N/A,85,33,52,52,14,46%,32%,27,42,83,57%,71%,42%,12.94,5.17,1.18,33.81%,30.11%,31.33%,37.6,23,6.9,28.0,95,3624,3.6,0.25,MT-60475,46.1963661,-111.6313548
Ravalli,Montana,174,66,None,N/A,$76582,20.11%,38,N/A,N/A,N/A,46,96.36%,N/A,79.89%,N/A,N/A,5.75%,7.35%,78.16%,Lake County,36.20%,57.10%,0.0%,0.0%,87.93%,0.0%,0.0%,N/A,80,29,51,51,16,51%,33%,32,45,79,54%,73%,34%,37.04,5.6,11.82,40.14%,21.54%,54.44%,143.2,79,5.4,23.0,92,5625,3.1,2.63,MT-61075,47.2798079,-114.1658121
Red Lodge,Montana,2399,885,Billings,182997,$43857,44.69%,58,N/A,N/A,N/A,50,61.07%,$805,55.31%,215,993,7.05%,4.05%,62.79%,Carbon County,30.50%,62.60%,2.04%,1.5%,90.58%,3.21%,4.04%,Mountain Standard Time,82,34,48,51,14,45%,34%,29,45,81,58%,70%,45%,23.23,4.68,3.58,28.08%,25.38%,24.22%,25.3,16,7.2,26.4,95,5163,3.9,2.71,MT-61525,45.1933392,-109.2501437
Reed Point,Montana,113,202,None,N/A,$79375,18.28%,60,N/A,N/A,N/A,82,90.28%,N/A,33.67%,N/A,N/A,11.61%,0.0%,53.68%,Stillwater County,18.60%,75.10%,0.0%,0.0%,91.15%,2.65%,0.0%,N/A,86,36,50,51,10,45%,34%,29,45,84,58%,70%,45%,15.83,4.0,1.98,25.51%,29.67%,20.33%,59.4,30,6.9,26.4,93,3294,3.7,0.56,MT-61900,45.7070844,-109.5472809
Reserve,Montana,23,17,None,N/A,$51250,27.78%,64,N/A,N/A,N/A,65,80.56%,N/A,55.56%,N/A,N/A,43.48%,0.0%,22.22%,Sheridan County,26.00%,67.60%,0.0%,0.0%,95.65%,0.0%,0.0%,N/A,85,23,62,55,2,58%,47%,29,50,86,60%,73%,52%,15.58,7.03,1.06,24.47%,31.87%,17.78%,44.2,33,N/A,27.9,95,1776,3.7,1.35,MT-62125,48.6023665,-104.467607
Rexford,Montana,131,1456,None,N/A,$48875,2.65%,54,N/A,N/A,N/A,43,100.0%,N/A,44.25%,N/A,N/A,12.21%,40.0%,39.82%,Lincoln County,21.90%,72.10%,0.0%,0.0%,87.79%,12.21%,0.0%,N/A,87,32,55,54,20,54%,38%,31,46,86,52%,73%,28%,14.92,4.41,3.06,27.75%,22.75%,31.11%,33.4,15,5.4,21.1,93,2316,3,0.09,MT-62200,48.8997922,-115.1714313
Richey,Montana,215,827,None,N/A,$66250,16.43%,46,N/A,N/A,N/A,70,81.44%,$455,45.99%,N/A,N/A,7.91%,8.2%,68.16%,Dawson County,17.80%,75.30%,1.4%,0.0%,94.42%,1.86%,3.26%,N/A,86,27,59,57,6,58%,47%,29,50,87,60%,73%,52%,16.08,6.36,1.37,14.99%,19.56%,9.56%,63.7,43,N/A,27.9,95,2166,3.5,0.26,MT-62275,47.6439033,-105.0695981
Riverbend,Montana,505,128,None,N/A,$62250,14.79%,40,N/A,N/A,N/A,39,51.51%,$1042,48.8%,N/A,N/A,11.66%,0.0%,51.47%,Mineral County,25.80%,66.10%,0.0%,0.0%,84.36%,15.05%,3.56%,N/A,88,32,56,49,18,51%,33%,32,45,86,54%,73%,34%,63.42,5.73,25.49,46.05%,23.96%,60.11%,51.8,39,5.4,23.0,89,5532,3.2,3.94,MT-63042,47.1471873,-114.8319108
Roberts,Montana,299,75,Billings,182997,$92589,17.0%,30,N/A,N/A,N/A,47,57.38%,$1182,52.17%,N/A,N/A,16.05%,18.18%,69.57%,Carbon County,30.50%,62.60%,0.0%,0.0%,93.98%,0.0%,0.0%,Mountain Standard Time,82,34,48,51,14,45%,34%,29,45,81,58%,70%,45%,14.68,3.71,1.28,18.6%,20.88%,13.56%,54.7,28,7.2,26.4,97,4251,3.9,3.98,MT-63400,45.343614,-109.1817505
Rocky Boy West,Montana,905,166,None,N/A,N/A,2.39%,31,N/A,N/A,N/A,36,22.13%,$324,79.97%,N/A,N/A,37.9%,8.8%,40.0%,Chouteau County,28.10%,64.50%,0.33%,0.0%,2.65%,0.22%,0.0%,N/A,87,32,55,55,13,49%,33%,28,43,85,67%,82%,51%,14.8,5.03,1.55,23.64%,26.04%,20.22%,44.0,27,N/A,24.8,96,2532,3.9,5.45,MT-63928,48.2971534,-109.9918391
Rocky Boy's Agency,Montana,124,14,None,N/A,$59175,32.35%,54,N/A,N/A,N/A,50,43.63%,N/A,73.39%,N/A,N/A,6.45%,0.0%,60.55%,Hill County,36.80%,54.00%,0.0%,0.0%,9.68%,0.0%,0.0%,N/A,87,32,55,55,13,49%,33%,28,43,85,67%,82%,51%,27.22,5.92,5.63,29.07%,20.11%,35.0%,44.0,27,N/A,24.8,96,4299,3.8,8.58,MT-63900,48.2589974,-109.764736
Rocky Point,Montana,127,208,None,N/A,N/A,51.18%,70,N/A,N/A,N/A,41,100.0%,N/A,0.0%,N/A,N/A,0.0%,0.0%,18.11%,Lake County,36.20%,57.10%,0.0%,0.0%,86.61%,0.0%,40.16%,N/A,85,32,53,53,22,54%,38%,31,46,84,54%,73%,34%,16.08,3.94,3.51,37.7%,25.27%,43.44%,143.2,79,5.4,21.1,88,2496,3.1,0.61,MT-63940,47.7323268,-114.1854755
Rollins,Montana,110,38,None,N/A,$180197,57.28%,62,N/A,N/A,N/A,36,87.3%,N/A,35.45%,N/A,N/A,11.82%,5.33%,68.18%,Lake County,36.20%,57.10%,2.73%,0.0%,91.82%,0.0%,2.73%,N/A,82,35,47,56,26,54%,38%,31,46,81,54%,73%,34%,22.42,5.57,5.07,32.19%,18.24%,43.0%,56.3,36,5.4,21.1,89,2724,3.1,2.87,MT-64075,47.9105288,-114.1948678
Ronan,Montana,1962,1635,None,N/A,$41429,15.0%,35,N/A,N/A,N/A,46,51.87%,$798,64.23%,899,2366,24.11%,9.02%,53.91%,Lake County,36.20%,57.10%,2.55%,0.0%,46.33%,4.69%,1.89%,N/A,85,32,53,53,22,51%,33%,32,45,83,54%,73%,34%,26.41,5.86,6.02,35.81%,20.99%,47.67%,143.2,79,5.4,23.0,92,3120,3.1,1.2,MT-64150,47.5286943,-114.1005355
Roscoe,Montana,24,104,Billings,182997,N/A,0.0%,58,N/A,N/A,N/A,N/A,100.0%,N/A,29.17%,N/A,N/A,0.0%,0.0%,70.83%,Carbon County,30.50%,62.60%,0.0%,0.0%,100.0%,0.0%,0.0%,Mountain Standard Time,76,32,44,51,16,45%,34%,29,45,75,58%,70%,45%,18.25,4.34,2.58,18.08%,21.87%,14.56%,76.8,20,7.2,26.4,97,4116,3.9,0.23,MT-64300,45.3518131,-109.4933464
Rosebud,Montana,53,70,None,N/A,$43899,3.77%,64,N/A,N/A,N/A,46,100.0%,N/A,88.68%,N/A,N/A,0.0%,0.0%,16.98%,Rosebud County,28.60%,65.20%,0.0%,0.0%,100.0%,0.0%,0.0%,N/A,89,34,55,59,12,51%,37%,30,48,88,60%,71%,52%,16.56,4.63,1.96,23.92%,25.6%,21.0%,38.6,18,7.2,27.4,90,2301,3.7,0.76,MT-64375,46.2711658,-106.4468782
Roundup,Montana,1964,1522,None,N/A,$57632,13.41%,45,N/A,N/A,N/A,69,62.49%,$886,59.19%,N/A,N/A,14.49%,5.3%,60.5%,Musselshell County,13.60%,80.60%,0.0%,0.0%,87.98%,6.26%,2.8%,N/A,91,36,55,54,14,45%,34%,29,45,89,58%,70%,45%,15.92,5.54,1.38,21.81%,24.73%,16.11%,45.4,22,7.2,26.4,92,2925,3.8,1.29,MT-64525,46.4484563,-108.5401487
Roy,Montana,133,39,None,N/A,$50000,13.54%,48,N/A,N/A,N/A,47,42.5%,$871,61.74%,N/A,N/A,27.48%,1.37%,64.04%,Fergus County,20.60%,73.10%,0.0%,4.51%,75.94%,3.01%,4.51%,N/A,87,32,55,56,10,49%,33%,29,45,85,67%,82%,51%,15.89,5.23,1.59,21.26%,24.73%,15.67%,59.1,30,N/A,26.4,97,2661,3.7,3.4,MT-64675,47.3342983,-108.9599947
Rudyard,Montana,363,395,None,N/A,$86250,35.65%,31,N/A,N/A,N/A,64,39.29%,$625,52.42%,N/A,N/A,3.06%,0.0%,73.79%,Hill County,36.80%,54.00%,0.0%,0.0%,98.62%,0.0%,0.0%,N/A,85,30,55,53,8,49%,33%,28,43,83,67%,82%,51%,12.97,4.71,1.54,17.97%,22.2%,14.0%,44.0,27,N/A,24.8,96,3039,3.8,0.92,MT-64900,48.5598724,-110.5500607
Ryegate,Montana,259,345,Billings,182997,$48750,8.55%,63,N/A,N/A,N/A,77,77.39%,$820,55.93%,N/A,N/A,25.1%,0.0%,43.22%,Golden Valley County,15.00%,77.00%,0.0%,0.0%,90.73%,3.09%,1.16%,Mountain Standard Time,88,37,51,53,14,45%,34%,29,45,86,58%,70%,45%,17.36,5.72,1.82,23.7%,26.37%,20.33%,59.1,30,6.9,26.4,96,3339,3.8,0.75,MT-64975,46.298439,-109.2537471
Saco,Montana,154,513,None,N/A,$51250,19.27%,48,N/A,N/A,N/A,82,73.48%,$900,59.56%,N/A,N/A,33.12%,1.1%,67.91%,Phillips County,14.60%,79.40%,0.0%,0.0%,98.7%,1.3%,0.0%,N/A,84,27,57,55,5,52%,35%,28,47,82,67%,82%,51%,14.52,6.09,1.15,17.48%,22.86%,13.11%,44.2,33,N/A,26.1,94,1998,3.7,0.3,MT-65050,48.4570704,-107.3413346
Saddle Butte,Montana,139,55,None,N/A,$69688,3.33%,35,N/A,N/A,N/A,32,80.2%,N/A,35.24%,N/A,N/A,0.0%,20.0%,71.43%,Hill County,36.80%,54.00%,0.0%,0.0%,100.0%,0.0%,0.0%,N/A,87,30,57,54,10,49%,33%,28,43,85,67%,82%,51%,12.25,4.09,1.58,25.84%,26.15%,25.44%,44.0,27,N/A,24.8,94,2364,3.8,2.51,MT-65065,48.5234471,-109.6448809
Sand Coulee,Montana,146,54,Great Falls,84178,N/A,29.75%,46,$448000,4619,$97,45,81.59%,N/A,32.14%,N/A,N/A,3.42%,0.0%,48.84%,Cascade County,35.20%,56.80%,1.37%,0.0%,87.67%,10.96%,5.48%,Mountain Standard Time,87,35,52,56,19,46%,33%,28,43,85,58%,73%,43%,16.11,4.82,2.32,24.36%,23.3%,23.67%,77.4,44,6.9,24.8,95,3204,3.8,2.69,MT-65950,47.4024097,-111.1726147
Sangrey,Montana,400,63,None,N/A,$40357,14.72%,21,N/A,N/A,N/A,40,34.45%,$543,58.52%,N/A,N/A,24.75%,11.45%,48.52%,Hill County,36.80%,54.00%,0.0%,0.0%,0.0%,20.25%,0.0%,N/A,86,30,56,55,10,49%,33%,28,43,84,67%,82%,51%,27.22,5.92,5.63,29.07%,20.11%,35.0%,44.0,27,N/A,24.8,96,4299,3.8,6.31,MT-66212,48.284465,-109.820587
Santa Rita,Montana,33,10,None,N/A,N/A,0.0%,43,N/A,N/A,N/A,N/A,76.77%,N/A,0.0%,N/A,N/A,0.0%,0.0%,100.0%,Glacier County,61.50%,31.90%,0.0%,0.0%,45.45%,21.21%,0.0%,N/A,82,31,51,50,12,46%,33%,28,43,80,58%,73%,43%,15.85,4.69,2.16,20.0%,22.97%,15.33%,39.9,24,5.4,24.8,95,3429,3.1,3.46,MT-66250,48.698468,-112.3187671
Savage,Montana,244,339,None,N/A,$87083,21.91%,41,N/A,N/A,N/A,59,58.55%,$667,49.32%,N/A,N/A,9.84%,6.0%,71.43%,Richland County,13.80%,80.20%,0.82%,0.0%,97.95%,1.23%,3.28%,N/A,89,31,58,58,9,58%,47%,29,50,91,60%,73%,52%,15.37,5.85,1.17,18.19%,23.74%,12.44%,63.7,43,N/A,27.9,92,1809,3.7,0.72,MT-66550,47.4536468,-104.3413497
Scobey,Montana,824,1114,None,N/A,$49797,24.35%,53,N/A,N/A,N/A,68,76.17%,$585,55.51%,N/A,N/A,4.25%,2.0%,62.41%,Daniels County,17.50%,75.90%,0.49%,0.0%,90.9%,0.0%,1.21%,N/A,85,24,61,52,1,52%,35%,28,47,83,60%,73%,52%,14.32,6.25,0.94,23.34%,28.9%,18.56%,44.2,33,N/A,26.1,97,2187,3.8,0.74,MT-66925,48.7903893,-105.4206267
Sedan,Montana,124,2,Bozeman,116725,$105714,45.13%,56,N/A,N/A,N/A,37,60.71%,$1042,7.96%,N/A,N/A,0.0%,0.0%,71.68%,Gallatin County,45.10%,44.20%,0.0%,0.0%,100.0%,0.0%,0.0%,N/A,85,31,54,49,12,46%,32%,27,42,83,57%,71%,42%,49.15,8.39,12.83,41.53%,26.15%,51.22%,116.8,37,6.9,28.0,95,6693,3.8,60.99,MT-67075,45.9652876,-110.8887386
Seeley Lake,Montana,1335,109,Missoula,117379,$46031,19.63%,63,$859000,2962,$290,28,94.91%,$1028,53.25%,N/A,N/A,6.52%,0.0%,38.19%,Missoula County,51.90%,36.60%,2.77%,0.0%,91.24%,0.0%,6.14%,Mountain Standard Time,85,31,54,44,13,51%,33%,32,45,83,54%,73%,34%,22.68,4.21,7.56,47.64%,22.09%,67.56%,143.2,79,5.4,23.0,89,3720,3.1,12.26,MT-67150,47.1624212,-113.454746
Shawmut,Montana,37,17,None,N/A,$50682,57.89%,45,N/A,N/A,N/A,82,57.45%,N/A,81.48%,N/A,N/A,8.11%,0.0%,70.37%,Wheatland County,18.90%,74.20%,0.0%,0.0%,100.0%,0.0%,0.0%,N/A,88,37,51,53,14,45%,34%,29,45,86,58%,70%,45%,17.36,5.72,1.82,23.7%,26.37%,20.33%,59.1,30,6.9,26.4,98,3339,3.7,2.15,MT-67225,46.3446628,-109.512154
Shelby,Montana,3129,541,None,N/A,$53357,19.44%,42,N/A,N/A,N/A,54,60.44%,$769,53.71%,N/A,N/A,11.33%,2.19%,48.76%,Toole County,19.70%,73.50%,1.15%,2.97%,79.19%,5.08%,3.77%,N/A,83,32,51,51,9,46%,33%,28,43,81,58%,73%,43%,12.83,4.41,1.56,22.99%,26.04%,20.33%,39.9,24,5.4,24.8,91,3042,3.8,5.78,MT-67450,48.5030692,-111.8613803
Shepherd,Montana,613,276,Billings,182997,N/A,26.18%,47,$1000000,2755,$363,32,85.38%,N/A,33.63%,N/A,N/A,9.3%,3.35%,78.68%,Yellowstone County,31.50%,58.10%,0.0%,0.0%,100.0%,0.0%,0.0%,Mountain Standard Time,89,36,53,55,13,45%,34%,29,45,87,58%,70%,45%,14.82,4.24,1.63,24.14%,25.71%,19.33%,40.3,25,7.2,26.4,88,2775,3.8,2.22,MT-67525,45.9468051,-108.3463477
Sheridan,Montana,788,780,None,N/A,$83264,28.27%,55,N/A,N/A,N/A,45,86.89%,N/A,49.1%,N/A,N/A,5.68%,2.0%,55.94%,Madison County,24.90%,69.50%,0.0%,0.0%,89.97%,6.22%,3.81%,N/A,81,32,49,51,13,46%,32%,27,42,80,57%,71%,42%,14.41,4.91,1.75,19.01%,23.85%,12.11%,46.8,26,6.9,28.0,98,4938,3.6,1.01,MT-67600,45.4588328,-112.1946403
Sidney,Montana,6235,1895,None,N/A,$62992,18.85%,39,N/A,N/A,N/A,40,68.01%,$890,53.23%,470,1191,8.63%,4.15%,72.32%,Richland County,13.80%,80.20%,0.18%,0.0%,83.58%,6.9%,2.9%,N/A,88,29,59,58,9,58%,47%,29,50,90,60%,73%,52%,16.55,6.65,1.52,18.19%,23.74%,12.44%,63.7,43,N/A,27.9,88,1767,3.7,3.29,MT-67900,47.7151888,-104.1680378
Silesia,Montana,10,5,Billings,182997,N/A,20.0%,66,N/A,N/A,N/A,N/A,100.0%,N/A,50.0%,N/A,N/A,0.0%,0.0%,50.0%,Carbon County,30.50%,62.60%,0.0%,0.0%,100.0%,0.0%,0.0%,Mountain Standard Time,87,35,52,50,11,45%,34%,29,45,85,58%,70%,45%,15.93,4.35,1.88,23.23%,24.73%,16.78%,54.7,28,7.2,26.4,93,3111,3.9,1.87,MT-68050,45.5559615,-108.8367996
Silver Gate,Montana,94,22,None,N/A,$250001,15.56%,58,N/A,N/A,N/A,44,100.0%,N/A,16.67%,N/A,N/A,0.0%,0.0%,46.67%,Park County,38.40%,53.20%,0.0%,0.0%,98.94%,1.06%,0.0%,N/A,75,24,51,40,1,45%,34%,29,45,74,58%,70%,45%,25.92,5.64,6.69,36.25%,30.11%,42.33%,221.5,60,6.9,26.4,96,6855,3.6,4.36,MT-68425,45.0197855,-109.9829403
Simms,Montana,326,43,Great Falls,84178,$95938,28.02%,39,$315000,1507,$209,76,73.37%,N/A,27.54%,N/A,N/A,0.0%,6.02%,64.25%,Cascade County,35.20%,56.80%,0.0%,0.0%,98.77%,0.0%,0.0%,Mountain Standard Time,81,34,47,54,15,46%,33%,28,43,80,58%,73%,43%,12.46,4.28,1.31,16.66%,19.12%,13.89%,55.9,32,6.9,24.8,92,3642,3.8,7.61,MT-68575,47.4930817,-111.9474363
Somers,Montana,1181,400,Kalispell,103400,$56501,29.45%,64,$1495000,2020,$740,40,53.67%,$1129,29.86%,N/A,N/A,4.86%,3.39%,40.0%,Flathead County,28.00%,63.70%,0.0%,0.0%,98.14%,0.0%,0.0%,N/A,82,32,50,51,19,54%,38%,31,46,81,54%,73%,34%,18.82,5.29,4.44,35.56%,27.36%,41.67%,56.3,36,5.4,21.1,89,2685,3.2,2.95,MT-69475,48.0824674,-114.2343731
South Browning,Montana,1852,791,None,N/A,N/A,7.14%,28,N/A,N/A,N/A,45,19.12%,$438,74.27%,N/A,N/A,51.46%,17.64%,54.5%,Glacier County,61.50%,31.90%,0.0%,0.0%,0.76%,3.62%,0.0%,N/A,76,29,47,47,11,54%,38%,31,46,75,58%,73%,43%,30.43,6.21,8.17,42.99%,21.65%,59.89%,39.9,24,5.4,21.1,93,4395,3.1,2.34,MT-69680,48.5458637,-113.0127055
South Glastonbury,Montana,263,15,None,N/A,$58750,36.19%,60,N/A,N/A,N/A,29,92.61%,N/A,35.41%,N/A,N/A,7.6%,0.0%,43.97%,Park County,38.40%,53.20%,0.0%,0.0%,100.0%,0.0%,7.22%,N/A,84,33,51,53,19,46%,32%,27,42,82,57%,71%,42%,47.83,8.71,11.43,47.23%,34.51%,54.67%,92.4,66,6.9,28.0,97,7407,3.6,17.49,MT-69713,45.32584,-110.808081
South Hills,Montana,634,108,Helena,82397,$160417,56.15%,48,N/A,N/A,N/A,20,98.12%,N/A,21.29%,N/A,N/A,0.79%,0.0%,59.18%,Jefferson County,29.80%,62.20%,0.0%,0.0%,92.74%,2.05%,0.47%,N/A,88,32,56,56,14,46%,32%,27,42,86,57%,71%,42%,11.59,3.75,1.66,24.44%,23.63%,23.67%,37.6,23,6.9,28.0,91,3501,3.6,5.87,MT-69725,46.5564075,-111.9975418
Spokane Creek,Montana,783,45,None,N/A,$137552,70.35%,41,N/A,N/A,N/A,16,67.81%,N/A,39.33%,N/A,N/A,0.0%,0.0%,82.6%,Broadwater County,18.30%,74.90%,0.0%,0.0%,97.83%,0.0%,0.0%,N/A,88,32,56,56,14,46%,32%,27,42,86,57%,71%,42%,11.59,3.75,1.66,24.44%,23.63%,23.67%,37.6,23,6.9,28.0,95,3501,3.6,17.29,MT-69900,46.5343102,-111.7391343
Springdale,Montana,20,154,None,N/A,N/A,0.0%,41,N/A,N/A,N/A,N/A,84.62%,N/A,50.0%,N/A,N/A,0.0%,0.0%,55.0%,Park County,38.40%,53.20%,0.0%,0.0%,100.0%,0.0%,0.0%,N/A,88,36,52,51,18,45%,34%,29,45,86,58%,70%,45%,15.91,3.86,2.13,25.97%,26.48%,19.67%,116.8,37,6.9,26.4,97,3873,3.6,0.13,MT-70150,45.7381149,-110.223542
Springhill,Montana,118,42,Bozeman,116725,$76304,72.07%,69,N/A,N/A,N/A,44,74.24%,N/A,65.77%,N/A,N/A,8.47%,0.0%,46.85%,Gallatin County,45.10%,44.20%,0.0%,0.0%,100.0%,0.0%,0.0%,N/A,87,31,56,50,9,46%,32%,27,42,85,57%,71%,42%,49.15,8.39,12.83,41.53%,26.15%,51.22%,46.8,26,6.9,28.0,95,6693,3.8,2.78,MT-70375,45.8787086,-111.0773511
St. Ignatius,Montana,1053,1987,None,N/A,$50781,21.68%,29,N/A,N/A,N/A,57,68.8%,$792,59.36%,N/A,N/A,16.28%,8.24%,52.91%,Lake County,36.20%,57.10%,0.0%,0.0%,53.94%,3.04%,1.04%,N/A,80,29,51,51,16,51%,33%,32,45,79,54%,73%,34%,37.04,5.6,11.82,40.14%,21.54%,54.44%,143.2,79,5.4,23.0,92,5625,3.1,0.53,MT-65275,47.3186878,-114.0955784
St. Marie,Montana,319,14,None,N/A,$38125,21.83%,39,N/A,N/A,N/A,57,79.08%,N/A,83.82%,N/A,N/A,27.9%,17.44%,27.83%,Valley County,22.80%,69.30%,0.0%,0.0%,55.8%,0.0%,0.0%,N/A,86,25,61,58,6,52%,35%,28,47,84,60%,73%,52%,13.4,5.76,0.88,26.71%,30.99%,25.33%,44.2,33,N/A,26.1,93,2520,3.6,22.9,MT-65400,48.4052914,-106.498559
St. Pierre,Montana,467,58,None,N/A,$34141,13.11%,20,N/A,N/A,N/A,39,56.58%,$388,82.79%,N/A,N/A,38.76%,29.32%,48.54%,Hill County,36.80%,54.00%,0.0%,0.0%,0.0%,0.86%,0.0%,N/A,87,32,55,55,13,49%,33%,28,43,85,67%,82%,51%,27.22,5.92,5.63,29.07%,20.11%,35.0%,44.0,27,N/A,24.8,96,4299,3.8,8.08,MT-65537,48.236038,-109.820185
St. Regis,Montana,344,400,None,N/A,$50833,33.16%,30,N/A,N/A,N/A,49,57.36%,$908,48.52%,N/A,N/A,34.3%,0.0%,43.81%,Mineral County,25.80%,66.10%,0.0%,0.58%,92.73%,4.65%,0.0%,N/A,86,31,55,45,18,51%,33%,32,45,84,54%,73%,34%,38.08,4.45,14.25,46.05%,23.96%,60.11%,51.8,39,5.4,23.0,89,2889,3.2,0.86,MT-65575,47.3015736,-115.101472
St. Xavier,Montana,77,14,None,N/A,N/A,37.25%,41,N/A,N/A,N/A,30,62.5%,N/A,27.45%,N/A,N/A,11.69%,15.63%,62.75%,Big Horn County,49.40%,43.70%,0.0%,0.0%,42.86%,0.0%,0.0%,N/A,90,38,52,60,19,45%,34%,29,45,88,58%,70%,45%,18.21,4.07,2.63,23.45%,19.23%,26.44%,52.7,28,7.2,26.4,95,3021,3.7,5.6,MT-65650,45.4569586,-107.7250211
Stanford,Montana,266,619,None,N/A,$52045,18.91%,62,N/A,N/A,N/A,66,80.38%,$425,59.77%,N/A,N/A,19.92%,0.0%,50.0%,Judith Basin County,19.50%,72.20%,0.0%,0.0%,96.99%,2.26%,2.26%,N/A,82,35,47,53,14,46%,33%,28,43,80,58%,73%,43%,19.84,6.39,2.09,32.99%,33.74%,31.22%,46.6,30,6.9,24.8,98,4443,3.9,0.43,MT-70675,47.1520781,-110.2190163
Starr School,Montana,227,54,None,N/A,N/A,19.67%,28,N/A,N/A,N/A,38,88.61%,N/A,64.34%,N/A,N/A,46.73%,0.0%,48.25%,Glacier County,61.50%,31.90%,0.0%,0.0%,0.0%,0.0%,0.0%,N/A,76,29,47,47,11,54%,38%,31,46,75,58%,73%,43%,30.43,6.21,8.17,41.51%,31.1%,49.67%,56.3,36,5.4,21.1,97,4395,3.1,4.23,MT-70825,48.5976286,-113.1432928
