City,State,Population,People per sq mi,Metro Name,Metro population,Median household income,% with at least Bachelor's degree,Median age,Median home price,Median home sqft,Median home cost per sqft,Median home age,Homeownership Rate,Avg Apartment Monthly Rent,Single Population,Num Violent Crimes Per 100k residents,Num Property Crimes Per 100k residents,Poverty Rate,Unemployment rate,Labor Force Participation rate,County,% Democrat,% Republican,% Asian,% Black,% Non-Hispanic White,% Hispanic,Foreign Born %,Timezone,Hottest month's avg high (F),Coldest month's avg high (F),Hottest high minus coldest high,Annual rainfall (in),Annual days of precipitation,Annual snowfall (in),Average yearly windspeed (mph),Air quality Index,Elevation (ft),UV Index,Land Area (sq mi),Fips Code,Latitude,Longitude,Annual Sunshine - Percentage of Possible,Summer Sunshine - Percentage of Possible,Winter Sunshine - Percentage of Possible,Annual Relative Humidity (afternoon),Summer Relative Humidity (afternoon),Number of days with thunder per year,Annual dew point (F),Average summer dew point (F),Hottest month's avg low (F),Coldest month's avg low (F),Summer rainfall (in),Winter rainfall (in),Percent of days that include precipitation,Percent of Summer days that include precipitation,Percent of Winter days that include precipitation
Aberdeen,North Carolina,7862,775,Pinehurst-Southern Pines,103352,$58770,36.04%,37,$380000,2360,$161,24,76.66%,$805,42.72%,519,3813,6.97%,4.12%,64.34%,Moore County,33.50%,62.60%,0.01%,13.89%,78.86%,4.3%,2.12%,N/A,N/A,N/A,N/A,N/A,110,N/A,6.5,62,N/A,4.9,10.15,NC-00160,35.1350178,-79.4325282,59%,61%,55%,53%,56%,42.5,47,66,N/A,N/A,N/A,N/A,31.26%,35.49%,32.67%
Advance,North Carolina,1135,159,Winston-Salem,679731,$90461,26.91%,40,$431000,2520,$171,29,93.83%,N/A,27.43%,N/A,N/A,14.8%,0.0%,58.66%,Davie County,24.20%,71.70%,0.0%,2.64%,97.36%,0.0%,0.0%,Eastern Standard Time,N/A,N/A,N/A,N/A,108,N/A,6.4,63,970,4.4,7.16,NC-00440,35.946812,-80.4044394,64%,68%,58%,52%,55%,41.5,46,65,N/A,N/A,N/A,N/A,33.37%,36.37%,34.67%
Ahoskie,North Carolina,4819,1095,None,N/A,$35972,17.42%,41,N/A,N/A,N/A,52,46.54%,$752,63.1%,1173,5301,23.65%,13.06%,54.02%,Hertford County,67.80%,30.40%,2.99%,64.1%,24.15%,3.42%,4.23%,N/A,N/A,N/A,N/A,N/A,105,N/A,7.7,72,N/A,4.5,4.4,NC-00500,36.2841269,-76.990105,61%,65%,57%,57%,59%,34.9,48,66,N/A,N/A,N/A,N/A,31.56%,31.65%,33.33%
Alamance,North Carolina,1280,1600,Burlington,171346,$89688,45.11%,41,$383000,2164,$177,17,96.8%,$917,30.05%,N/A,N/A,0.78%,3.78%,64.2%,Alamance County,41.90%,54.50%,0.31%,3.75%,91.09%,3.36%,3.67%,Eastern Standard Time,N/A,N/A,N/A,N/A,108,N/A,6.5,64,633,4.8,0.8,NC-00640,36.0284844,-79.4890172,59%,61%,55%,53%,56%,41.5,46,65,N/A,N/A,N/A,N/A,34.63%,38.02%,33.22%
Albemarle,North Carolina,16073,921,Albemarle,63239,$44294,17.16%,39,$257000,1558,$165,56,57.32%,$778,53.25%,904,5466,21.85%,6.95%,58.93%,Stanly County,23.70%,73.40%,0.99%,23.52%,65.86%,7.29%,4.73%,N/A,N/A,N/A,N/A,N/A,103,N/A,6.4,55,N/A,4.9,17.46,NC-00680,35.3592851,-80.1914618,64%,68%,58%,52%,55%,38.3,47,66,N/A,N/A,N/A,N/A,23.01%,24.51%,24.78%
Alliance,North Carolina,1104,528,New Bern,123198,$32500,6.18%,58,N/A,N/A,N/A,34,80.02%,$291,43.76%,N/A,N/A,19.79%,10.77%,39.92%,Pamlico County,35.60%,62.00%,0.0%,18.48%,73.19%,6.34%,3.08%,Eastern Standard Time,N/A,N/A,N/A,N/A,117,N/A,6.5,85,10,4.5,2.09,NC-01000,35.1435081,-76.8084609,59%,61%,55%,53%,56%,42.5,47,66,N/A,N/A,N/A,N/A,32.19%,38.24%,34.44%
Altamahaw,North Carolina,369,271,Burlington,171346,$71250,8.3%,47,N/A,N/A,N/A,70,95.66%,$1570,43.34%,N/A,N/A,0.0%,3.57%,86.01%,Alamance County,41.90%,54.50%,0.0%,0.0%,100.0%,0.0%,0.0%,Eastern Standard Time,N/A,N/A,N/A,N/A,111,N/A,6.5,66,633,4.8,1.36,NC-01140,36.1867713,-79.5050833,59%,61%,55%,53%,56%,41.5,46,65,N/A,N/A,N/A,N/A,34.63%,38.02%,33.22%
Andrews,North Carolina,1915,1113,None,N/A,$29612,8.99%,44,N/A,N/A,N/A,36,50.81%,$578,55.45%,N/A,N/A,31.56%,19.68%,55.49%,Cherokee County,20.20%,76.50%,0.0%,4.91%,82.77%,9.09%,4.65%,N/A,N/A,N/A,N/A,N/A,125,N/A,6.0,82,N/A,4.8,1.72,NC-01380,35.1993656,-83.8258143,57%,66%,44%,57%,58%,46.1,48,66,N/A,N/A,N/A,N/A,39.53%,45.05%,43.22%
Angier,North Carolina,5748,1796,Dunn,137058,$45132,25.67%,35,$384000,1910,$201,27,64.9%,$828,50.93%,N/A,N/A,14.07%,2.3%,57.81%,Harnett County,36.30%,59.90%,0.54%,16.28%,53.83%,26.98%,10.94%,N/A,N/A,N/A,N/A,N/A,106,N/A,6.5,63,N/A,4.9,3.2,NC-01400,35.5117618,-78.7403746,59%,61%,55%,53%,56%,42.5,47,66,N/A,N/A,N/A,N/A,30.47%,34.73%,31.0%
Ansonville,North Carolina,625,425,None,N/A,$43958,5.13%,53,N/A,N/A,N/A,39,72.96%,$807,62.34%,N/A,N/A,20.8%,2.07%,62.83%,Anson County,55.60%,42.70%,0.0%,89.12%,9.76%,1.12%,0.8%,N/A,N/A,N/A,N/A,N/A,101,N/A,6.4,66,N/A,5,1.47,NC-01420,35.1041818,-80.1096921,64%,68%,58%,52%,55%,38.3,47,66,N/A,N/A,N/A,N/A,23.01%,24.51%,24.78%
Apex,North Carolina,55220,2511,Raleigh,1420376,$112549,62.34%,36,$552000,2379,$232,18,77.58%,$1415,36.33%,94,936,3.61%,4.5%,74.56%,Wake County,57.40%,37.20%,8.7%,7.34%,73.74%,7.2%,10.74%,Eastern Standard Time,N/A,N/A,N/A,N/A,107,N/A,6.5,58,363,4.9,21.99,NC-01520,35.7237932,-78.874348,59%,61%,55%,53%,56%,42.5,47,66,N/A,N/A,N/A,N/A,22.0%,24.18%,22.33%
Aquadale,North Carolina,413,127,Albemarle,63239,$91681,15.69%,44,N/A,N/A,N/A,70,86.92%,N/A,42.78%,N/A,N/A,0.0%,0.0%,81.63%,Stanly County,23.70%,73.40%,0.0%,0.0%,100.0%,0.0%,6.3%,N/A,N/A,N/A,N/A,N/A,101,N/A,6.4,62,N/A,4.9,3.26,NC-01560,35.2243928,-80.2235092,64%,68%,58%,52%,55%,38.3,47,66,N/A,N/A,N/A,N/A,23.01%,24.51%,24.78%
Arapahoe,North Carolina,397,183,New Bern,123198,$67500,8.33%,48,N/A,N/A,N/A,49,82.62%,$728,43.02%,N/A,N/A,8.82%,0.47%,59.78%,Pamlico County,35.60%,62.00%,0.0%,8.31%,85.14%,2.77%,2.02%,Eastern Standard Time,N/A,N/A,N/A,N/A,117,N/A,6.5,85,10,4.5,2.17,NC-01640,35.0214672,-76.8259598,59%,61%,55%,53%,56%,42.5,47,66,N/A,N/A,N/A,N/A,32.19%,38.24%,34.44%
Archdale,North Carolina,11738,1329,Greensboro-High Point,776363,$56658,19.1%,45,$243000,1538,$158,35,79.92%,$728,46.25%,N/A,N/A,7.91%,4.38%,61.8%,Randolph County,20.40%,76.50%,5.19%,7.56%,79.89%,4.4%,4.87%,Eastern Standard Time,N/A,N/A,N/A,N/A,111,N/A,6.4,57,897,4.5,8.83,NC-01720,35.9032141,-79.95905,64%,68%,58%,52%,55%,41.5,46,65,N/A,N/A,N/A,N/A,32.19%,34.4%,34.44%
Asheville,North Carolina,92328,2031,Asheville,466634,$53621,49.93%,40,$444000,1500,$296,45,50.86%,$1084,59.82%,742,6325,13.28%,3.66%,64.01%,Buncombe County,54.30%,40.10%,1.52%,11.11%,77.72%,6.73%,7.34%,Eastern Standard Time,N/A,N/A,N/A,N/A,118,N/A,6.6,62,2207,4.8,45.47,NC-02140,35.5706235,-82.5537152,59%,59%,57%,55%,59%,44.7,46,64,N/A,N/A,N/A,N/A,36.9%,42.75%,38.22%
Ashley Heights,North Carolina,326,146,Fayetteville,529252,$30481,12.72%,49,N/A,N/A,N/A,41,54.6%,$606,62.41%,N/A,N/A,41.72%,19.47%,43.46%,Hoke County,53.40%,42.60%,0.0%,22.39%,42.94%,3.99%,0.0%,Eastern Standard Time,N/A,N/A,N/A,N/A,110,N/A,6.5,69,96,4.8,2.24,NC-02240,35.0899533,-79.3739167,59%,61%,55%,53%,56%,42.5,47,66,N/A,N/A,N/A,N/A,31.26%,35.49%,32.67%
Askewville,North Carolina,182,308,None,N/A,$36250,6.9%,59,N/A,N/A,N/A,54,89.56%,$594,41.04%,N/A,N/A,14.29%,7.35%,39.77%,Bertie County,61.80%,37.00%,0.0%,0.0%,95.05%,2.75%,1.1%,N/A,N/A,N/A,N/A,N/A,117,N/A,6.5,78,N/A,4.2,0.59,NC-02320,36.1115876,-76.9412317,61%,65%,57%,57%,59%,34.9,48,66,N/A,N/A,N/A,N/A,30.71%,31.54%,32.67%
Atkinson,North Carolina,351,355,Wilmington,301284,$34167,9.06%,37,N/A,N/A,N/A,66,82.05%,$883,61.59%,N/A,N/A,19.66%,10.37%,58.16%,Pender County,33.50%,63.30%,0.0%,12.82%,72.08%,9.69%,2.28%,Eastern Standard Time,N/A,N/A,N/A,N/A,117,N/A,6.5,75,30,4.5,0.99,NC-02460,34.5274581,-78.1697086,59%,61%,55%,53%,56%,42.5,47,66,N/A,N/A,N/A,N/A,34.19%,40.55%,34.22%
Atlantic,North Carolina,608,661,Morehead City,69558,$49125,6.9%,47,N/A,N/A,N/A,59,85.03%,N/A,39.6%,N/A,N/A,3.78%,1.68%,59.4%,Carteret County,26.30%,70.30%,0.0%,0.0%,98.85%,1.15%,0.99%,N/A,N/A,N/A,N/A,N/A,111,N/A,6.5,91,N/A,4.6,0.92,NC-02480,34.8822894,-76.3441105,61%,65%,57%,57%,59%,34.9,48,66,N/A,N/A,N/A,N/A,33.26%,39.89%,34.0%
Atlantic Beach,North Carolina,1870,799,Morehead City,69558,$59348,37.65%,61,$410000,1054,$389,39,73.58%,$944,43.56%,597,7569,6.97%,4.44%,42.65%,Carteret County,26.30%,70.30%,0.0%,0.53%,97.7%,0.75%,0.0%,N/A,N/A,N/A,N/A,N/A,111,N/A,6.5,89,N/A,4.6,2.34,NC-02500,34.7015559,-76.7414978,59%,61%,55%,53%,56%,42.5,47,66,N/A,N/A,N/A,N/A,32.85%,36.26%,37.78%
Aulander,North Carolina,965,652,None,N/A,$42071,5.65%,35,N/A,N/A,N/A,54,54.25%,$639,48.64%,N/A,N/A,21.66%,17.22%,69.15%,Bertie County,61.80%,37.00%,0.0%,62.49%,28.91%,6.32%,3.42%,N/A,N/A,N/A,N/A,N/A,109,N/A,6.5,77,N/A,4.2,1.48,NC-02580,36.2280092,-77.1135989,61%,65%,57%,57%,59%,34.9,48,66,N/A,N/A,N/A,N/A,30.71%,31.54%,32.67%
Aurora,North Carolina,772,830,Washington,47073,$38026,5.5%,43,N/A,N/A,N/A,51,45.47%,$634,57.17%,N/A,N/A,34.16%,15.46%,50.72%,Beaufort County,36.60%,60.80%,0.0%,53.63%,41.71%,0.0%,0.0%,N/A,N/A,N/A,N/A,N/A,117,N/A,6.5,83,N/A,4.4,0.93,NC-02620,35.302998,-76.7889147,59%,61%,55%,53%,56%,42.5,47,66,N/A,N/A,N/A,N/A,32.19%,38.24%,34.44%
Autryville,North Carolina,192,369,None,N/A,$36000,12.67%,51,N/A,N/A,N/A,53,67.71%,$729,41.42%,N/A,N/A,3.65%,9.46%,43.79%,Sampson County,40.70%,57.20%,0.0%,8.85%,86.98%,0.0%,0.0%,N/A,N/A,N/A,N/A,N/A,108,N/A,6.5,72,N/A,4.5,0.52,NC-02700,34.9964805,-78.6411872,59%,61%,55%,53%,56%,42.5,47,66,N/A,N/A,N/A,N/A,33.73%,38.57%,32.0%
Avery Creek,North Carolina,3256,1882,Asheville,466634,$90333,42.29%,41,$570000,2664,$214,25,91.34%,$1250,58.13%,N/A,N/A,2.4%,2.47%,78.15%,Buncombe County,54.30%,40.10%,1.5%,16.55%,81.94%,0.0%,9.0%,Eastern Standard Time,N/A,N/A,N/A,N/A,125,N/A,6.6,76,2207,4.8,1.73,NC-02760,35.4650809,-82.5718462,59%,59%,57%,55%,59%,44.7,46,64,N/A,N/A,N/A,N/A,35.92%,44.29%,34.33%
Avon,North Carolina,474,209,Kill Devil Hills,37547,$26729,41.81%,58,N/A,N/A,N/A,36,76.37%,N/A,82.74%,N/A,N/A,10.34%,27.31%,55.09%,Dare County,36.80%,58.40%,0.0%,0.0%,100.0%,0.0%,0.0%,N/A,N/A,N/A,N/A,N/A,110,N/A,N/A,93,N/A,4.4,2.27,NC-02780,35.3460762,-75.5070542,61%,65%,57%,57%,59%,34.9,48,66,N/A,N/A,N/A,N/A,35.23%,36.7%,37.0%
Ayden,North Carolina,5138,1349,Greenville,182924,$53317,16.83%,37,$162000,1306,$124,46,70.24%,$629,48.02%,N/A,N/A,22.46%,10.5%,58.64%,Pitt County,51.90%,44.30%,1.69%,36.8%,51.46%,9.69%,3.25%,Eastern Standard Time,N/A,N/A,N/A,N/A,112,N/A,6.5,73,40,4.7,3.81,NC-02840,35.4693512,-77.4166422,59%,61%,55%,53%,56%,42.5,47,66,N/A,N/A,N/A,N/A,36.52%,39.56%,37.67%
Badin,North Carolina,1976,1092,Albemarle,63239,$32031,5.86%,46,$150000,1103,$136,78,66.46%,$700,64.34%,N/A,N/A,21.92%,7.14%,25.72%,Stanly County,23.70%,73.40%,0.0%,39.27%,55.41%,3.19%,3.04%,N/A,N/A,N/A,N/A,N/A,100,N/A,6.4,62,N/A,4.9,1.81,NC-02960,35.4071534,-80.118341,64%,68%,58%,52%,55%,38.3,47,66,N/A,N/A,N/A,N/A,23.01%,24.51%,24.78%
Bailey,North Carolina,492,703,Rocky Mount,145688,$39018,18.58%,44,$301000,1576,$191,63,58.54%,$907,44.13%,357,2678,26.02%,3.57%,66.49%,Nash County,48.70%,48.90%,0.0%,16.26%,56.3%,16.67%,6.5%,Eastern Standard Time,N/A,N/A,N/A,N/A,105,N/A,6.5,70,150,4.7,0.7,NC-03020,35.7806139,-78.1129235,59%,61%,55%,53%,56%,42.5,47,66,N/A,N/A,N/A,N/A,33.07%,34.18%,34.89%
Bakersville,North Carolina,706,929,None,N/A,$53750,11.95%,56,N/A,N/A,N/A,29,69.3%,N/A,54.15%,N/A,N/A,19.26%,43.14%,47.96%,Mitchell County,19.70%,77.60%,0.0%,0.0%,97.45%,1.7%,0.42%,N/A,N/A,N/A,N/A,N/A,127,N/A,6.6,84,N/A,4.6,0.76,NC-03100,36.0153506,-82.1582238,59%,59%,57%,55%,59%,40.6,45,63,N/A,N/A,N/A,N/A,36.6%,41.21%,38.89%
Bald Head Island,North Carolina,209,53,Myrtle Beach-Conway-North Myrtle Beach,514488,$116000,81.82%,69,$1100000,1887,$583,22,96.17%,$1000,12.92%,0,13186,2.87%,0.0%,28.23%,Brunswick County,34.10%,62.50%,0.0%,0.0%,99.04%,0.96%,1.44%,Eastern Standard Time,N/A,N/A,N/A,N/A,117,N/A,7.9,89,30,4.9,3.91,NC-03150,33.8639823,-77.9866905,59%,61%,55%,53%,56%,54.4,54,70,N/A,N/A,N/A,N/A,30.96%,34.84%,33.11%
Balfour,North Carolina,1177,727,Asheville,466634,$60833,50.64%,40,$354000,1445,$245,47,87.6%,$763,50.44%,N/A,N/A,9.35%,0.0%,65.49%,Henderson County,34.10%,61.60%,0.0%,1.87%,85.73%,11.21%,8.84%,Eastern Standard Time,N/A,N/A,N/A,N/A,127,N/A,6.6,66,2207,4.8,1.62,NC-03220,35.3493637,-82.4824607,59%,59%,57%,55%,59%,44.7,46,64,N/A,N/A,N/A,N/A,38.49%,46.7%,38.44%
Banner Elk,North Carolina,1473,767,None,N/A,$53750,53.49%,21,N/A,N/A,N/A,19,67.27%,$821,78.23%,454,999,15.54%,16.08%,46.15%,Avery County,20.50%,76.30%,2.17%,4.28%,82.35%,7.6%,7.67%,N/A,N/A,N/A,N/A,N/A,141,N/A,6.6,86,N/A,5,1.92,NC-03500,36.1586996,-81.8675569,59%,59%,57%,55%,59%,40.6,45,63,N/A,N/A,N/A,N/A,46.99%,52.31%,48.67%
Barker Heights,North Carolina,1289,1302,Asheville,466634,$31472,6.48%,45,N/A,N/A,N/A,64,43.83%,$733,47.14%,N/A,N/A,31.03%,0.0%,61.35%,Henderson County,34.10%,61.60%,1.24%,10.78%,63.23%,21.8%,14.27%,Eastern Standard Time,N/A,N/A,N/A,N/A,125,N/A,6.6,65,2207,4.8,0.99,NC-03640,35.3104215,-82.4411941,59%,59%,57%,55%,59%,44.7,46,64,N/A,N/A,N/A,N/A,38.49%,46.7%,38.44%
Barker Ten Mile,North Carolina,955,419,Lumberton,129999,$68818,39.97%,49,$295000,2565,$115,49,95.5%,N/A,37.5%,N/A,N/A,5.34%,0.0%,52.08%,Robeson County,46.50%,50.80%,0.84%,14.76%,55.39%,0.0%,1.78%,N/A,N/A,N/A,N/A,N/A,104,N/A,6.5,64,N/A,4.6,2.28,NC-03665,34.6825239,-78.9888465,59%,61%,55%,53%,56%,42.5,47,66,N/A,N/A,N/A,N/A,30.58%,38.35%,29.67%
Bath,North Carolina,220,611,Washington,47073,$52500,41.46%,67,N/A,N/A,N/A,53,93.64%,$1000,24.64%,N/A,N/A,6.82%,1.35%,35.92%,Beaufort County,36.60%,60.80%,0.0%,0.91%,98.18%,0.0%,6.36%,N/A,N/A,N/A,N/A,N/A,110,N/A,6.5,83,N/A,4.4,0.36,NC-03840,35.4701693,-76.8119832,61%,65%,57%,57%,59%,34.9,48,66,N/A,N/A,N/A,N/A,33.86%,39.12%,34.22%
Bayboro,North Carolina,1242,671,New Bern,123198,$35323,4.9%,43,$117000,1315,$89,38,54.19%,$778,74.34%,N/A,N/A,33.56%,2.33%,23.1%,Pamlico County,35.60%,62.00%,0.97%,54.19%,37.68%,3.06%,3.54%,Eastern Standard Time,N/A,N/A,N/A,N/A,116,N/A,6.5,85,10,4.5,1.85,NC-03960,35.1475214,-76.7692215,59%,61%,55%,53%,56%,42.5,47,66,N/A,N/A,N/A,N/A,32.19%,38.24%,34.44%
Bayshore,North Carolina,3776,1600,Wilmington,301284,$86429,50.56%,36,$517000,2200,$235,25,65.15%,$1058,33.36%,N/A,N/A,17.16%,6.49%,62.65%,New Hanover County,45.60%,49.50%,0.0%,8.63%,91.02%,0.0%,1.96%,Eastern Standard Time,N/A,N/A,N/A,N/A,120,N/A,6.5,76,30,4.6,2.36,NC-04015,34.2892679,-77.8025474,59%,61%,55%,53%,56%,42.5,47,66,N/A,N/A,N/A,N/A,33.73%,42.09%,33.33%
Bayview,North Carolina,473,446,Washington,47073,$73750,19.37%,44,$458000,2743,$167,54,82.88%,N/A,34.35%,N/A,N/A,6.34%,0.0%,57.53%,Beaufort County,36.60%,60.80%,0.0%,0.0%,80.13%,19.87%,0.0%,N/A,N/A,N/A,N/A,N/A,110,N/A,6.5,83,N/A,4.4,1.06,NC-04040,35.4418185,-76.7934286,61%,65%,57%,57%,59%,34.9,48,66,N/A,N/A,N/A,N/A,33.86%,39.12%,34.22%
Bear Grass,North Carolina,82,328,None,N/A,$48875,11.67%,40,N/A,N/A,N/A,53,90.24%,$650,46.03%,N/A,N/A,12.2%,0.0%,47.62%,Martin County,48.90%,49.30%,0.0%,0.0%,93.9%,6.1%,0.0%,N/A,N/A,N/A,N/A,N/A,110,N/A,6.5,78,N/A,4.4,0.25,NC-04180,35.7664204,-77.1288854,59%,61%,55%,53%,56%,42.5,47,66,N/A,N/A,N/A,N/A,32.3%,33.74%,34.0%
Beaufort,North Carolina,4382,864,Morehead City,69558,$36466,26.61%,51,$480000,1684,$285,39,46.2%,$702,53.35%,N/A,N/A,16.28%,8.26%,48.04%,Carteret County,26.30%,70.30%,0.43%,12.55%,80.28%,2.12%,2.6%,N/A,N/A,N/A,N/A,N/A,114,N/A,6.5,88,N/A,4.6,5.07,NC-04260,34.7226145,-76.6502119,59%,61%,55%,53%,56%,42.5,47,66,N/A,N/A,N/A,N/A,35.26%,40.33%,34.56%
Beech Mountain,North Carolina,766,118,None,N/A,$72917,44.76%,61,$775000,2524,$307,37,88.9%,$1208,29.51%,0,4629,7.57%,8.49%,46.31%,Watauga County,47.20%,45.70%,1.17%,0.39%,95.04%,1.17%,3.66%,N/A,N/A,N/A,N/A,N/A,141,N/A,6.6,85,N/A,4.6,6.48,NC-04510,36.2104511,-81.887532,59%,59%,57%,55%,59%,40.6,45,63,N/A,N/A,N/A,N/A,49.37%,50.77%,58.56%
Belhaven,North Carolina,1239,779,Washington,47073,$29333,11.99%,46,$52000,1083,$48,48,50.12%,$735,65.17%,0,1340,26.42%,9.49%,49.32%,Beaufort County,36.60%,60.80%,0.0%,53.27%,37.53%,9.2%,6.38%,N/A,N/A,N/A,N/A,N/A,117,N/A,6.5,83,N/A,4.4,1.59,NC-04640,35.5424318,-76.6228657,61%,65%,57%,57%,59%,34.9,48,66,N/A,N/A,N/A,N/A,28.93%,32.97%,30.22%
Bell Arthur,North Carolina,378,203,Greenville,182924,$22321,33.75%,36,$225000,1585,$142,40,48.15%,N/A,49.02%,N/A,N/A,0.0%,22.44%,66.99%,Pitt County,51.90%,44.30%,0.0%,11.11%,85.45%,0.0%,0.0%,Eastern Standard Time,N/A,N/A,N/A,N/A,113,N/A,6.5,74,40,4.7,1.86,NC-04680,35.5911769,-77.5127042,59%,61%,55%,53%,56%,42.5,47,66,N/A,N/A,N/A,N/A,36.52%,39.56%,37.67%
Belmont,North Carolina,12292,1011,Charlotte-Concord-Gastonia,2684276,$73968,42.08%,35,$475000,2149,$221,28,71.46%,$969,48.62%,N/A,N/A,14.47%,4.77%,64.74%,Gaston County,32.30%,64.10%,3.38%,11.08%,79.07%,2.01%,5.34%,Eastern Standard Time,N/A,N/A,N/A,N/A,105,N/A,6.4,47,769,4.8,12.16,NC-04840,35.221104,-81.0400811,64%,68%,58%,52%,55%,38.3,47,66,N/A,N/A,N/A,N/A,30.79%,32.97%,33.56%
Belville,North Carolina,2696,1586,Myrtle Beach-Conway-North Myrtle Beach,514488,$66750,30.64%,38,$278000,1383,$201,22,67.69%,$1365,47.01%,N/A,N/A,8.87%,6.56%,74.66%,Brunswick County,34.10%,62.50%,0.22%,27.23%,60.76%,5.79%,2.67%,Eastern Standard Time,N/A,N/A,N/A,N/A,119,N/A,6.5,75,30,4.9,1.7,NC-04950,34.2189506,-77.9975368,59%,61%,55%,53%,56%,42.5,47,66,N/A,N/A,N/A,N/A,34.49%,40.99%,35.56%
Belvoir,North Carolina,452,228,Greenville,182924,$43520,39.41%,28,N/A,N/A,N/A,44,72.12%,N/A,43.71%,N/A,N/A,3.54%,18.95%,50.7%,Pitt County,51.90%,44.30%,0.0%,27.88%,72.12%,0.0%,0.0%,Eastern Standard Time,N/A,N/A,N/A,N/A,113,N/A,6.5,75,40,4.7,1.98,NC-04955,35.7110757,-77.4699315,59%,61%,55%,53%,56%,42.5,47,66,N/A,N/A,N/A,N/A,34.36%,38.35%,34.44%
Belwood,North Carolina,1130,92,Shelby,99035,$42119,9.51%,46,N/A,N/A,N/A,34,73.54%,$698,32.1%,N/A,N/A,17.85%,3.05%,47.81%,Cleveland County,33.50%,63.70%,0.0%,1.15%,95.22%,3.1%,0.62%,N/A,N/A,N/A,N/A,N/A,107,N/A,6.4,71,N/A,4.6,12.3,NC-04960,35.4793923,-81.5227563,64%,68%,58%,52%,55%,38.3,47,66,N/A,N/A,N/A,N/A,32.93%,38.35%,31.0%
Bennett,North Carolina,355,111,Durham-Chapel Hill,652542,$21667,16.46%,22,$132000,N/A,N/A,51,36.9%,N/A,71.11%,N/A,N/A,37.46%,0.0%,31.18%,Chatham County,52.90%,42.90%,0.0%,0.0%,100.0%,0.0%,0.0%,Eastern Standard Time,N/A,N/A,N/A,N/A,108,N/A,6.5,67,441,4.6,3.2,NC-05020,35.5663173,-79.5399638,59%,61%,55%,53%,56%,41.5,46,65,N/A,N/A,N/A,N/A,34.77%,37.14%,36.44%
Benson,North Carolina,3843,1368,Raleigh,1420376,$45268,26.19%,48,$315000,1641,$192,42,59.98%,$680,44.58%,794,5126,33.42%,2.7%,51.11%,Johnston County,33.00%,63.30%,0.36%,43.4%,48.37%,7.86%,4.53%,Eastern Standard Time,N/A,N/A,N/A,N/A,108,N/A,6.5,67,363,4.6,2.81,NC-05040,35.3860877,-78.543544,59%,61%,55%,53%,56%,42.5,47,66,N/A,N/A,N/A,N/A,30.47%,34.73%,31.0%
Bent Creek,North Carolina,1652,748,Asheville,466634,$82629,37.86%,42,$505000,2053,$246,46,96.6%,$1304,47.37%,N/A,N/A,3.95%,7.91%,73.64%,Buncombe County,54.30%,40.10%,0.73%,0.06%,84.75%,13.5%,10.65%,Eastern Standard Time,N/A,N/A,N/A,N/A,114,N/A,6.6,73,2207,4.8,2.21,NC-05049,35.5081282,-82.6176988,59%,59%,57%,55%,59%,44.7,46,64,N/A,N/A,N/A,N/A,38.85%,48.46%,36.67%
Bermuda Run,North Carolina,2688,1075,Winston-Salem,679731,$71082,44.4%,65,$301000,2048,$147,33,84.77%,$637,44.62%,N/A,N/A,0.0%,5.04%,44.16%,Davie County,24.20%,71.70%,0.0%,6.55%,92.34%,0.63%,5.51%,Eastern Standard Time,N/A,N/A,N/A,N/A,108,N/A,6.4,63,970,4.4,2.5,NC-05135,36.004193,-80.430611,64%,68%,58%,52%,55%,41.5,46,65,N/A,N/A,N/A,N/A,33.37%,36.37%,34.67%
Bessemer City,North Carolina,5536,1059,Charlotte-Concord-Gastonia,2684276,$39055,8.91%,35,$203000,1327,$153,48,47.73%,$813,55.12%,234,1530,13.33%,5.69%,60.54%,Gaston County,32.30%,64.10%,0.0%,11.71%,78.61%,8.67%,2.57%,Eastern Standard Time,N/A,N/A,N/A,N/A,106,N/A,6.4,58,769,4.8,5.23,NC-05220,35.2841169,-81.2828239,64%,68%,58%,52%,55%,38.3,47,66,N/A,N/A,N/A,N/A,29.7%,33.74%,32.11%
Bethania,North Carolina,351,516,Winston-Salem,679731,$70656,25.33%,58,N/A,N/A,N/A,44,66.38%,$1174,53.94%,N/A,N/A,9.4%,1.89%,48.62%,Forsyth County,53.00%,42.60%,0.0%,25.36%,73.5%,1.14%,1.14%,Eastern Standard Time,N/A,N/A,N/A,N/A,106,N/A,6.4,68,970,4.7,0.68,NC-05340,36.1808299,-80.3375805,64%,68%,58%,52%,55%,41.5,46,65,N/A,N/A,N/A,N/A,35.7%,39.67%,36.0%
Bethel,North Carolina,1987,1892,Greenville,182924,$42500,19.56%,46,N/A,N/A,N/A,58,64.73%,$706,62.01%,N/A,N/A,19.53%,9.66%,58.77%,Pitt County,51.90%,44.30%,0.0%,63.76%,30.55%,4.53%,0.35%,Eastern Standard Time,N/A,N/A,N/A,N/A,112,N/A,6.5,75,40,4.7,1.05,NC-05460,35.8072229,-77.3762504,59%,61%,55%,53%,56%,42.5,47,66,N/A,N/A,N/A,N/A,34.36%,38.35%,34.44%
Bethlehem,North Carolina,3959,519,Hickory-Lenoir-Morganton,370266,$67411,35.14%,48,$475000,2811,$169,34,86.81%,$765,35.97%,N/A,N/A,7.25%,5.17%,58.71%,Alexander County,20.60%,76.00%,3.81%,0.0%,93.28%,2.55%,4.8%,Eastern Standard Time,N/A,N/A,N/A,N/A,115,N/A,6.4,68,897,4.6,7.63,NC-05530,35.8162019,-81.2961671,64%,68%,58%,52%,55%,38.3,47,66,N/A,N/A,N/A,N/A,33.1%,38.9%,31.33%
Beulaville,North Carolina,1666,1082,None,N/A,$32358,20.08%,40,N/A,N/A,N/A,31,63.33%,$550,49.59%,N/A,N/A,26.23%,7.12%,49.13%,Duplin County,39.70%,58.60%,0.0%,27.55%,67.29%,2.34%,3.18%,N/A,N/A,N/A,N/A,N/A,113,N/A,6.5,77,N/A,4.9,1.54,NC-05660,34.9228038,-77.7723927,59%,61%,55%,53%,56%,42.5,47,66,N/A,N/A,N/A,N/A,27.4%,32.75%,27.67%
Biltmore Forest,North Carolina,1679,577,Asheville,466634,$164000,84.28%,50,N/A,N/A,N/A,61,94.52%,$1104,33.97%,0,1134,2.56%,1.93%,49.59%,Buncombe County,54.30%,40.10%,1.43%,0.0%,96.84%,0.54%,3.51%,Eastern Standard Time,N/A,N/A,N/A,N/A,122,N/A,6.6,73,2207,4.8,2.91,NC-05880,35.5348068,-82.5403422,59%,59%,57%,55%,59%,44.7,46,64,N/A,N/A,N/A,N/A,36.9%,42.75%,38.22%
Biscoe,North Carolina,2722,1012,None,N/A,$44792,16.92%,25,N/A,N/A,N/A,45,47.45%,$619,52.23%,348,10788,32.85%,1.43%,51.34%,Montgomery County,36.00%,61.80%,0.33%,23.0%,27.41%,43.31%,18.48%,N/A,N/A,N/A,N/A,N/A,106,N/A,6.4,65,N/A,4.8,2.69,NC-06000,35.3585192,-79.7815168,64%,68%,58%,52%,55%,41.5,46,65,N/A,N/A,N/A,N/A,31.26%,35.49%,32.67%
Black Creek,North Carolina,932,1313,Wilson,81979,$49219,7.07%,37,N/A,N/A,N/A,31,70.49%,$532,50.82%,N/A,N/A,19.28%,13.04%,70.08%,Wilson County,51.60%,46.00%,0.0%,29.51%,64.27%,6.22%,4.08%,N/A,N/A,N/A,N/A,N/A,112,N/A,6.5,72,N/A,4.8,0.71,NC-06080,35.6365447,-77.9326424,59%,61%,55%,53%,56%,42.5,47,66,N/A,N/A,N/A,N/A,33.07%,34.18%,34.89%
Black Mountain,North Carolina,8177,1219,Asheville,466634,$55975,57.13%,60,$555000,1907,$291,36,67.86%,$1228,49.96%,97,2308,3.91%,2.08%,44.46%,Buncombe County,54.30%,40.10%,0.17%,2.9%,94.68%,1.31%,2.59%,Eastern Standard Time,N/A,N/A,N/A,N/A,126,N/A,6.6,82,2207,4.8,6.71,NC-06140,35.614286,-82.3273949,59%,59%,57%,55%,59%,44.7,46,64,N/A,N/A,N/A,N/A,42.47%,50.33%,41.56%
Bladenboro,North Carolina,2063,929,None,N/A,$43783,14.07%,38,N/A,N/A,N/A,50,31.31%,$669,61.38%,N/A,N/A,21.52%,10.01%,54.77%,Bladen County,44.40%,53.80%,0.0%,23.56%,68.98%,4.22%,0.29%,N/A,N/A,N/A,N/A,N/A,107,N/A,6.5,70,N/A,4.8,2.22,NC-06240,34.5408701,-78.7946602,59%,61%,55%,53%,56%,42.5,47,66,N/A,N/A,N/A,N/A,27.26%,32.2%,27.56%
Blowing Rock,North Carolina,1149,355,Hickory-Lenoir-Morganton,370266,$83333,61.81%,63,$1550000,4613,$336,38,68.53%,$1183,40.11%,N/A,N/A,3.51%,0.0%,56.42%,Watauga County,47.20%,45.70%,0.0%,0.61%,96.26%,0.0%,0.52%,Eastern Standard Time,N/A,N/A,N/A,N/A,141,N/A,6.6,83,897,4.6,3.24,NC-06500,36.1298638,-81.6705444,59%,59%,57%,55%,59%,40.6,45,63,N/A,N/A,N/A,N/A,41.7%,45.38%,42.44%
Boardman,North Carolina,315,102,None,N/A,$49250,6.52%,43,N/A,N/A,N/A,28,64.22%,$538,61.67%,N/A,N/A,8.14%,5.03%,69.34%,Columbus County,38.20%,60.10%,0.0%,25.4%,49.84%,0.63%,0.63%,N/A,N/A,N/A,N/A,N/A,113,N/A,6.5,72,N/A,4.9,3.09,NC-06660,34.4364525,-78.9467746,59%,61%,55%,53%,56%,42.5,47,66,N/A,N/A,N/A,N/A,27.26%,32.2%,27.56%
Bogue,North Carolina,884,321,Morehead City,69558,$76528,16.36%,49,N/A,N/A,N/A,24,71.27%,$1205,35.25%,N/A,N/A,3.17%,1.06%,66.99%,Carteret County,26.30%,70.30%,0.34%,1.02%,82.81%,8.6%,4.19%,N/A,N/A,N/A,N/A,N/A,115,N/A,6.5,87,N/A,4.6,2.75,NC-06740,34.6980869,-77.0311275,59%,61%,55%,53%,56%,42.5,47,66,N/A,N/A,N/A,N/A,36.6%,41.76%,38.0%
Boiling Spring Lakes,North Carolina,6156,256,Myrtle Beach-Conway-North Myrtle Beach,514488,$51742,12.45%,46,$300000,1563,$192,23,80.58%,$1074,31.23%,160,1330,11.21%,4.32%,57.72%,Brunswick County,34.10%,62.50%,0.41%,3.18%,87.43%,2.75%,0.47%,Eastern Standard Time,N/A,N/A,N/A,N/A,117,N/A,6.5,80,30,4.9,24.09,NC-06760,34.0326878,-78.0684831,59%,61%,55%,53%,56%,42.5,47,66,N/A,N/A,N/A,N/A,34.49%,40.99%,35.56%
Boiling Springs,North Carolina,4580,1022,Shelby,99035,$73457,45.45%,23,$322000,2118,$152,27,76.37%,$592,55.6%,N/A,N/A,9.01%,7.69%,48.94%,Cleveland County,33.50%,63.70%,1.46%,9.8%,85.5%,4.59%,3.03%,N/A,N/A,N/A,N/A,N/A,107,N/A,6.4,65,N/A,4.6,4.48,NC-06800,35.2520536,-81.6635942,64%,68%,58%,52%,55%,38.3,47,66,N/A,N/A,N/A,N/A,32.11%,38.46%,32.11%
Bolivia,North Carolina,177,277,Myrtle Beach-Conway-North Myrtle Beach,514488,$32500,35.07%,62,N/A,N/A,N/A,47,69.49%,$740,40.12%,N/A,N/A,9.04%,6.67%,37.27%,Brunswick County,34.10%,62.50%,0.0%,0.0%,99.44%,0.0%,0.56%,Eastern Standard Time,N/A,N/A,N/A,N/A,119,N/A,6.5,80,30,4.9,0.64,NC-06820,34.0699253,-78.1473648,59%,61%,55%,53%,56%,42.5,47,66,N/A,N/A,N/A,N/A,34.49%,40.99%,35.56%
Bolton,North Carolina,710,197,None,N/A,$42333,3.86%,34,N/A,N/A,N/A,43,81.69%,$879,65.27%,N/A,N/A,14.85%,13.08%,48.15%,Columbus County,38.20%,60.10%,0.28%,47.32%,22.54%,8.87%,4.79%,N/A,N/A,N/A,N/A,N/A,114,N/A,6.5,74,N/A,4.9,3.6,NC-06860,34.3174248,-78.397685,59%,61%,55%,53%,56%,42.5,47,66,N/A,N/A,N/A,N/A,34.49%,40.99%,35.56%
Bonnetsville,North Carolina,1315,397,None,N/A,$39821,2.84%,14,N/A,N/A,N/A,46,22.88%,$710,69.53%,N/A,N/A,66.16%,1.34%,64.81%,Sampson County,40.70%,57.20%,0.99%,4.41%,61.98%,22.28%,17.57%,N/A,N/A,N/A,N/A,N/A,113,N/A,6.5,73,N/A,4.5,3.31,NC-06980,34.9992801,-78.3961413,59%,61%,55%,53%,56%,42.5,47,66,N/A,N/A,N/A,N/A,31.07%,35.82%,32.11%
Boone,North Carolina,19466,3085,Boone,56441,$25535,48.15%,22,$404000,1423,$284,37,24.34%,$952,83.9%,130,1312,52.68%,16.56%,54.82%,Watauga County,47.20%,45.70%,1.6%,2.3%,89.13%,5.08%,3.34%,N/A,N/A,N/A,N/A,N/A,138,N/A,6.6,77,N/A,4.6,6.31,NC-07080,36.2111293,-81.6669397,59%,59%,57%,55%,59%,40.6,45,63,N/A,N/A,N/A,N/A,41.7%,45.38%,42.44%
Boonville,North Carolina,1404,1170,Winston-Salem,679731,$52500,21.65%,44,$25000,694,$36,45,73.72%,$686,52.47%,N/A,N/A,8.9%,2.58%,53.83%,Yadkin County,17.90%,78.80%,0.64%,7.62%,89.89%,1.28%,1.92%,Eastern Standard Time,N/A,N/A,N/A,N/A,117,N/A,6.4,70,970,4.6,1.2,NC-07140,36.2339653,-80.7093171,64%,68%,58%,52%,55%,41.5,46,65,N/A,N/A,N/A,N/A,34.38%,41.76%,32.33%
Bostic,North Carolina,285,306,Forest City,67076,$34107,12.02%,54,$235000,1556,$151,40,69.47%,$550,51.19%,N/A,N/A,16.49%,4.88%,49.2%,Rutherford County,24.80%,72.20%,1.4%,3.86%,92.98%,0.0%,0.7%,N/A,N/A,N/A,N/A,N/A,111,N/A,6.6,63,N/A,4.9,0.93,NC-07220,35.3624561,-81.835988,59%,59%,57%,55%,59%,44.7,46,64,N/A,N/A,N/A,N/A,32.66%,38.24%,32.44%
Bowmore,North Carolina,92,28,Fayetteville,529252,$18214,0.0%,60,N/A,N/A,N/A,54,43.48%,$679,100.0%,N/A,N/A,45.65%,0.0%,67.57%,Hoke County,53.40%,42.60%,0.0%,34.78%,32.61%,13.04%,0.0%,Eastern Standard Time,N/A,N/A,N/A,N/A,104,N/A,6.5,67,96,4.8,3.32,NC-07400,34.9358479,-79.2999609,59%,61%,55%,53%,56%,42.5,47,66,N/A,N/A,N/A,N/A,33.07%,38.57%,33.33%
Brevard,North Carolina,7841,1466,Brevard,34498,$37878,34.89%,51,$435000,1783,$244,51,57.25%,$651,52.23%,227,2371,13.99%,5.9%,50.82%,Transylvania County,36.70%,58.90%,0.04%,11.99%,82.41%,1.2%,1.17%,N/A,N/A,N/A,N/A,N/A,131,N/A,6.6,79,N/A,4.5,5.35,NC-07720,35.2438672,-82.7264582,59%,59%,57%,55%,59%,44.7,46,64,N/A,N/A,N/A,N/A,43.4%,58.24%,38.11%
Brices Creek,North Carolina,4158,530,New Bern,123198,$100115,42.36%,40,$380000,2585,$147,19,75.64%,$1621,32.86%,N/A,N/A,2.86%,1.62%,61.26%,Craven County,37.50%,59.00%,4.14%,9.81%,82.4%,3.66%,5.44%,Eastern Standard Time,N/A,N/A,N/A,N/A,117,N/A,6.5,81,10,4.7,7.85,NC-07765,35.0505025,-77.0844861,59%,61%,55%,53%,56%,42.5,47,66,N/A,N/A,N/A,N/A,37.48%,43.96%,38.0%
Bridgeton,North Carolina,329,160,New Bern,123198,$46667,32.9%,40,$248000,1621,$153,38,70.21%,$864,53.44%,N/A,N/A,22.49%,6.52%,61.94%,Craven County,37.50%,59.00%,0.0%,9.73%,76.29%,13.98%,3.34%,Eastern Standard Time,N/A,N/A,N/A,N/A,118,N/A,6.5,81,10,4.7,2.05,NC-07860,35.1346924,-77.0159389,59%,61%,55%,53%,56%,42.5,47,66,N/A,N/A,N/A,N/A,34.68%,42.2%,34.56%
Broad Creek,North Carolina,2306,741,Morehead City,69558,$55917,15.85%,47,$403000,1527,$264,28,77.15%,N/A,36.7%,N/A,N/A,10.83%,3.63%,56.13%,Carteret County,26.30%,70.30%,0.0%,0.78%,89.9%,2.52%,3.12%,N/A,N/A,N/A,N/A,N/A,114,N/A,6.5,87,N/A,4.6,3.11,NC-08040,34.7304308,-76.9241123,59%,61%,55%,53%,56%,42.5,47,66,N/A,N/A,N/A,N/A,36.6%,41.76%,38.0%
Broadway,North Carolina,1460,1132,Dunn,137058,$56154,24.53%,48,$289000,1752,$165,42,78.38%,$796,45.03%,N/A,N/A,15.27%,1.77%,65.81%,Lee County,41.70%,54.70%,3.08%,6.51%,81.64%,9.45%,3.9%,N/A,N/A,N/A,N/A,N/A,109,N/A,6.5,66,N/A,4.7,1.29,NC-08080,35.4578926,-79.0546913,59%,61%,55%,53%,56%,42.5,47,66,N/A,N/A,N/A,N/A,25.95%,28.57%,26.56%
Brogden,North Carolina,2306,1039,Goldsboro,123967,$36969,7.33%,45,$170000,1735,$98,42,71.47%,$732,59.56%,N/A,N/A,34.13%,6.86%,49.53%,Wayne County,42.90%,54.30%,0.0%,56.55%,26.24%,15.52%,7.94%,Eastern Standard Time,N/A,N/A,N/A,N/A,116,N/A,6.5,71,121,4.8,2.22,NC-08110,35.2961458,-78.0250485,59%,61%,55%,53%,56%,42.5,47,66,N/A,N/A,N/A,N/A,31.07%,35.82%,32.11%
Brookford,North Carolina,474,741,Hickory-Lenoir-Morganton,370266,$38214,5.85%,36,N/A,N/A,N/A,75,37.89%,$671,64.42%,N/A,N/A,29.05%,8.64%,59.27%,Catawba County,29.30%,66.80%,0.84%,1.69%,84.6%,7.81%,2.11%,Eastern Standard Time,N/A,N/A,N/A,N/A,112,N/A,6.4,61,897,4.6,0.64,NC-08140,35.7029439,-81.3453787,64%,68%,58%,52%,55%,38.3,47,66,N/A,N/A,N/A,N/A,33.1%,38.9%,31.33%
Brunswick,North Carolina,1128,1880,None,N/A,$16813,3.67%,34,N/A,N/A,N/A,60,43.33%,$717,77.35%,N/A,N/A,61.19%,4.52%,19.51%,Columbus County,38.20%,60.10%,2.57%,67.38%,21.28%,3.28%,2.57%,N/A,N/A,N/A,N/A,N/A,113,N/A,6.5,72,N/A,4.9,0.6,NC-08420,34.2879701,-78.701172,59%,61%,55%,53%,56%,42.5,47,66,N/A,N/A,N/A,N/A,27.26%,32.2%,27.56%
Bryson City,North Carolina,1777,815,None,N/A,$35357,27.42%,42,$330000,1375,$240,40,49.21%,$649,48.36%,N/A,N/A,16.56%,1.67%,59.96%,Swain County,35.90%,58.20%,0.0%,0.23%,75.69%,15.87%,11.09%,N/A,N/A,N/A,N/A,N/A,124,N/A,6.0,81,N/A,4.7,2.18,NC-08480,35.4261926,-83.4473721,57%,66%,44%,57%,58%,46.1,48,66,N/A,N/A,N/A,N/A,37.86%,44.84%,38.89%
Buies Creek,North Carolina,3388,1118,Dunn,137058,$35109,80.06%,21,$425000,2673,$159,20,34.61%,$868,83.36%,N/A,N/A,46.39%,0.97%,41.3%,Harnett County,36.30%,59.90%,4.87%,9.56%,78.98%,4.63%,5.67%,N/A,N/A,N/A,N/A,N/A,109,N/A,6.5,66,N/A,4.9,3.03,NC-08760,35.4081898,-78.7414169,59%,61%,55%,53%,56%,42.5,47,66,N/A,N/A,N/A,N/A,30.47%,34.73%,31.0%
Bunn,North Carolina,449,831,Raleigh,1420376,$44750,19.88%,44,N/A,N/A,N/A,67,72.16%,$753,43.3%,265,4774,12.69%,1.26%,62.89%,Franklin County,42.40%,53.90%,0.0%,11.8%,78.17%,4.45%,1.56%,Eastern Standard Time,N/A,N/A,N/A,N/A,105,N/A,6.5,68,363,4.6,0.54,NC-08860,35.9590591,-78.2518934,59%,61%,55%,53%,56%,42.5,47,66,N/A,N/A,N/A,N/A,33.45%,34.29%,35.67%
Bunnlevel,North Carolina,779,103,Dunn,137058,$52533,5.26%,47,$301000,2150,$140,31,52.89%,$688,50.14%,N/A,N/A,1.46%,1.08%,62.81%,Harnett County,36.30%,59.90%,0.0%,32.61%,61.1%,5.91%,0.0%,N/A,N/A,N/A,N/A,N/A,108,N/A,6.5,66,N/A,4.9,7.56,NC-08880,35.3100212,-78.7724965,59%,61%,55%,53%,56%,42.5,47,66,N/A,N/A,N/A,N/A,30.47%,34.73%,31.0%
Burgaw,North Carolina,4101,865,Wilmington,301284,$47302,21.03%,43,N/A,N/A,N/A,41,46.1%,$802,61.9%,311,3113,23.52%,5.46%,32.05%,Pender County,33.50%,63.30%,0.15%,42.36%,45.33%,7.73%,4.19%,Eastern Standard Time,N/A,N/A,N/A,N/A,117,N/A,6.5,74,30,4.5,4.74,NC-08960,34.5508423,-77.9223651,59%,61%,55%,53%,56%,42.5,47,66,N/A,N/A,N/A,N/A,34.19%,40.55%,34.22%
Burlington,North Carolina,54534,1812,Burlington,171346,$45587,26.25%,39,$250000,1634,$153,45,55.57%,$823,57.79%,850,4601,19.13%,6.03%,62.93%,Alamance County,41.90%,54.50%,3.05%,27.69%,49.07%,17.75%,11.8%,Eastern Standard Time,N/A,N/A,N/A,N/A,109,N/A,6.5,49,633,4.8,30.1,NC-09060,36.0761114,-79.4683963,59%,61%,55%,53%,56%,41.5,46,65,N/A,N/A,N/A,N/A,34.63%,38.02%,33.22%
Burnsville,North Carolina,2035,1272,None,N/A,$33222,20.98%,41,N/A,N/A,N/A,45,50.84%,$574,45.37%,N/A,N/A,27.14%,10.03%,49.31%,Yancey County,32.10%,64.10%,0.25%,4.52%,80.15%,10.81%,2.9%,N/A,N/A,N/A,N/A,N/A,127,N/A,6.6,83,N/A,4.4,1.6,NC-09140,35.9163118,-82.2976968,59%,59%,57%,55%,59%,44.7,46,64,N/A,N/A,N/A,N/A,46.19%,55.38%,46.78%
Butner,North Carolina,7779,554,Oxford,60486,$60448,20.07%,43,$309000,1736,$178,29,65.97%,$979,44.68%,420,1440,14.3%,6.3%,59.34%,Granville County,47.20%,49.70%,0.36%,36.89%,45.15%,14.8%,8.0%,N/A,N/A,N/A,N/A,N/A,102,N/A,6.5,62,N/A,4.5,14.03,NC-09360,36.1285438,-78.7500785,59%,61%,55%,53%,56%,42.5,47,66,N/A,N/A,N/A,N/A,31.64%,34.07%,32.22%
Butters,North Carolina,153,103,None,N/A,$30885,0.0%,56,N/A,N/A,N/A,52,74.51%,N/A,39.87%,N/A,N/A,0.0%,0.0%,68.63%,Bladen County,44.40%,53.80%,0.0%,0.0%,100.0%,0.0%,0.0%,N/A,N/A,N/A,N/A,N/A,107,N/A,6.5,70,N/A,4.8,1.48,NC-09380,34.560277,-78.8489691,59%,61%,55%,53%,56%,42.5,47,66,N/A,N/A,N/A,N/A,27.26%,32.2%,27.56%
Buxton,North Carolina,1558,199,Kill Devil Hills,37547,$59359,31.03%,34,N/A,N/A,N/A,33,63.06%,$890,50.68%,N/A,N/A,28.31%,14.15%,71.29%,Dare County,36.80%,58.40%,0.0%,0.0%,84.79%,12.64%,4.04%,N/A,N/A,N/A,N/A,N/A,111,N/A,N/A,93,N/A,4.4,7.84,NC-09400,35.2521979,-75.5476479,61%,65%,57%,57%,59%,34.9,48,66,N/A,N/A,N/A,N/A,35.23%,36.7%,37.0%
Cajah's Mountain,North Carolina,2758,814,Hickory-Lenoir-Morganton,370266,$43596,13.55%,44,$204000,1351,$151,42,67.8%,$589,47.09%,N/A,N/A,10.17%,5.39%,61.16%,Caldwell County,23.20%,73.30%,0.0%,0.76%,91.84%,5.95%,2.36%,Eastern Standard Time,N/A,N/A,N/A,N/A,116,N/A,6.4,65,897,4.6,3.39,NC-09530,35.8507125,-81.5361866,64%,68%,58%,52%,55%,38.3,47,66,N/A,N/A,N/A,N/A,35.21%,41.1%,35.0%
Calabash,North Carolina,2057,467,Myrtle Beach-Conway-North Myrtle Beach,514488,$36936,21.12%,55,$257000,1311,$196,32,71.85%,$1091,53.0%,N/A,N/A,25.81%,9.8%,44.78%,Brunswick County,34.10%,62.50%,4.62%,7.39%,73.85%,3.16%,2.92%,Eastern Standard Time,N/A,N/A,N/A,N/A,116,N/A,7.9,79,30,4.9,4.4,NC-09540,33.8957271,-78.5513706,59%,61%,55%,53%,56%,54.4,54,70,N/A,N/A,N/A,N/A,36.58%,44.4%,37.78%
Calypso,North Carolina,647,647,None,N/A,$41850,6.67%,35,N/A,N/A,N/A,54,51.31%,$705,59.58%,N/A,N/A,25.63%,0.0%,67.74%,Duplin County,39.70%,58.60%,0.0%,19.78%,40.49%,35.86%,9.58%,N/A,N/A,N/A,N/A,N/A,116,N/A,6.5,75,N/A,4.9,1.0,NC-09760,35.1545379,-78.1045453,59%,61%,55%,53%,56%,42.5,47,66,N/A,N/A,N/A,N/A,31.07%,35.82%,32.11%
Camden,North Carolina,914,578,Elizabeth City,54039,$44837,24.96%,45,$440000,1905,$231,24,69.91%,$956,33.59%,N/A,N/A,7.99%,7.39%,68.13%,Camden County,25.40%,70.80%,4.92%,21.33%,72.54%,0.0%,3.5%,N/A,N/A,N/A,N/A,N/A,117,N/A,7.7,81,N/A,4.3,1.58,NC-09780,36.3249529,-76.1700272,61%,65%,57%,57%,59%,34.9,48,66,N/A,N/A,N/A,N/A,31.95%,31.1%,34.78%
Cameron,North Carolina,476,393,Pinehurst-Southern Pines,103352,$60729,27.16%,39,$310000,1856,$167,65,91.39%,$775,52.88%,N/A,N/A,2.73%,5.33%,79.6%,Moore County,33.50%,62.60%,0.0%,43.91%,46.43%,9.66%,0.42%,N/A,N/A,N/A,N/A,N/A,106,N/A,6.5,67,N/A,4.9,1.21,NC-09800,35.3258723,-79.2541781,59%,61%,55%,53%,56%,42.5,47,66,N/A,N/A,N/A,N/A,25.95%,28.57%,26.56%
Candor,North Carolina,1173,578,None,N/A,$41705,15.24%,29,N/A,N/A,N/A,48,64.23%,$670,58.17%,N/A,N/A,34.84%,0.87%,62.7%,Montgomery County,36.00%,61.80%,0.0%,17.39%,38.62%,42.37%,22.42%,N/A,N/A,N/A,N/A,N/A,106,N/A,6.4,67,N/A,4.8,2.03,NC-10120,35.2963891,-79.732519,64%,68%,58%,52%,55%,41.5,46,65,N/A,N/A,N/A,N/A,31.26%,35.49%,32.67%
Canton,North Carolina,4313,1159,Asheville,466634,$47899,11.1%,42,$455000,2630,$173,67,65.12%,$676,53.55%,367,5196,8.58%,7.69%,60.62%,Haywood County,34.10%,61.60%,0.0%,0.79%,94.37%,3.45%,2.99%,Eastern Standard Time,N/A,N/A,N/A,N/A,138,N/A,6.6,74,2207,4.7,3.72,NC-10240,35.5363877,-82.8384786,59%,59%,57%,55%,59%,44.7,46,64,N/A,N/A,N/A,N/A,37.4%,44.73%,34.11%
Cape Carteret,North Carolina,2730,1083,Morehead City,69558,$78056,35.62%,40,$423000,2238,$189,31,74.03%,$1374,31.35%,192,1445,6.5%,3.07%,59.31%,Carteret County,26.30%,70.30%,0.0%,0.55%,92.75%,5.71%,2.16%,N/A,N/A,N/A,N/A,N/A,119,N/A,6.5,86,N/A,4.6,2.52,NC-10260,34.6973592,-77.0572251,59%,61%,55%,53%,56%,42.5,47,66,N/A,N/A,N/A,N/A,36.6%,41.76%,38.0%
Caroleen,North Carolina,447,403,Forest City,67076,$39047,23.71%,54,$120000,1935,$62,69,82.55%,N/A,53.69%,N/A,N/A,14.09%,0.0%,58.84%,Rutherford County,24.80%,72.20%,0.0%,10.96%,89.04%,0.0%,0.0%,N/A,N/A,N/A,N/A,N/A,112,N/A,6.6,65,N/A,4.9,1.11,NC-10460,35.281094,-81.7913727,59%,59%,57%,55%,59%,42.5,48,66,N/A,N/A,N/A,N/A,32.66%,38.24%,32.44%
Carolina Beach,North Carolina,6324,2581,Wilmington,301284,$68773,43.35%,48,$565000,1256,$450,32,70.05%,$1157,39.65%,450,2905,8.58%,8.81%,63.95%,New Hanover County,45.60%,49.50%,0.13%,0.14%,96.08%,1.64%,3.16%,Eastern Standard Time,N/A,N/A,N/A,N/A,118,N/A,6.5,82,30,4.6,2.45,NC-10500,34.0398487,-77.8961404,59%,61%,55%,53%,56%,42.5,47,66,N/A,N/A,N/A,N/A,30.96%,34.84%,33.11%
Carolina Shores,North Carolina,4391,1632,Myrtle Beach-Conway-North Myrtle Beach,514488,$57454,23.68%,66,$310000,1845,$168,18,96.22%,$1596,36.18%,N/A,N/A,5.12%,11.86%,30.84%,Brunswick County,34.10%,62.50%,0.0%,1.71%,88.45%,0.36%,2.76%,Eastern Standard Time,N/A,N/A,N/A,N/A,116,N/A,7.9,76,30,4.9,2.69,NC-10550,33.9076196,-78.5740874,59%,61%,55%,53%,56%,54.4,54,70,N/A,N/A,N/A,N/A,36.58%,44.4%,37.78%
Carrboro,North Carolina,21254,3280,Durham-Chapel Hill,652542,$67469,69.68%,33,$435000,1617,$269,34,47.9%,$1152,54.14%,N/A,N/A,14.09%,3.6%,71.81%,Orange County,72.80%,22.50%,7.28%,16.11%,65.79%,6.62%,13.22%,Eastern Standard Time,N/A,N/A,N/A,N/A,114,N/A,6.5,53,441,4.5,6.48,NC-10620,35.9259735,-79.0877759,59%,61%,55%,53%,56%,42.5,47,66,N/A,N/A,N/A,N/A,32.79%,33.85%,35.0%
Carthage,North Carolina,2518,379,Pinehurst-Southern Pines,103352,$41731,19.23%,44,$330000,2463,$134,32,77.43%,$747,54.36%,158,2852,10.49%,2.01%,59.98%,Moore County,33.50%,62.60%,0.0%,15.41%,77.52%,3.02%,2.03%,N/A,N/A,N/A,N/A,N/A,107,N/A,6.5,67,N/A,4.9,6.65,NC-10680,35.3225285,-79.4114102,59%,61%,55%,53%,56%,42.5,47,66,N/A,N/A,N/A,N/A,31.26%,35.49%,32.67%
Cary,North Carolina,169177,2856,Durham-Chapel Hill,652542,$107463,68.57%,40,$565000,2316,$244,23,70.73%,$1312,36.58%,66,904,4.72%,3.26%,70.62%,Wake County,57.40%,37.20%,19.86%,7.59%,61.0%,8.11%,22.41%,Eastern Standard Time,N/A,N/A,N/A,N/A,107,N/A,6.5,56,441,4.9,59.23,NC-10740,35.7817891,-78.8193496,59%,61%,55%,53%,56%,42.5,47,66,N/A,N/A,N/A,N/A,22.0%,24.18%,22.33%
Casar,North Carolina,361,206,Shelby,99035,$48125,12.92%,34,N/A,N/A,N/A,42,79.5%,$575,64.42%,N/A,N/A,30.75%,21.62%,72.08%,Cleveland County,33.50%,63.70%,0.0%,0.0%,97.78%,2.22%,0.0%,N/A,N/A,N/A,N/A,N/A,108,N/A,6.4,71,N/A,4.6,1.75,NC-10760,35.512708,-81.6168442,64%,68%,58%,52%,55%,38.3,47,66,N/A,N/A,N/A,N/A,32.11%,38.46%,32.11%
Cashiers,North Carolina,728,178,Cullowhee,58212,$68669,36.0%,60,N/A,N/A,N/A,41,76.1%,$765,26.92%,N/A,N/A,2.06%,0.0%,67.23%,Jackson County,41.20%,52.70%,0.0%,0.0%,97.94%,2.06%,3.16%,N/A,N/A,N/A,N/A,N/A,146,N/A,6.6,84,N/A,4.8,4.1,NC-10800,35.1065846,-83.0971447,59%,59%,57%,55%,59%,44.7,46,64,N/A,N/A,N/A,N/A,42.85%,51.87%,45.22%
Castalia,North Carolina,276,368,Rocky Mount,145688,$32292,13.0%,53,N/A,N/A,N/A,52,88.41%,$579,51.63%,N/A,N/A,22.46%,3.17%,51.22%,Nash County,48.70%,48.90%,0.0%,57.97%,40.58%,1.45%,0.0%,Eastern Standard Time,N/A,N/A,N/A,N/A,103,N/A,6.5,71,150,4.7,0.75,NC-10860,36.0822793,-78.057597,59%,61%,55%,53%,56%,42.5,47,66,N/A,N/A,N/A,N/A,33.45%,34.29%,35.67%
Castle Hayne,North Carolina,993,209,Wilmington,301284,$48750,14.64%,58,N/A,N/A,N/A,28,78.35%,$771,46.61%,N/A,N/A,6.24%,3.23%,44.83%,New Hanover County,45.60%,49.50%,2.01%,5.64%,78.65%,11.88%,9.37%,Eastern Standard Time,N/A,N/A,N/A,N/A,120,N/A,6.5,71,30,4.6,4.76,NC-10880,34.3582629,-77.9113789,59%,61%,55%,53%,56%,42.5,47,66,N/A,N/A,N/A,N/A,34.19%,40.55%,34.22%
Caswell Beach,North Carolina,578,195,Myrtle Beach-Conway-North Myrtle Beach,514488,$122813,55.15%,58,$490000,1607,$305,29,99.65%,N/A,27.55%,N/A,N/A,1.21%,1.81%,54.53%,Brunswick County,34.10%,62.50%,3.63%,0.0%,94.64%,1.56%,5.19%,Eastern Standard Time,N/A,N/A,N/A,N/A,118,N/A,7.9,86,30,4.9,2.97,NC-10960,33.9074579,-78.0471698,59%,61%,55%,53%,56%,54.4,54,70,N/A,N/A,N/A,N/A,30.96%,34.84%,33.11%
Catawba,North Carolina,588,133,Hickory-Lenoir-Morganton,370266,$38750,7.11%,49,$465000,1970,$236,61,64.46%,$924,49.72%,N/A,N/A,16.98%,6.73%,60.0%,Catawba County,29.30%,66.80%,0.0%,22.45%,72.45%,3.06%,1.7%,Eastern Standard Time,N/A,N/A,N/A,N/A,106,N/A,6.4,64,897,4.6,4.43,NC-10980,35.7095048,-81.0668455,64%,68%,58%,52%,55%,38.3,47,66,N/A,N/A,N/A,N/A,33.32%,37.25%,34.44%
Cedar Point,North Carolina,2176,980,Morehead City,69558,$79875,44.57%,44,$405000,1633,$248,19,85.75%,$1281,32.37%,N/A,N/A,4.92%,1.36%,66.32%,Carteret County,26.30%,70.30%,1.24%,2.57%,83.87%,4.5%,2.85%,N/A,N/A,N/A,N/A,N/A,119,N/A,6.5,85,N/A,4.6,2.22,NC-11340,34.6863039,-77.0832775,59%,61%,55%,53%,56%,42.5,47,66,N/A,N/A,N/A,N/A,36.6%,41.76%,38.0%
Cedar Rock,North Carolina,284,249,Hickory-Lenoir-Morganton,370266,$70417,43.04%,51,$400000,3077,$130,44,98.59%,N/A,34.73%,N/A,N/A,1.76%,0.71%,59.0%,Caldwell County,23.20%,73.30%,0.0%,0.0%,96.13%,3.52%,0.7%,Eastern Standard Time,N/A,N/A,N/A,N/A,116,N/A,6.4,73,897,4.6,1.14,NC-11352,35.9434583,-81.4583732,64%,68%,58%,52%,55%,40.6,45,63,N/A,N/A,N/A,N/A,35.21%,41.1%,35.0%
Centerville,North Carolina,302,185,Raleigh,1420376,$92656,16.99%,31,N/A,N/A,N/A,52,40.07%,$690,37.45%,N/A,N/A,2.65%,16.55%,55.38%,Franklin County,42.40%,53.90%,0.0%,0.0%,100.0%,0.0%,0.0%,Eastern Standard Time,N/A,N/A,N/A,N/A,105,N/A,6.5,70,363,4.6,1.63,NC-11560,36.1865332,-78.1113104,59%,61%,55%,53%,56%,42.5,47,66,N/A,N/A,N/A,N/A,33.45%,34.29%,35.67%
Cerro Gordo,North Carolina,322,408,None,N/A,$32500,12.65%,49,N/A,N/A,N/A,47,82.3%,$677,55.63%,N/A,N/A,30.43%,0.0%,40.86%,Columbus County,38.20%,60.10%,0.0%,5.28%,84.78%,9.94%,7.76%,N/A,N/A,N/A,N/A,N/A,112,N/A,6.5,71,N/A,4.9,0.79,NC-11620,34.3225672,-78.9287222,59%,61%,55%,53%,56%,42.5,47,66,N/A,N/A,N/A,N/A,27.26%,32.2%,27.56%
Chadbourn,North Carolina,2038,784,None,N/A,$23750,7.73%,37,N/A,N/A,N/A,48,50.57%,$534,69.64%,N/A,N/A,51.09%,12.88%,41.43%,Columbus County,38.20%,60.10%,0.0%,66.98%,25.76%,0.39%,7.11%,N/A,N/A,N/A,N/A,N/A,112,N/A,6.5,71,N/A,4.9,2.6,NC-11640,34.3251657,-78.82499,59%,61%,55%,53%,56%,42.5,47,66,N/A,N/A,N/A,N/A,27.26%,32.2%,27.56%
Chapel Hill,North Carolina,61912,2869,Durham-Chapel Hill,652542,$75249,76.86%,25,$525000,2117,$248,33,54.01%,$1221,62.91%,94,1506,18.51%,5.07%,59.05%,Orange County,72.80%,22.50%,13.52%,10.24%,65.89%,7.15%,15.72%,Eastern Standard Time,N/A,N/A,N/A,N/A,114,N/A,6.5,50,441,4.5,21.58,NC-11800,35.9270611,-79.0390576,59%,61%,55%,53%,56%,42.5,47,66,N/A,N/A,N/A,N/A,32.79%,33.85%,35.0%
Charlotte,North Carolina,873570,2834,Charlotte-Concord-Gastonia,2684276,$65359,44.78%,34,$395000,1779,$222,29,56.1%,$1185,55.35%,N/A,N/A,11.94%,4.95%,71.77%,Mecklenburg County,62.30%,32.90%,6.63%,35.47%,40.75%,14.57%,17.19%,Eastern Standard Time,N/A,N/A,N/A,N/A,105,N/A,6.4,43,769,4.6,308.29,NC-12000,35.2082993,-80.8303106,64%,68%,58%,52%,55%,38.3,47,66,N/A,N/A,N/A,N/A,30.79%,32.97%,33.56%
Cherokee,North Carolina,2120,176,Cullowhee,58212,$43382,17.48%,46,N/A,N/A,N/A,37,78.7%,$531,56.53%,N/A,N/A,14.54%,1.36%,51.18%,Jackson County,41.20%,52.70%,2.12%,1.51%,12.22%,1.04%,3.16%,N/A,N/A,N/A,N/A,N/A,125,N/A,6.6,84,N/A,4.7,12.07,NC-12140,35.4859553,-83.3010929,59%,59%,57%,55%,59%,44.7,46,64,N/A,N/A,N/A,N/A,37.86%,44.84%,38.89%
Cherryville,North Carolina,6018,1090,Charlotte-Concord-Gastonia,2684276,$49420,20.8%,39,$257000,2089,$123,52,68.21%,$747,51.82%,263,2523,13.36%,3.29%,54.67%,Gaston County,32.30%,64.10%,0.13%,5.15%,88.97%,4.34%,1.69%,Eastern Standard Time,N/A,N/A,N/A,N/A,107,N/A,6.4,62,769,4.8,5.52,NC-12340,35.3844062,-81.3781765,64%,68%,58%,52%,55%,38.3,47,66,N/A,N/A,N/A,N/A,32.93%,38.35%,31.0%
Chimney Rock Village,North Carolina,174,52,Forest City,67076,$56250,26.85%,56,N/A,N/A,N/A,50,64.37%,$1297,46.0%,N/A,N/A,9.77%,1.33%,50.0%,Rutherford County,24.80%,72.20%,0.0%,0.0%,83.91%,5.75%,1.15%,N/A,N/A,N/A,N/A,N/A,112,N/A,6.6,77,N/A,4.9,3.36,NC-12460,35.450312,-82.2549922,59%,59%,57%,55%,59%,44.7,46,64,N/A,N/A,N/A,N/A,35.7%,42.64%,34.44%
China Grove,North Carolina,4225,1183,Charlotte-Concord-Gastonia,2684276,$38710,15.03%,48,$338000,2074,$163,46,69.32%,$740,49.86%,N/A,N/A,20.59%,4.29%,53.85%,Rowan County,30.10%,66.50%,1.16%,2.51%,81.75%,11.55%,4.97%,Eastern Standard Time,N/A,N/A,N/A,N/A,102,N/A,6.4,55,769,4.7,3.57,NC-12480,35.5719665,-80.5790574,64%,68%,58%,52%,55%,38.3,47,66,N/A,N/A,N/A,N/A,29.81%,32.09%,32.0%
Chocowinity,North Carolina,1331,1318,Washington,47073,$26996,7.81%,30,N/A,N/A,N/A,35,25.11%,$686,68.51%,755,2896,27.09%,28.2%,68.75%,Beaufort County,36.60%,60.80%,0.0%,53.87%,32.98%,12.25%,6.99%,N/A,N/A,N/A,N/A,N/A,113,N/A,6.5,78,N/A,4.4,1.01,NC-12580,35.5147155,-77.1016696,59%,61%,55%,53%,56%,42.5,47,66,N/A,N/A,N/A,N/A,33.86%,39.12%,34.22%
Claremont,North Carolina,1924,675,Hickory-Lenoir-Morganton,370266,$54830,20.66%,41,$288000,1986,$145,28,63.51%,$840,44.89%,N/A,N/A,7.22%,4.13%,68.13%,Catawba County,29.30%,66.80%,3.01%,2.6%,80.56%,10.5%,2.13%,Eastern Standard Time,N/A,N/A,N/A,N/A,106,N/A,6.4,62,897,4.6,2.85,NC-12720,35.7103361,-81.1529595,64%,68%,58%,52%,55%,38.3,47,66,N/A,N/A,N/A,N/A,33.1%,38.9%,31.33%
Clarkton,North Carolina,972,778,None,N/A,$17875,12.05%,32,N/A,N/A,N/A,44,41.26%,$543,52.69%,N/A,N/A,44.16%,7.22%,44.91%,Bladen County,44.40%,53.80%,0.0%,60.19%,36.11%,4.01%,0.41%,N/A,N/A,N/A,N/A,N/A,113,N/A,6.5,74,N/A,4.8,1.25,NC-12780,34.4890591,-78.6559074,59%,61%,55%,53%,56%,42.5,47,66,N/A,N/A,N/A,N/A,27.26%,32.2%,27.56%
Clayton,North Carolina,23179,1521,Raleigh,1420376,$61954,30.69%,35,$360000,2022,$178,18,70.8%,$1060,46.76%,167,2084,9.08%,2.7%,68.73%,Johnston County,33.00%,63.30%,0.68%,23.39%,56.86%,16.06%,10.04%,Eastern Standard Time,N/A,N/A,N/A,N/A,104,N/A,6.5,65,363,4.6,15.24,NC-12860,35.6590646,-78.449829,59%,61%,55%,53%,56%,42.5,47,66,N/A,N/A,N/A,N/A,36.36%,38.9%,38.0%
Clemmons,North Carolina,20574,1730,Winston-Salem,679731,$74679,49.55%,41,$362000,2277,$159,29,74.71%,$893,40.04%,N/A,N/A,4.67%,3.82%,62.32%,Forsyth County,53.00%,42.60%,5.02%,6.41%,78.22%,8.83%,8.18%,Eastern Standard Time,N/A,N/A,N/A,N/A,109,N/A,6.4,61,970,4.7,11.89,NC-12960,36.0318827,-80.3860998,64%,68%,58%,52%,55%,41.5,46,65,N/A,N/A,N/A,N/A,33.37%,36.37%,34.67%
Cleveland,North Carolina,1147,745,Charlotte-Concord-Gastonia,2684276,$48750,22.62%,36,$252000,1306,$193,40,74.02%,$646,52.84%,453,1587,20.75%,4.31%,55.28%,Rowan County,30.10%,66.50%,0.0%,40.54%,50.48%,8.72%,3.4%,Eastern Standard Time,N/A,N/A,N/A,N/A,104,N/A,6.4,62,769,4.7,1.54,NC-13000,35.7330651,-80.6816787,64%,68%,58%,52%,55%,38.3,47,66,N/A,N/A,N/A,N/A,33.12%,35.05%,35.33%
Cliffside,North Carolina,707,303,Forest City,67076,$52895,16.57%,42,$232000,2035,$114,35,91.65%,N/A,75.15%,N/A,N/A,0.0%,0.0%,28.61%,Rutherford County,24.80%,72.20%,0.0%,8.77%,91.23%,0.0%,0.0%,N/A,N/A,N/A,N/A,N/A,114,N/A,6.6,65,N/A,4.9,2.33,NC-13100,35.2480035,-81.7652875,59%,59%,57%,55%,59%,42.5,48,66,N/A,N/A,N/A,N/A,32.11%,38.46%,32.11%
Clinton,North Carolina,8480,1111,None,N/A,$33679,22.75%,44,N/A,N/A,N/A,48,53.81%,$671,60.1%,N/A,N/A,27.07%,5.9%,48.27%,Sampson County,40.70%,57.20%,2.18%,39.23%,37.87%,17.48%,9.89%,N/A,N/A,N/A,N/A,N/A,113,N/A,6.5,72,N/A,4.5,7.63,NC-13240,35.0004376,-78.3312637,59%,61%,55%,53%,56%,42.5,47,66,N/A,N/A,N/A,N/A,31.07%,35.82%,32.11%
Clyde,North Carolina,1483,1705,Asheville,466634,$57721,20.97%,39,$299000,1384,$216,34,86.11%,$837,43.22%,N/A,N/A,6.74%,1.77%,67.54%,Haywood County,34.10%,61.60%,0.0%,0.07%,79.1%,20.84%,5.39%,Eastern Standard Time,N/A,N/A,N/A,N/A,138,N/A,6.6,79,2207,4.7,0.87,NC-13280,35.5330767,-82.9108065,59%,59%,57%,55%,59%,44.7,46,64,N/A,N/A,N/A,N/A,39.56%,46.81%,40.22%
Coats,North Carolina,2463,1747,Dunn,137058,$39659,14.37%,35,$465000,2236,$208,46,48.37%,$786,47.54%,N/A,N/A,20.1%,4.38%,55.69%,Harnett County,36.30%,59.90%,0.37%,16.85%,70.32%,8.12%,3.09%,N/A,N/A,N/A,N/A,N/A,108,N/A,6.5,67,N/A,4.9,1.41,NC-13360,35.4069297,-78.6684298,59%,61%,55%,53%,56%,42.5,47,66,N/A,N/A,N/A,N/A,30.47%,34.73%,31.0%
Cofield,North Carolina,421,134,None,N/A,$54091,29.17%,42,N/A,N/A,N/A,44,51.82%,$718,60.59%,N/A,N/A,21.85%,8.85%,56.47%,Hertford County,67.80%,30.40%,0.48%,78.86%,14.01%,3.56%,5.23%,N/A,N/A,N/A,N/A,N/A,109,N/A,7.7,76,N/A,4.5,3.14,NC-13460,36.3566896,-76.910517,61%,65%,57%,57%,59%,34.9,48,66,N/A,N/A,N/A,N/A,31.56%,31.65%,33.33%
Coinjock,North Carolina,379,451,Virginia Beach-Norfolk-Newport News,1779824,$54875,29.15%,39,$300000,1402,$214,55,88.39%,N/A,41.9%,N/A,N/A,3.17%,8.38%,58.41%,Currituck County,23.00%,72.30%,2.11%,14.78%,71.24%,11.87%,3.43%,Eastern Standard Time,N/A,N/A,N/A,N/A,120,N/A,7.7,83,30,4.3,0.84,NC-13500,36.3512162,-75.9526254,61%,65%,57%,57%,59%,34.9,48,66,N/A,N/A,N/A,N/A,32.49%,37.03%,32.44%
Colerain,North Carolina,270,1038,None,N/A,$64722,17.13%,37,N/A,N/A,N/A,67,63.7%,$688,60.34%,N/A,N/A,11.46%,13.04%,70.61%,Bertie County,61.80%,37.00%,0.37%,19.26%,78.89%,1.11%,0.37%,N/A,N/A,N/A,N/A,N/A,103,N/A,7.7,78,N/A,4.2,0.26,NC-13560,36.2015735,-76.7664001,61%,65%,57%,57%,59%,34.9,48,66,N/A,N/A,N/A,N/A,27.4%,30.33%,27.89%
Columbia,North Carolina,678,556,Kill Devil Hills,37547,$17024,7.3%,41,N/A,N/A,N/A,63,39.97%,$507,56.84%,N/A,N/A,43.22%,5.45%,53.82%,Tyrrell County,41.40%,56.10%,0.0%,44.25%,39.23%,16.96%,7.37%,N/A,N/A,N/A,N/A,N/A,116,N/A,7.7,84,N/A,4.2,1.22,NC-13940,35.9199412,-76.2422798,61%,65%,57%,57%,59%,34.9,48,66,N/A,N/A,N/A,N/A,27.4%,30.33%,27.89%
Columbus,North Carolina,1240,330,None,N/A,$43125,21.61%,48,N/A,N/A,N/A,49,54.29%,$617,47.72%,100,4723,26.33%,1.74%,58.16%,Polk County,34.20%,61.90%,0.56%,2.42%,72.74%,17.02%,9.03%,N/A,N/A,N/A,N/A,N/A,117,N/A,6.6,68,N/A,5,3.76,NC-13980,35.2490438,-82.2010195,59%,59%,57%,55%,59%,44.7,46,64,N/A,N/A,N/A,N/A,31.4%,39.12%,31.22%
Como,North Carolina,114,36,None,N/A,$35000,6.32%,51,N/A,N/A,N/A,61,75.44%,N/A,48.62%,N/A,N/A,19.3%,18.92%,67.89%,Hertford County,67.80%,30.40%,0.0%,13.16%,85.09%,0.0%,0.0%,N/A,N/A,N/A,N/A,N/A,107,N/A,7.7,74,N/A,4.5,3.15,NC-14060,36.5010592,-77.0073134,61%,65%,57%,57%,59%,34.9,48,66,N/A,N/A,N/A,N/A,31.56%,31.65%,33.33%
Concord,North Carolina,94147,1483,Charlotte-Concord-Gastonia,2684276,$70973,38.28%,38,$363000,1911,$190,25,71.37%,$1011,47.23%,121,1649,9.99%,5.26%,69.75%,Cabarrus County,38.10%,57.70%,5.68%,22.04%,56.38%,13.3%,11.46%,Eastern Standard Time,N/A,N/A,N/A,N/A,102,N/A,6.4,52,769,4.7,63.48,NC-14100,35.3932714,-80.6367847,64%,68%,58%,52%,55%,38.3,47,66,N/A,N/A,N/A,N/A,31.53%,34.73%,32.78%
Conetoe,North Carolina,599,1664,Rocky Mount,145688,$31589,4.07%,21,N/A,N/A,N/A,36,21.7%,$932,60.45%,N/A,N/A,69.62%,0.0%,42.69%,Edgecombe County,65.20%,33.20%,0.0%,83.14%,6.18%,3.34%,2.0%,Eastern Standard Time,N/A,N/A,N/A,N/A,111,N/A,6.5,75,150,4.7,0.36,NC-14200,35.8176272,-77.4571319,59%,61%,55%,53%,56%,42.5,47,66,N/A,N/A,N/A,N/A,34.36%,38.35%,34.44%
Connelly Springs,North Carolina,2272,455,Hickory-Lenoir-Morganton,370266,$44625,11.46%,47,$208000,1333,$156,35,72.93%,$663,41.72%,N/A,N/A,14.42%,10.99%,44.81%,Burke County,28.90%,67.40%,3.83%,5.55%,82.35%,6.78%,3.87%,Eastern Standard Time,N/A,N/A,N/A,N/A,114,N/A,6.4,67,897,4.6,4.99,NC-14280,35.7549929,-81.4970445,64%,68%,58%,52%,55%,38.3,47,66,N/A,N/A,N/A,N/A,33.37%,39.34%,31.44%
Conover,North Carolina,8488,760,Hickory-Lenoir-Morganton,370266,$48989,20.63%,39,$259000,1431,$181,30,70.15%,$737,50.5%,N/A,N/A,12.48%,2.98%,59.77%,Catawba County,29.30%,66.80%,8.07%,7.01%,69.82%,12.91%,9.57%,Eastern Standard Time,N/A,N/A,N/A,N/A,106,N/A,6.4,63,897,4.6,11.17,NC-14340,35.7155113,-81.2173945,64%,68%,58%,52%,55%,38.3,47,66,N/A,N/A,N/A,N/A,33.1%,38.9%,31.33%
Conway,North Carolina,671,369,Roanoke Rapids,68567,$38203,18.2%,34,N/A,N/A,N/A,43,63.93%,$310,50.32%,N/A,N/A,33.13%,4.33%,46.33%,Northampton County,62.40%,36.40%,0.0%,45.75%,41.88%,12.22%,3.28%,N/A,N/A,N/A,N/A,N/A,104,N/A,7.7,74,N/A,4.6,1.82,NC-14400,36.4371193,-77.2288195,61%,65%,57%,57%,59%,34.9,48,66,N/A,N/A,N/A,N/A,31.56%,31.65%,33.33%
Cooleemee,North Carolina,1028,1371,Winston-Salem,679731,$46250,16.05%,35,$130000,1444,$90,78,52.33%,$1020,53.68%,0,2063,24.81%,9.94%,64.69%,Davie County,24.20%,71.70%,4.67%,8.95%,69.46%,2.04%,5.35%,Eastern Standard Time,N/A,N/A,N/A,N/A,102,N/A,6.4,63,970,4.4,0.75,NC-14460,35.8124981,-80.5563615,64%,68%,58%,52%,55%,38.3,47,66,N/A,N/A,N/A,N/A,33.12%,35.05%,35.33%
Cordova,North Carolina,1323,621,Rockingham,44332,$47671,24.4%,49,$135000,1350,$100,30,75.66%,N/A,49.48%,N/A,N/A,20.79%,0.92%,68.6%,Richmond County,44.00%,53.70%,0.0%,14.66%,78.84%,0.0%,0.0%,N/A,N/A,N/A,N/A,N/A,105,N/A,6.4,65,N/A,4.7,2.13,NC-14600,34.9102291,-79.8119172,64%,68%,58%,52%,55%,38.3,47,66,N/A,N/A,N/A,N/A,34.85%,38.02%,39.33%
Cornelius,North Carolina,29836,2360,Charlotte-Concord-Gastonia,2684276,$90377,54.35%,43,$505000,1906,$265,20,74.84%,$1236,43.2%,N/A,N/A,7.02%,3.7%,64.53%,Mecklenburg County,62.30%,32.90%,1.79%,7.37%,81.3%,7.07%,8.2%,Eastern Standard Time,N/A,N/A,N/A,N/A,107,N/A,6.4,41,769,4.6,12.64,NC-14700,35.4723999,-80.8813488,64%,68%,58%,52%,55%,38.3,47,66,N/A,N/A,N/A,N/A,27.23%,30.44%,29.0%
Cove City,North Carolina,607,948,New Bern,123198,$47857,20.44%,55,N/A,N/A,N/A,35,57.5%,$839,44.4%,N/A,N/A,12.11%,5.38%,45.23%,Craven County,37.50%,59.00%,0.0%,29.98%,66.23%,3.29%,0.66%,Eastern Standard Time,N/A,N/A,N/A,N/A,118,N/A,6.5,78,10,4.7,0.64,NC-15020,35.1889683,-77.3205237,59%,61%,55%,53%,56%,42.5,47,66,N/A,N/A,N/A,N/A,26.96%,31.43%,26.56%
Cove Creek,North Carolina,1087,127,Boone,56441,$47432,29.71%,53,$490000,1690,$290,52,94.3%,N/A,45.98%,N/A,N/A,17.02%,1.52%,66.84%,Watauga County,47.20%,45.70%,0.0%,0.0%,84.36%,15.64%,7.27%,N/A,N/A,N/A,N/A,N/A,132,N/A,6.6,85,N/A,4.6,8.54,NC-15040,36.276295,-81.7829538,59%,59%,57%,55%,59%,40.6,45,63,N/A,N/A,N/A,N/A,46.55%,46.81%,53.78%
Cramerton,North Carolina,4417,1144,Charlotte-Concord-Gastonia,2684276,$87927,38.74%,41,$380000,2088,$182,23,64.33%,$1035,38.38%,N/A,N/A,3.64%,2.86%,74.1%,Gaston County,32.30%,64.10%,4.1%,9.06%,79.69%,3.08%,4.26%,Eastern Standard Time,N/A,N/A,N/A,N/A,105,N/A,6.4,49,769,4.8,3.86,NC-15260,35.2344104,-81.0734712,64%,68%,58%,52%,55%,38.3,47,66,N/A,N/A,N/A,N/A,29.7%,33.74%,32.11%
Creedmoor,North Carolina,4539,848,Oxford,60486,$78119,35.27%,36,$320000,1788,$179,18,87.52%,$1085,34.55%,215,1186,15.18%,2.12%,66.48%,Granville County,47.20%,49.70%,0.64%,30.95%,50.56%,9.47%,4.1%,N/A,N/A,N/A,N/A,N/A,105,N/A,6.5,63,N/A,4.5,5.35,NC-15320,36.1222927,-78.6757417,59%,61%,55%,53%,56%,42.5,47,66,N/A,N/A,N/A,N/A,31.64%,34.07%,32.22%
Creswell,North Carolina,161,282,None,N/A,$25875,10.66%,51,N/A,N/A,N/A,47,51.55%,N/A,44.68%,N/A,N/A,22.36%,0.0%,46.81%,Washington County,56.90%,41.60%,0.0%,33.54%,57.14%,9.32%,7.45%,N/A,N/A,N/A,N/A,N/A,111,N/A,6.5,83,N/A,4.6,0.57,NC-15420,35.8702025,-76.3924262,61%,65%,57%,57%,59%,34.9,48,66,N/A,N/A,N/A,N/A,27.4%,30.33%,27.89%
Cricket,North Carolina,2453,693,North Wilkesboro,68043,$35345,16.09%,29,$425000,1824,$233,55,56.34%,$783,56.21%,N/A,N/A,21.35%,2.63%,64.87%,Wilkes County,21.20%,75.90%,0.0%,0.33%,82.14%,17.16%,6.48%,N/A,N/A,N/A,N/A,N/A,124,N/A,6.4,71,N/A,4.4,3.54,NC-15440,36.1688438,-81.1934022,64%,68%,58%,52%,55%,40.6,45,63,N/A,N/A,N/A,N/A,38.66%,45.71%,36.56%
Crossnore,North Carolina,146,324,None,N/A,$79375,23.68%,17,N/A,N/A,N/A,54,100.0%,N/A,61.36%,N/A,N/A,0.0%,0.0%,21.18%,Avery County,20.50%,76.30%,0.0%,23.29%,76.71%,0.0%,0.0%,N/A,N/A,N/A,N/A,N/A,147,N/A,6.6,85,N/A,5,0.45,NC-15580,36.0221981,-81.9308415,59%,59%,57%,55%,59%,40.6,45,63,N/A,N/A,N/A,N/A,46.99%,52.31%,48.67%
Cullowhee,North Carolina,6798,1784,Cullowhee,58212,$30168,58.58%,21,$465000,3275,$142,18,17.9%,$685,96.28%,N/A,N/A,47.62%,10.25%,48.69%,Jackson County,41.20%,52.70%,1.24%,9.4%,81.05%,6.99%,1.91%,N/A,N/A,N/A,N/A,N/A,137,N/A,6.6,81,N/A,4.8,3.81,NC-15880,35.3097265,-83.1815487,59%,59%,57%,55%,59%,44.7,46,64,N/A,N/A,N/A,N/A,37.86%,44.84%,38.89%
Dallas,North Carolina,4744,1614,Charlotte-Concord-Gastonia,2684276,$46189,13.11%,39,$275000,1519,$181,45,59.65%,$739,54.81%,417,3196,14.26%,9.93%,64.93%,Gaston County,32.30%,64.10%,1.16%,25.57%,57.65%,12.82%,8.37%,Eastern Standard Time,N/A,N/A,N/A,N/A,105,N/A,6.4,53,769,4.8,2.94,NC-16180,35.3169436,-81.1827608,64%,68%,58%,52%,55%,38.3,47,66,N/A,N/A,N/A,N/A,29.7%,33.74%,32.11%
Dana,North Carolina,3830,430,Asheville,466634,$47547,15.79%,37,$481000,2021,$238,32,78.77%,$810,41.99%,N/A,N/A,14.88%,3.28%,63.77%,Henderson County,34.10%,61.60%,0.0%,3.03%,68.36%,27.1%,10.5%,Eastern Standard Time,N/A,N/A,N/A,N/A,125,N/A,6.6,75,2207,4.8,8.9,NC-16220,35.3239527,-82.3722239,59%,59%,57%,55%,59%,44.7,46,64,N/A,N/A,N/A,N/A,37.97%,45.38%,38.56%
Danbury,North Carolina,211,281,Winston-Salem,679731,$85909,41.22%,46,N/A,N/A,N/A,49,99.32%,N/A,50.71%,N/A,N/A,0.0%,27.78%,34.95%,Stokes County,20.70%,75.90%,0.0%,3.32%,93.36%,0.0%,0.0%,Eastern Standard Time,N/A,N/A,N/A,N/A,114,N/A,6.6,74,970,4.7,0.75,NC-16240,36.4111535,-80.212047,59%,64%,54%,51%,54%,41.5,46,65,N/A,N/A,N/A,N/A,36.03%,39.23%,33.56%
Davidson,North Carolina,12920,2051,Charlotte-Concord-Gastonia,2684276,$131144,73.84%,38,$703000,2604,$270,20,82.63%,$1297,42.27%,60,917,5.97%,3.12%,63.45%,Mecklenburg County,62.30%,32.90%,1.58%,8.01%,82.69%,5.19%,4.71%,Eastern Standard Time,N/A,N/A,N/A,N/A,107,N/A,6.4,37,769,4.6,6.3,NC-16400,35.5006841,-80.8468122,64%,68%,58%,52%,55%,38.3,47,66,N/A,N/A,N/A,N/A,29.81%,32.09%,32.0%
Davis,North Carolina,226,104,Morehead City,69558,$39583,5.29%,43,N/A,N/A,N/A,57,82.74%,N/A,46.31%,N/A,N/A,0.0%,0.0%,40.89%,Carteret County,26.30%,70.30%,0.0%,0.0%,100.0%,0.0%,0.0%,N/A,N/A,N/A,N/A,N/A,114,N/A,6.5,90,N/A,4.6,2.18,NC-16480,34.7998143,-76.4640105,59%,61%,55%,53%,56%,42.5,47,66,N/A,N/A,N/A,N/A,36.22%,39.45%,38.89%
Deercroft,North Carolina,549,426,Laurinburg,34637,$77404,24.16%,52,$387000,2186,$177,30,89.25%,N/A,40.68%,N/A,N/A,0.0%,0.0%,61.44%,Scotland County,52.50%,44.90%,2.55%,0.0%,93.26%,0.0%,2.55%,N/A,N/A,N/A,N/A,N/A,106,N/A,6.5,67,N/A,4.9,1.29,NC-16730,34.9592649,-79.4351762,59%,61%,55%,53%,56%,42.5,47,66,N/A,N/A,N/A,N/A,33.07%,38.57%,33.33%
Delway,North Carolina,30,3,None,N/A,$31339,0.0%,N/A,N/A,N/A,N/A,39,0.0%,N/A,0.0%,N/A,N/A,0.0%,0.0%,0.0%,Sampson County,40.70%,57.20%,0.0%,0.0%,100.0%,0.0%,0.0%,N/A,N/A,N/A,N/A,N/A,112,N/A,6.5,75,N/A,4.5,9.61,NC-16860,34.8102549,-78.216928,59%,61%,55%,53%,56%,42.5,47,66,N/A,N/A,N/A,N/A,31.07%,35.82%,32.11%
Denton,North Carolina,1355,645,Winston-Salem,679731,$35250,15.65%,41,$85000,578,$147,45,53.21%,$639,49.38%,N/A,N/A,16.78%,6.75%,53.52%,Davidson County,24.20%,72.60%,1.92%,0.0%,93.36%,2.58%,2.66%,Eastern Standard Time,N/A,N/A,N/A,N/A,109,N/A,6.4,65,970,4.6,2.1,NC-16980,35.6374412,-80.1106003,64%,68%,58%,52%,55%,41.5,46,65,N/A,N/A,N/A,N/A,34.77%,37.14%,36.44%
Denver,North Carolina,2964,500,Charlotte-Concord-Gastonia,2684276,$46311,23.95%,45,$528000,2479,$213,25,62.89%,$830,35.6%,N/A,N/A,8.94%,4.33%,63.69%,Lincoln County,24.70%,72.00%,3.91%,4.96%,85.36%,3.64%,5.53%,Eastern Standard Time,N/A,N/A,N/A,N/A,101,N/A,6.4,59,769,4.8,5.93,NC-17000,35.5344073,-81.0340161,64%,68%,58%,52%,55%,38.3,47,66,N/A,N/A,N/A,N/A,27.23%,30.44%,29.0%
Dillsboro,North Carolina,219,456,Cullowhee,58212,$48000,52.69%,43,N/A,N/A,N/A,38,64.38%,N/A,59.09%,N/A,N/A,11.21%,0.0%,61.17%,Jackson County,41.20%,52.70%,0.0%,0.91%,82.19%,0.91%,4.57%,N/A,N/A,N/A,N/A,N/A,131,N/A,6.6,81,N/A,4.8,0.48,NC-17180,35.3706059,-83.2526205,59%,59%,57%,55%,59%,44.7,46,64,N/A,N/A,N/A,N/A,37.86%,44.84%,38.89%
Dobbins Heights,North Carolina,836,950,Rockingham,44332,$19583,7.92%,35,N/A,N/A,N/A,44,60.29%,$484,68.66%,N/A,N/A,30.74%,40.91%,49.3%,Richmond County,44.00%,53.70%,0.0%,75.48%,17.22%,4.07%,1.67%,N/A,N/A,N/A,N/A,N/A,104,N/A,6.4,63,N/A,4.7,0.88,NC-17325,34.9068805,-79.6932997,64%,68%,58%,52%,55%,38.3,47,66,N/A,N/A,N/A,N/A,34.85%,38.02%,39.33%
Dobson,North Carolina,1511,744,Mount Airy,71683,$46957,23.3%,42,$254000,1827,$139,38,55.9%,$653,58.46%,N/A,N/A,13.43%,5.62%,46.42%,Surry County,23.30%,73.50%,5.76%,5.82%,78.56%,8.41%,6.82%,N/A,N/A,N/A,N/A,N/A,119,N/A,6.6,73,N/A,4.7,2.03,NC-17340,36.3927461,-80.7244557,64%,68%,58%,51%,54%,41.5,46,65,N/A,N/A,N/A,N/A,39.97%,47.14%,38.78%
Dortches,North Carolina,978,121,Rocky Mount,145688,$63942,24.86%,48,$326000,1560,$209,38,84.87%,$945,38.08%,N/A,N/A,9.1%,8.61%,55.52%,Nash County,48.70%,48.90%,0.0%,33.74%,63.91%,1.02%,2.25%,Eastern Standard Time,N/A,N/A,N/A,N/A,105,N/A,6.5,66,150,4.7,8.09,NC-17520,36.0114229,-77.8572286,59%,61%,55%,53%,56%,42.5,47,66,N/A,N/A,N/A,N/A,31.01%,32.2%,32.11%
Dover,North Carolina,283,295,New Bern,123198,$40000,12.09%,56,N/A,N/A,N/A,47,68.55%,$1019,65.44%,N/A,N/A,25.44%,6.62%,50.0%,Craven County,37.50%,59.00%,0.0%,66.08%,32.51%,0.0%,0.0%,Eastern Standard Time,N/A,N/A,N/A,N/A,110,N/A,6.5,78,10,4.7,0.96,NC-17660,35.2154766,-77.4337789,59%,61%,55%,53%,56%,42.5,47,66,N/A,N/A,N/A,N/A,26.96%,31.43%,26.56%
Drexel,North Carolina,1725,1250,Hickory-Lenoir-Morganton,370266,$57609,20.11%,49,$400000,4545,$88,51,80.66%,$613,49.71%,0,1784,11.8%,2.69%,63.22%,Burke County,28.90%,67.40%,2.96%,2.43%,87.25%,5.62%,5.57%,Eastern Standard Time,N/A,N/A,N/A,N/A,115,N/A,6.6,68,897,4.6,1.38,NC-17860,35.7568434,-81.608757,59%,59%,57%,55%,59%,44.7,46,64,N/A,N/A,N/A,N/A,34.16%,40.44%,33.78%
Dublin,North Carolina,380,864,None,N/A,$40375,7.31%,32,N/A,N/A,N/A,39,50.53%,$640,54.75%,N/A,N/A,7.63%,4.2%,48.97%,Bladen County,44.40%,53.80%,0.53%,30.53%,66.05%,2.89%,0.53%,N/A,N/A,N/A,N/A,N/A,107,N/A,6.5,71,N/A,4.8,0.44,NC-18040,34.6562486,-78.7230941,59%,61%,55%,53%,56%,42.5,47,66,N/A,N/A,N/A,N/A,27.26%,32.2%,27.56%
Duck,North Carolina,584,241,Kill Devil Hills,37547,$107083,59.26%,60,N/A,N/A,N/A,32,88.7%,$1100,27.27%,0,5384,7.36%,2.64%,42.35%,Dare County,36.80%,58.40%,1.71%,0.0%,95.89%,1.37%,4.45%,N/A,N/A,N/A,N/A,N/A,111,N/A,7.7,85,N/A,4.4,2.42,NC-18060,36.1828605,-75.7550387,61%,65%,57%,57%,59%,34.9,48,66,N/A,N/A,N/A,N/A,32.49%,37.03%,32.44%
Dundarrach,North Carolina,60,45,Fayetteville,529252,$80000,0.0%,58,N/A,N/A,N/A,62,65.0%,N/A,26.67%,N/A,N/A,0.0%,0.0%,25.0%,Hoke County,53.40%,42.60%,0.0%,0.0%,100.0%,0.0%,0.0%,Eastern Standard Time,N/A,N/A,N/A,N/A,103,N/A,6.5,68,96,4.8,1.32,NC-18300,34.9246662,-79.1574608,59%,61%,55%,53%,56%,42.5,47,66,N/A,N/A,N/A,N/A,33.07%,38.57%,33.33%
Dunn,North Carolina,9738,1417,Dunn,137058,$34464,19.19%,42,$213000,1469,$145,46,55.7%,$719,57.37%,573,5262,22.88%,6.74%,51.85%,Harnett County,36.30%,59.90%,0.49%,39.65%,51.48%,7.39%,3.66%,N/A,N/A,N/A,N/A,N/A,110,N/A,6.5,62,N/A,4.9,6.87,NC-18320,35.3114377,-78.6128301,59%,61%,55%,53%,56%,42.5,47,66,N/A,N/A,N/A,N/A,30.47%,34.73%,31.0%
Durham,North Carolina,276341,2450,Durham-Chapel Hill,652542,$61962,51.16%,34,$385000,1742,$221,30,54.26%,$1098,57.2%,729,3807,14.18%,4.73%,68.98%,Durham County,77.70%,18.20%,5.37%,37.48%,39.96%,13.82%,14.71%,Eastern Standard Time,N/A,N/A,N/A,N/A,109,N/A,6.5,51,441,4.6,112.79,NC-19000,35.9792246,-78.9022503,59%,61%,55%,53%,56%,42.5,47,66,N/A,N/A,N/A,N/A,35.73%,38.46%,36.22%
Earl,North Carolina,330,384,Shelby,99035,$36951,3.48%,59,N/A,N/A,N/A,38,81.52%,$717,34.64%,N/A,N/A,23.17%,7.33%,49.02%,Cleveland County,33.50%,63.70%,0.0%,11.52%,85.15%,1.52%,0.91%,N/A,N/A,N/A,N/A,N/A,108,N/A,6.4,62,N/A,4.6,0.86,NC-19140,35.1954241,-81.5340098,64%,68%,58%,52%,55%,38.3,47,66,N/A,N/A,N/A,N/A,32.11%,38.46%,32.11%
East Arcadia,North Carolina,603,268,None,N/A,$42852,20.78%,44,N/A,N/A,N/A,22,83.75%,$675,52.27%,N/A,N/A,14.0%,16.32%,55.81%,Bladen County,44.40%,53.80%,0.0%,97.68%,0.0%,0.0%,5.97%,N/A,N/A,N/A,N/A,N/A,118,N/A,6.5,74,N/A,4.8,2.25,NC-19300,34.3816034,-78.3231852,59%,61%,55%,53%,56%,42.5,47,66,N/A,N/A,N/A,N/A,34.49%,40.99%,35.56%
East Bend,North Carolina,739,564,Winston-Salem,679731,$63750,15.93%,37,$235000,1237,$190,48,75.51%,$682,49.24%,N/A,N/A,9.38%,2.37%,65.01%,Yadkin County,17.90%,78.80%,0.0%,0.0%,96.08%,3.79%,1.62%,Eastern Standard Time,N/A,N/A,N/A,N/A,117,N/A,6.4,69,970,4.6,1.31,NC-19320,36.2177527,-80.508422,64%,68%,58%,52%,55%,41.5,46,65,N/A,N/A,N/A,N/A,35.04%,43.85%,29.78%
East Flat Rock,North Carolina,6108,1427,Asheville,466634,$50784,13.89%,34,$285000,1113,$256,36,50.24%,$778,55.03%,N/A,N/A,12.69%,3.9%,73.4%,Henderson County,34.10%,61.60%,1.67%,4.75%,69.56%,23.84%,14.29%,Eastern Standard Time,N/A,N/A,N/A,N/A,127,N/A,6.6,71,2207,4.8,4.28,NC-19420,35.2801953,-82.4170072,59%,59%,57%,55%,59%,44.7,46,64,N/A,N/A,N/A,N/A,37.97%,45.38%,38.56%
East Laurinburg,North Carolina,345,1816,Laurinburg,34637,$23846,2.94%,38,N/A,N/A,N/A,73,47.54%,$750,57.45%,N/A,N/A,46.67%,28.13%,45.39%,Scotland County,52.50%,44.90%,0.0%,25.22%,59.13%,5.22%,0.0%,N/A,N/A,N/A,N/A,N/A,93,N/A,6.4,61,N/A,4.9,0.19,NC-19620,34.7690788,-79.4450777,64%,68%,58%,52%,55%,38.3,47,66,N/A,N/A,N/A,N/A,33.01%,37.47%,36.33%
East Rockingham,North Carolina,3338,976,Rockingham,44332,$29334,12.68%,37,$75000,773,$97,50,77.54%,$775,56.24%,N/A,N/A,33.26%,14.53%,50.65%,Richmond County,44.00%,53.70%,0.03%,28.88%,54.73%,14.95%,9.95%,N/A,N/A,N/A,N/A,N/A,103,N/A,6.4,61,N/A,4.7,3.42,NC-19800,34.9115766,-79.7660122,64%,68%,58%,52%,55%,38.3,47,66,N/A,N/A,N/A,N/A,34.85%,38.02%,39.33%
East Spencer,North Carolina,1382,655,Charlotte-Concord-Gastonia,2684276,$36250,11.25%,49,$220000,1183,$186,58,57.45%,$542,56.43%,451,1612,29.31%,11.55%,44.02%,Rowan County,30.10%,66.50%,0.0%,76.48%,11.51%,6.44%,6.51%,Eastern Standard Time,N/A,N/A,N/A,N/A,102,N/A,6.4,56,769,4.7,2.11,NC-19860,35.6815479,-80.42272,64%,68%,58%,52%,55%,38.3,47,66,N/A,N/A,N/A,N/A,33.12%,35.05%,35.33%
Eastover,North Carolina,3740,330,Fayetteville,529252,$55174,28.76%,42,$385000,2655,$145,37,73.53%,$903,39.66%,N/A,N/A,12.15%,6.49%,55.77%,Cumberland County,56.20%,40.20%,0.0%,11.44%,74.47%,3.77%,1.12%,Eastern Standard Time,N/A,N/A,N/A,N/A,104,N/A,6.5,67,96,4.7,11.33,NC-19740,35.0958909,-78.7862163,59%,61%,55%,53%,56%,42.5,47,66,N/A,N/A,N/A,N/A,33.73%,38.57%,32.0%
Eden,North Carolina,14986,1055,Greensboro-High Point,776363,$39083,15.77%,42,$153000,1264,$121,53,55.5%,$649,52.2%,595,3472,21.87%,7.93%,56.01%,Rockingham County,33.70%,63.50%,2.15%,28.33%,60.79%,5.57%,4.19%,Eastern Standard Time,N/A,N/A,N/A,N/A,111,N/A,6.6,62,897,4.7,14.2,NC-20080,36.5027375,-79.7412074,59%,64%,54%,51%,54%,41.5,46,65,N/A,N/A,N/A,N/A,34.6%,38.35%,33.11%
Edenton,North Carolina,4640,862,None,N/A,$40711,25.77%,41,N/A,N/A,N/A,45,37.26%,$580,70.61%,842,3131,40.29%,6.01%,50.36%,Chowan County,41.40%,55.50%,1.4%,59.66%,34.25%,3.19%,1.21%,N/A,N/A,N/A,N/A,N/A,115,N/A,7.7,80,N/A,4.4,5.38,NC-20120,36.0580204,-76.6009208,61%,65%,57%,57%,59%,34.9,48,66,N/A,N/A,N/A,N/A,27.4%,30.33%,27.89%
Edneyville,North Carolina,2782,259,Asheville,466634,$73859,23.38%,34,N/A,N/A,N/A,29,64.88%,$738,46.36%,N/A,N/A,19.91%,0.99%,75.31%,Henderson County,34.10%,61.60%,1.22%,2.01%,79.26%,17.51%,4.82%,Eastern Standard Time,N/A,N/A,N/A,N/A,125,N/A,6.6,77,2207,4.8,10.74,NC-20280,35.4024935,-82.3371593,59%,59%,57%,55%,59%,44.7,46,64,N/A,N/A,N/A,N/A,35.7%,42.64%,34.44%
Efland,North Carolina,804,452,Durham-Chapel Hill,652542,$105625,26.49%,37,N/A,N/A,N/A,33,96.52%,N/A,40.03%,N/A,N/A,1.74%,0.0%,73.52%,Orange County,72.80%,22.50%,0.0%,40.05%,59.95%,0.0%,19.78%,Eastern Standard Time,N/A,N/A,N/A,N/A,112,N/A,6.5,61,441,4.5,1.78,NC-20420,36.0806123,-79.171827,59%,61%,55%,53%,56%,42.5,47,66,N/A,N/A,N/A,N/A,34.33%,37.14%,36.33%
Elizabeth City,North Carolina,17725,1514,Elizabeth City,54039,$43024,26.76%,33,$240000,1538,$156,49,38.67%,$938,58.11%,510,4373,18.11%,8.95%,58.78%,Pasquotank County,49.50%,47.00%,1.28%,51.43%,37.44%,7.4%,3.36%,N/A,N/A,N/A,N/A,N/A,116,N/A,7.7,71,N/A,4.4,11.71,NC-20580,36.2942732,-76.2360904,61%,65%,57%,57%,59%,34.9,48,66,N/A,N/A,N/A,N/A,31.95%,31.1%,34.78%
Elizabethtown,North Carolina,3424,675,None,N/A,$21900,28.21%,36,N/A,N/A,N/A,47,73.12%,$752,59.58%,493,6527,31.56%,0.0%,48.22%,Bladen County,44.40%,53.80%,0.0%,41.79%,51.69%,5.26%,3.39%,N/A,N/A,N/A,N/A,N/A,106,N/A,6.5,72,N/A,4.8,5.07,NC-20600,34.6218796,-78.6073821,59%,61%,55%,53%,56%,42.5,47,66,N/A,N/A,N/A,N/A,27.26%,32.2%,27.56%
Elk Park,North Carolina,495,717,None,N/A,$40272,8.99%,34,N/A,N/A,N/A,45,66.67%,N/A,52.13%,N/A,N/A,27.27%,6.47%,58.15%,Avery County,20.50%,76.30%,0.61%,0.81%,96.36%,2.22%,0.0%,N/A,N/A,N/A,N/A,N/A,132,N/A,6.6,87,N/A,5,0.69,NC-20700,36.1582469,-81.9808131,59%,59%,57%,55%,59%,40.6,45,63,N/A,N/A,N/A,N/A,46.99%,52.31%,48.67%
Elkin,North Carolina,3968,585,Mount Airy,71683,$48079,18.45%,42,$227000,1681,$135,53,56.42%,$593,47.43%,N/A,N/A,23.59%,4.61%,63.11%,Surry County,23.30%,73.50%,1.99%,7.08%,68.32%,23.08%,9.32%,N/A,N/A,N/A,N/A,N/A,123,N/A,6.4,66,N/A,4.7,6.78,NC-20620,36.2620507,-80.8442823,64%,68%,58%,52%,55%,41.5,46,65,N/A,N/A,N/A,N/A,34.38%,41.76%,32.33%
Ellenboro,North Carolina,794,630,Forest City,67076,$39453,11.55%,37,$155000,1845,$84,44,57.05%,$689,46.49%,N/A,N/A,14.43%,6.52%,57.12%,Rutherford County,24.80%,72.20%,0.5%,8.44%,90.43%,0.0%,0.63%,N/A,N/A,N/A,N/A,N/A,111,N/A,6.6,67,N/A,4.9,1.26,NC-20780,35.3308787,-81.761274,59%,59%,57%,55%,59%,44.7,46,64,N/A,N/A,N/A,N/A,32.11%,38.46%,32.11%
Ellerbe,North Carolina,1032,782,Rockingham,44332,$32438,15.51%,38,N/A,N/A,N/A,52,52.62%,$483,52.09%,N/A,N/A,17.34%,10.86%,60.1%,Richmond County,44.00%,53.70%,0.0%,27.13%,58.14%,12.79%,6.3%,N/A,N/A,N/A,N/A,N/A,112,N/A,6.4,67,N/A,4.7,1.32,NC-20840,35.0718535,-79.7596456,64%,68%,58%,52%,55%,38.3,47,66,N/A,N/A,N/A,N/A,31.26%,35.49%,32.67%
Elm City,North Carolina,1701,791,Wilson,81979,$37721,16.68%,41,$141000,1621,$87,47,49.38%,$671,55.76%,N/A,N/A,26.46%,15.1%,41.92%,Wilson County,51.60%,46.00%,1.76%,61.49%,22.81%,13.93%,6.47%,N/A,N/A,N/A,N/A,N/A,106,N/A,6.5,71,N/A,4.8,2.15,NC-20980,35.8042112,-77.8560798,59%,61%,55%,53%,56%,42.5,47,66,N/A,N/A,N/A,N/A,35.97%,37.69%,34.78%
Elon,North Carolina,11941,2941,Burlington,171346,$69085,53.03%,22,$315000,1957,$161,25,57.51%,$1354,67.61%,65,671,24.65%,4.37%,38.11%,Alamance County,41.90%,54.50%,4.04%,6.8%,82.06%,5.2%,4.68%,Eastern Standard Time,N/A,N/A,N/A,N/A,111,N/A,6.5,56,633,4.8,4.06,NC-21095,36.1015155,-79.5086088,59%,61%,55%,53%,56%,41.5,46,65,N/A,N/A,N/A,N/A,34.63%,38.02%,33.22%
Elrod,North Carolina,522,98,Lumberton,129999,$21806,9.32%,31,N/A,N/A,N/A,46,53.07%,$664,75.35%,N/A,N/A,45.4%,24.84%,42.15%,Robeson County,46.50%,50.80%,0.0%,5.36%,3.07%,0.0%,0.0%,N/A,N/A,N/A,N/A,N/A,97,N/A,6.5,66,N/A,4.6,5.34,NC-21120,34.6072447,-79.2307612,59%,61%,55%,53%,56%,42.5,47,66,N/A,N/A,N/A,N/A,30.58%,38.35%,29.67%
Elroy,North Carolina,4114,629,Goldsboro,123967,$49208,10.2%,34,$247000,1488,$166,38,64.88%,$805,55.42%,N/A,N/A,17.4%,6.59%,63.47%,Wayne County,42.90%,54.30%,2.94%,24.72%,53.11%,17.38%,7.46%,Eastern Standard Time,N/A,N/A,N/A,N/A,110,N/A,6.5,74,121,4.8,6.54,NC-21130,35.3307678,-77.9225607,59%,61%,55%,53%,56%,42.5,47,66,N/A,N/A,N/A,N/A,26.96%,31.43%,26.56%
Emerald Isle,North Carolina,3691,750,Morehead City,69558,$84457,48.25%,57,$750000,1740,$431,31,81.06%,$1329,28.96%,N/A,N/A,2.14%,5.49%,50.37%,Carteret County,26.30%,70.30%,0.0%,0.22%,90.54%,1.79%,0.62%,N/A,N/A,N/A,N/A,N/A,114,N/A,6.5,86,N/A,4.6,4.92,NC-21160,34.6646684,-77.0310779,59%,61%,55%,53%,56%,42.5,47,66,N/A,N/A,N/A,N/A,36.6%,41.76%,38.0%
Enfield,North Carolina,2348,1806,Roanoke Rapids,68567,$21774,6.28%,38,$260000,1857,$140,60,38.67%,$713,75.2%,1005,2840,33.54%,17.54%,46.12%,Halifax County,62.60%,35.90%,0.0%,85.31%,11.84%,0.0%,0.0%,N/A,N/A,N/A,N/A,N/A,113,N/A,6.5,71,N/A,4.8,1.3,NC-21360,36.1799239,-77.6690226,59%,61%,55%,53%,56%,42.5,47,66,N/A,N/A,N/A,N/A,31.01%,32.2%,32.11%
Engelhard,North Carolina,155,48,None,N/A,$19286,0.0%,62,N/A,N/A,N/A,75,26.45%,$1013,54.19%,N/A,N/A,73.55%,0.0%,38.06%,Hyde County,41.90%,55.90%,0.0%,0.0%,89.68%,0.0%,0.0%,N/A,N/A,N/A,N/A,N/A,112,N/A,6.5,89,N/A,4.5,3.23,NC-21380,35.5092357,-76.0094596,61%,65%,57%,57%,59%,34.9,48,66,N/A,N/A,N/A,N/A,28.93%,32.97%,30.22%
Enochville,North Carolina,3358,750,Charlotte-Concord-Gastonia,2684276,$47143,9.75%,40,$229000,1258,$182,48,55.63%,$749,57.12%,N/A,N/A,28.64%,11.7%,51.13%,Rowan County,30.10%,66.50%,0.0%,8.87%,88.33%,1.4%,0.39%,Eastern Standard Time,N/A,N/A,N/A,N/A,102,N/A,6.4,57,769,4.7,4.48,NC-21500,35.5205047,-80.6644168,64%,68%,58%,52%,55%,38.3,47,66,N/A,N/A,N/A,N/A,29.81%,32.09%,32.0%
Erwin,North Carolina,5104,1209,Dunn,137058,$41702,10.76%,42,$192000,1239,$155,60,64.35%,$846,53.81%,194,2117,14.64%,2.01%,58.0%,Harnett County,36.30%,59.90%,0.04%,20.45%,62.34%,14.05%,10.8%,N/A,N/A,N/A,N/A,N/A,108,N/A,6.5,65,N/A,4.9,4.22,NC-21740,35.3225277,-78.6734086,59%,61%,55%,53%,56%,42.5,47,66,N/A,N/A,N/A,N/A,30.47%,34.73%,31.0%
Etowah,North Carolina,7840,444,Asheville,466634,$64892,27.17%,56,$458000,1810,$253,29,88.24%,$824,28.06%,N/A,N/A,3.39%,0.67%,51.1%,Henderson County,34.10%,61.60%,1.67%,2.16%,85.28%,2.93%,3.55%,Eastern Standard Time,N/A,N/A,N/A,N/A,128,N/A,6.6,79,2207,4.8,17.66,NC-21880,35.3060965,-82.5902072,59%,59%,57%,55%,59%,44.7,46,64,N/A,N/A,N/A,N/A,43.4%,58.24%,38.11%
Eureka,North Carolina,215,632,Goldsboro,123967,$40625,16.34%,45,N/A,N/A,N/A,53,81.34%,$825,49.72%,N/A,N/A,5.58%,1.03%,56.07%,Wayne County,42.90%,54.30%,0.0%,20.47%,72.09%,6.51%,6.05%,Eastern Standard Time,N/A,N/A,N/A,N/A,115,N/A,6.5,74,121,4.8,0.34,NC-21960,35.5413888,-77.8763254,59%,61%,55%,53%,56%,42.5,47,66,N/A,N/A,N/A,N/A,33.07%,34.18%,34.89%
Everetts,North Carolina,136,278,None,N/A,$36406,13.25%,29,N/A,N/A,N/A,28,44.85%,$836,72.73%,N/A,N/A,23.53%,0.0%,73.64%,Martin County,48.90%,49.30%,0.0%,5.15%,72.06%,22.79%,0.0%,N/A,N/A,N/A,N/A,N/A,115,N/A,6.5,78,N/A,4.4,0.49,NC-22040,35.8346076,-77.1721197,59%,61%,55%,53%,56%,42.5,47,66,N/A,N/A,N/A,N/A,32.3%,33.74%,34.0%
Evergreen,North Carolina,125,33,None,N/A,$75547,0.0%,74,N/A,N/A,N/A,24,100.0%,N/A,23.2%,N/A,N/A,23.2%,0.0%,8.0%,Columbus County,38.20%,60.10%,0.0%,23.2%,76.8%,0.0%,0.0%,N/A,N/A,N/A,N/A,N/A,113,N/A,6.5,72,N/A,4.9,3.84,NC-22080,34.4148597,-78.9113754,59%,61%,55%,53%,56%,42.5,47,66,N/A,N/A,N/A,N/A,27.26%,32.2%,27.56%
Fair Bluff,North Carolina,585,249,None,N/A,$22434,15.9%,52,N/A,N/A,N/A,43,70.93%,$703,62.66%,113,1587,30.94%,5.06%,32.78%,Columbus County,38.20%,60.10%,0.0%,58.97%,37.95%,1.2%,0.0%,N/A,N/A,N/A,N/A,N/A,112,N/A,6.5,71,N/A,4.9,2.35,NC-22240,34.3125712,-79.0332614,59%,61%,55%,53%,56%,42.5,47,66,N/A,N/A,N/A,N/A,30.63%,35.49%,32.89%
Fairfield,North Carolina,164,23,None,N/A,$29408,0.0%,73,N/A,N/A,N/A,26,100.0%,N/A,20.12%,N/A,N/A,0.0%,0.0%,0.0%,Hyde County,41.90%,55.90%,0.0%,85.37%,14.63%,0.0%,0.0%,N/A,N/A,N/A,N/A,N/A,117,N/A,6.5,89,N/A,4.5,7.04,NC-22280,35.5471429,-76.2261345,61%,65%,57%,57%,59%,34.9,48,66,N/A,N/A,N/A,N/A,28.93%,32.97%,30.22%
Fairfield Harbour,North Carolina,2803,973,New Bern,123198,$67936,39.06%,63,$282000,1774,$159,29,84.77%,$1352,27.73%,N/A,N/A,6.17%,10.18%,36.63%,Craven County,37.50%,59.00%,1.11%,5.78%,83.8%,6.46%,10.7%,Eastern Standard Time,N/A,N/A,N/A,N/A,118,N/A,6.5,80,10,4.7,2.88,NC-22305,35.0684036,-76.9573521,59%,61%,55%,53%,56%,42.5,47,66,N/A,N/A,N/A,N/A,30.74%,36.92%,29.78%
Fairmont,North Carolina,2622,957,Lumberton,129999,$30022,15.78%,50,$320000,4507,$71,53,55.11%,$531,64.91%,538,4805,33.44%,5.11%,41.99%,Robeson County,46.50%,50.80%,0.0%,59.31%,26.32%,1.3%,0.38%,N/A,N/A,N/A,N/A,N/A,107,N/A,6.5,67,N/A,4.6,2.74,NC-22360,34.4947604,-79.1136249,59%,61%,55%,53%,56%,42.5,47,66,N/A,N/A,N/A,N/A,30.58%,38.35%,29.67%
Fairplains,North Carolina,1757,417,North Wilkesboro,68043,$41184,15.17%,54,$50000,794,$63,51,65.49%,$571,44.82%,N/A,N/A,22.09%,3.95%,46.37%,Wilkes County,21.20%,75.90%,3.02%,9.96%,72.0%,13.2%,5.52%,N/A,N/A,N/A,N/A,N/A,124,N/A,6.4,72,N/A,4.4,4.21,NC-22380,36.1935464,-81.164481,64%,68%,58%,52%,55%,40.6,45,63,N/A,N/A,N/A,N/A,38.66%,45.71%,36.56%
Fairview,North Carolina,2741,441,Asheville,466634,$58966,32.72%,35,$569000,2332,$244,29,80.37%,$567,38.99%,N/A,N/A,9.48%,3.33%,59.75%,Buncombe County,54.30%,40.10%,0.0%,0.0%,92.78%,7.22%,0.44%,Eastern Standard Time,N/A,N/A,N/A,N/A,125,N/A,6.6,78,2207,4.8,6.22,NC-22440,35.5225181,-82.4013093,59%,59%,57%,55%,59%,44.7,46,64,N/A,N/A,N/A,N/A,35.7%,42.64%,34.44%
Fairview town,North Carolina,3849,128,Charlotte-Concord-Gastonia,2684276,$76824,33.66%,43,$569000,2332,$244,33,85.61%,$594,44.72%,N/A,N/A,4.31%,4.79%,56.27%,Union County,32.50%,63.10%,0.0%,0.31%,96.36%,3.46%,2.16%,Eastern Standard Time,N/A,N/A,N/A,N/A,98,N/A,6.4,60,769,4.8,29.98,NC-22500,35.1545393,-80.534531,64%,68%,58%,52%,55%,38.3,47,66,N/A,N/A,N/A,N/A,29.53%,32.2%,32.44%
Faison,North Carolina,1182,1391,None,N/A,$41429,16.42%,37,N/A,N/A,N/A,49,61.84%,$510,47.16%,N/A,N/A,28.93%,7.62%,61.84%,Duplin County,39.70%,58.60%,0.0%,12.35%,36.72%,48.22%,27.58%,N/A,N/A,N/A,N/A,N/A,116,N/A,6.5,75,N/A,4.9,0.85,NC-22560,35.1164473,-78.1359949,59%,61%,55%,53%,56%,42.5,47,66,N/A,N/A,N/A,N/A,31.07%,35.82%,32.11%
Faith,North Carolina,1053,1003,Charlotte-Concord-Gastonia,2684276,$103417,26.44%,41,N/A,N/A,N/A,22,89.46%,$698,27.43%,N/A,N/A,0.38%,0.0%,77.63%,Rowan County,30.10%,66.50%,0.19%,2.56%,97.06%,0.19%,0.38%,Eastern Standard Time,N/A,N/A,N/A,N/A,102,N/A,6.4,60,769,4.7,1.05,NC-22600,35.5899882,-80.4583042,64%,68%,58%,52%,55%,38.3,47,66,N/A,N/A,N/A,N/A,29.81%,32.09%,32.0%
Falcon,North Carolina,222,157,Fayetteville,529252,$60625,29.17%,31,N/A,N/A,N/A,34,86.61%,N/A,56.02%,N/A,N/A,5.96%,0.0%,41.36%,Cumberland County,56.20%,40.20%,0.0%,5.41%,81.53%,5.86%,1.35%,Eastern Standard Time,N/A,N/A,N/A,N/A,108,N/A,6.5,68,96,4.7,1.41,NC-22620,35.1935223,-78.6511271,59%,61%,55%,53%,56%,42.5,47,66,N/A,N/A,N/A,N/A,30.47%,34.73%,31.0%
Falkland,North Carolina,183,796,Greenville,182924,$78279,1.25%,56,N/A,N/A,N/A,74,100.0%,N/A,19.88%,N/A,N/A,3.83%,0.0%,87.8%,Pitt County,51.90%,44.30%,0.0%,35.52%,64.48%,0.0%,0.0%,Eastern Standard Time,N/A,N/A,N/A,N/A,112,N/A,6.5,75,40,4.7,0.23,NC-22640,35.6985368,-77.5128776,59%,61%,55%,53%,56%,42.5,47,66,N/A,N/A,N/A,N/A,34.36%,38.35%,34.44%
Fallston,North Carolina,776,358,Shelby,99035,$28333,22.7%,51,N/A,N/A,N/A,47,64.43%,$620,48.17%,N/A,N/A,31.83%,3.07%,41.89%,Cleveland County,33.50%,63.70%,1.03%,2.19%,95.62%,0.0%,1.16%,N/A,N/A,N/A,N/A,N/A,107,N/A,6.4,67,N/A,4.6,2.17,NC-22720,35.4289225,-81.5022555,64%,68%,58%,52%,55%,38.3,47,66,N/A,N/A,N/A,N/A,32.11%,38.46%,32.11%
Farmville,North Carolina,4716,1474,Greenville,182924,$46719,23.01%,39,$183000,1619,$113,42,58.12%,$734,57.81%,577,3911,19.6%,4.19%,56.51%,Pitt County,51.90%,44.30%,0.0%,54.18%,42.66%,2.08%,2.63%,Eastern Standard Time,N/A,N/A,N/A,N/A,112,N/A,6.5,73,40,4.7,3.2,NC-22820,35.5950263,-77.590618,59%,61%,55%,53%,56%,42.5,47,66,N/A,N/A,N/A,N/A,36.52%,39.56%,37.67%
Fayetteville,North Carolina,211201,1425,Fayetteville,529252,$46321,27.33%,30,$206000,1609,$128,37,45.4%,$960,55.7%,875,3526,19.93%,8.42%,66.17%,Cumberland County,56.20%,40.20%,3.07%,42.6%,36.12%,12.8%,7.53%,Eastern Standard Time,N/A,N/A,N/A,N/A,110,N/A,6.5,60,96,4.7,148.26,NC-22920,35.084905,-78.977191,59%,61%,55%,53%,56%,42.5,47,66,N/A,N/A,N/A,N/A,33.73%,38.57%,32.0%
Fearrington Village,North Carolina,2692,1504,Durham-Chapel Hill,652542,$82708,80.38%,73,$642000,2253,$285,25,83.08%,$1600,44.94%,N/A,N/A,0.57%,0.0%,25.04%,Chatham County,52.90%,42.90%,1.45%,1.6%,96.73%,0.22%,3.64%,Eastern Standard Time,N/A,N/A,N/A,N/A,112,N/A,6.5,64,441,4.6,1.79,NC-22982,35.7995483,-79.0817381,59%,61%,55%,53%,56%,42.5,47,66,N/A,N/A,N/A,N/A,32.79%,33.85%,35.0%
Five Points,North Carolina,1201,145,Fayetteville,529252,$63188,40.65%,32,$299000,2048,$146,18,83.68%,N/A,41.56%,N/A,N/A,9.83%,7.38%,64.61%,Hoke County,53.40%,42.60%,0.75%,18.15%,75.1%,4.16%,3.33%,Eastern Standard Time,N/A,N/A,N/A,N/A,104,N/A,6.5,69,96,4.8,8.28,NC-23520,35.0154014,-79.3512655,59%,61%,55%,53%,56%,42.5,47,66,N/A,N/A,N/A,N/A,33.07%,38.57%,33.33%
Flat Rock,North Carolina,3354,414,Asheville,466634,$90642,60.42%,64,$433000,2033,$213,28,93.37%,$1664,24.34%,N/A,N/A,4.29%,6.07%,42.36%,Henderson County,34.10%,61.60%,0.03%,0.0%,99.31%,0.45%,2.42%,Eastern Standard Time,N/A,N/A,N/A,N/A,126,N/A,6.6,73,2207,4.8,8.1,NC-23600,35.267776,-82.452637,59%,59%,57%,55%,59%,44.7,46,64,N/A,N/A,N/A,N/A,43.4%,58.24%,38.11%
Flat Rock CDP,North Carolina,1003,384,Mount Airy,71683,$33140,8.18%,47,$433000,2033,$213,46,68.69%,$581,58.11%,N/A,N/A,15.85%,3.75%,52.13%,Surry County,23.30%,73.50%,0.0%,7.18%,86.64%,4.59%,0.0%,N/A,N/A,N/A,N/A,N/A,117,N/A,6.6,73,N/A,4.7,2.61,NC-23640,36.5076386,-80.5796658,64%,68%,58%,51%,54%,41.5,46,65,N/A,N/A,N/A,N/A,37.37%,43.74%,35.78%
Fletcher,North Carolina,8287,1295,Asheville,466634,$62007,32.73%,45,$375000,1682,$223,21,83.92%,$1108,44.08%,N/A,N/A,7.92%,1.93%,60.13%,Henderson County,34.10%,61.60%,3.37%,4.8%,85.78%,5.8%,7.05%,Eastern Standard Time,N/A,N/A,N/A,N/A,125,N/A,6.6,66,2207,4.8,6.4,NC-23760,35.4315762,-82.5038102,59%,59%,57%,55%,59%,44.7,46,64,N/A,N/A,N/A,N/A,35.92%,44.29%,34.33%
Forest City,North Carolina,7150,834,Forest City,67076,$29571,17.01%,33,$205000,1414,$145,54,46.97%,$637,57.92%,477,8220,34.63%,9.44%,56.69%,Rutherford County,24.80%,72.20%,1.47%,27.83%,60.45%,6.71%,3.45%,N/A,N/A,N/A,N/A,N/A,114,N/A,6.6,58,N/A,4.9,8.57,NC-24080,35.333879,-81.870148,59%,59%,57%,55%,59%,44.7,46,64,N/A,N/A,N/A,N/A,32.66%,38.24%,32.44%
Forest Hills,North Carolina,325,650,Cullowhee,58212,$91250,75.11%,51,N/A,N/A,N/A,47,63.69%,$763,61.95%,N/A,N/A,21.85%,0.81%,41.41%,Jackson County,41.20%,52.70%,0.0%,0.92%,89.85%,2.77%,2.15%,N/A,N/A,N/A,N/A,N/A,137,N/A,6.6,81,N/A,4.8,0.5,NC-24170,35.297322,-83.1934785,59%,59%,57%,55%,59%,44.7,46,64,N/A,N/A,N/A,N/A,37.86%,44.84%,38.89%
Forest Oaks,North Carolina,4102,855,Greensboro-High Point,776363,$95021,47.32%,52,$443000,2434,$182,38,92.13%,$1684,33.04%,N/A,N/A,3.36%,1.59%,58.53%,Guilford County,58.00%,38.10%,0.22%,8.61%,89.05%,0.0%,1.32%,Eastern Standard Time,N/A,N/A,N/A,N/A,111,N/A,6.5,63,897,4.4,4.8,NC-24198,35.9889554,-79.7079235,59%,61%,55%,53%,56%,41.5,46,65,N/A,N/A,N/A,N/A,29.62%,31.98%,30.22%
Foscoe,North Carolina,1309,226,Boone,56441,$53594,43.58%,46,N/A,N/A,N/A,31,59.66%,$768,51.05%,N/A,N/A,12.07%,2.64%,71.42%,Watauga County,47.20%,45.70%,0.0%,0.0%,99.69%,0.15%,6.19%,N/A,N/A,N/A,N/A,N/A,140,N/A,6.6,85,N/A,4.6,5.78,NC-24380,36.1535145,-81.7736863,59%,59%,57%,55%,59%,40.6,45,63,N/A,N/A,N/A,N/A,46.99%,52.31%,48.67%
Fountain,North Carolina,308,335,Greenville,182924,$22500,18.69%,49,$143000,1288,$111,65,61.69%,$593,66.02%,N/A,N/A,42.21%,32.81%,51.2%,Pitt County,51.90%,44.30%,0.0%,43.18%,50.0%,6.82%,0.0%,Eastern Standard Time,N/A,N/A,N/A,N/A,111,N/A,6.5,75,40,4.7,0.92,NC-24440,35.6721116,-77.6316727,59%,61%,55%,53%,56%,42.5,47,66,N/A,N/A,N/A,N/A,34.36%,38.35%,34.44%
Four Oaks,North Carolina,2225,931,Raleigh,1420376,$52833,19.0%,39,$360000,2093,$172,36,52.0%,$916,47.5%,314,1573,20.22%,3.29%,60.15%,Johnston County,33.00%,63.30%,1.17%,20.09%,59.15%,19.78%,14.56%,Eastern Standard Time,N/A,N/A,N/A,N/A,108,N/A,6.5,69,363,4.6,2.39,NC-24520,35.4454142,-78.427101,59%,61%,55%,53%,56%,42.5,47,66,N/A,N/A,N/A,N/A,30.47%,34.73%,31.0%
Foxfire,North Carolina,1757,249,Pinehurst-Southern Pines,103352,$62750,32.66%,39,$488000,2380,$205,32,75.53%,$818,39.12%,N/A,N/A,1.71%,4.17%,44.78%,Moore County,33.50%,62.60%,4.38%,12.01%,71.03%,1.65%,3.93%,N/A,N/A,N/A,N/A,N/A,110,N/A,6.5,68,N/A,4.9,7.06,NC-24570,35.1790008,-79.5639507,59%,61%,55%,53%,56%,41.5,46,65,N/A,N/A,N/A,N/A,31.26%,35.49%,32.67%
Franklin,North Carolina,4030,822,None,N/A,$39754,27.69%,49,N/A,N/A,N/A,40,61.1%,$755,52.26%,N/A,N/A,20.23%,2.81%,51.88%,Macon County,27.50%,68.40%,0.27%,0.72%,76.08%,21.27%,12.31%,N/A,N/A,N/A,N/A,N/A,125,N/A,6.6,74,N/A,4.4,4.9,NC-24640,35.1797796,-83.381014,59%,59%,57%,55%,59%,44.7,46,64,N/A,N/A,N/A,N/A,39.53%,45.05%,43.22%
Franklinton,North Carolina,2341,1345,Raleigh,1420376,$45938,21.73%,33,$421000,2239,$188,63,68.73%,$793,53.6%,N/A,N/A,15.12%,14.44%,52.28%,Franklin County,42.40%,53.90%,1.62%,34.94%,57.37%,2.56%,1.84%,Eastern Standard Time,N/A,N/A,N/A,N/A,106,N/A,6.5,66,363,4.6,1.74,NC-24720,36.1011549,-78.4550615,59%,61%,55%,53%,56%,42.5,47,66,N/A,N/A,N/A,N/A,31.64%,34.07%,32.22%
Franklinville,North Carolina,1451,896,Greensboro-High Point,776363,$36429,4.45%,29,$92000,1278,$72,36,47.62%,$773,46.32%,N/A,N/A,21.75%,3.75%,68.64%,Randolph County,20.40%,76.50%,0.0%,15.51%,68.64%,12.54%,5.44%,Eastern Standard Time,N/A,N/A,N/A,N/A,112,N/A,6.5,66,897,4.5,1.62,NC-24740,35.7420718,-79.6894451,59%,61%,55%,53%,56%,41.5,46,65,N/A,N/A,N/A,N/A,24.6%,26.37%,23.56%
Fremont,North Carolina,990,728,Goldsboro,123967,$41131,13.56%,52,$108000,1213,$89,58,57.56%,$645,54.71%,N/A,N/A,22.57%,2.67%,57.09%,Wayne County,42.90%,54.30%,0.0%,27.68%,61.72%,4.85%,5.96%,Eastern Standard Time,N/A,N/A,N/A,N/A,115,N/A,6.5,73,121,4.8,1.36,NC-24900,35.5436853,-77.9751318,59%,61%,55%,53%,56%,42.5,47,66,N/A,N/A,N/A,N/A,33.07%,34.18%,34.89%
Frisco,North Carolina,795,164,Kill Devil Hills,37547,$35916,22.04%,54,N/A,N/A,N/A,34,67.92%,$850,42.13%,N/A,N/A,21.51%,0.0%,64.32%,Dare County,36.80%,58.40%,0.0%,0.0%,87.55%,12.45%,6.42%,N/A,N/A,N/A,N/A,N/A,115,N/A,N/A,93,N/A,4.4,4.84,NC-25020,35.2457482,-75.6036948,61%,65%,57%,57%,59%,34.9,48,66,N/A,N/A,N/A,N/A,35.23%,36.7%,37.0%
Fruitland,North Carolina,2216,276,Asheville,466634,$41419,19.78%,55,$452000,1548,$292,30,79.45%,$672,37.92%,N/A,N/A,8.07%,1.79%,47.47%,Henderson County,34.10%,61.60%,2.53%,5.82%,81.77%,8.84%,4.38%,Eastern Standard Time,N/A,N/A,N/A,N/A,125,N/A,6.6,75,2207,4.8,8.04,NC-25160,35.3927449,-82.4119389,59%,59%,57%,55%,59%,44.7,46,64,N/A,N/A,N/A,N/A,35.7%,42.64%,34.44%
Fuquay-Varina,North Carolina,29110,1652,Raleigh,1420376,$81914,46.38%,35,$475000,2273,$209,15,71.56%,$1279,40.24%,83,952,9.89%,4.05%,69.06%,Wake County,57.40%,37.20%,1.56%,19.18%,68.1%,7.87%,7.69%,Eastern Standard Time,N/A,N/A,N/A,N/A,105,N/A,6.5,62,363,4.9,17.62,NC-25300,35.5844604,-78.8062002,59%,61%,55%,53%,56%,42.5,47,66,N/A,N/A,N/A,N/A,25.95%,28.57%,26.56%
Gamewell,North Carolina,3874,478,Hickory-Lenoir-Morganton,370266,$53667,7.1%,40,$220000,1486,$148,42,71.24%,$631,53.88%,N/A,N/A,10.97%,10.08%,68.27%,Caldwell County,23.20%,73.30%,0.0%,3.92%,88.1%,6.74%,0.83%,Eastern Standard Time,N/A,N/A,N/A,N/A,116,N/A,6.6,69,897,4.6,8.11,NC-25380,35.863976,-81.5978081,59%,59%,57%,55%,59%,44.7,46,64,N/A,N/A,N/A,N/A,35.21%,41.1%,35.0%
Garland,North Carolina,1166,1080,None,N/A,$38125,5.42%,23,N/A,N/A,N/A,42,64.74%,$717,62.5%,N/A,N/A,45.91%,7.36%,58.19%,Sampson County,40.70%,57.20%,0.0%,39.02%,33.96%,25.81%,9.61%,N/A,N/A,N/A,N/A,N/A,106,N/A,6.5,74,N/A,4.5,1.08,NC-25460,34.7858487,-78.3947093,59%,61%,55%,53%,56%,42.5,47,66,N/A,N/A,N/A,N/A,31.07%,35.82%,32.11%
Garner,North Carolina,30345,1832,Raleigh,1420376,$67571,44.08%,35,$393000,1908,$206,27,65.5%,$1218,48.09%,253,3455,8.88%,4.78%,70.03%,Wake County,57.40%,37.20%,1.74%,28.02%,58.39%,9.68%,6.49%,Eastern Standard Time,N/A,N/A,N/A,N/A,104,N/A,6.5,60,363,4.9,16.56,NC-25480,35.6936035,-78.618136,59%,61%,55%,53%,56%,42.5,47,66,N/A,N/A,N/A,N/A,22.0%,24.18%,22.33%
Garysburg,North Carolina,859,914,Roanoke Rapids,68567,$29835,13.48%,48,N/A,N/A,N/A,48,50.87%,$850,69.79%,N/A,N/A,23.05%,8.19%,48.1%,Northampton County,62.40%,36.40%,0.0%,97.9%,0.12%,0.0%,0.0%,N/A,N/A,N/A,N/A,N/A,107,N/A,6.5,72,N/A,4.6,0.94,NC-25540,36.4478509,-77.5603824,59%,61%,55%,53%,56%,42.5,47,66,N/A,N/A,N/A,N/A,28.25%,29.23%,29.11%
Gaston,North Carolina,1290,763,Roanoke Rapids,68567,$34049,7.7%,46,N/A,N/A,N/A,40,35.69%,$927,68.9%,N/A,N/A,25.47%,21.84%,57.4%,Northampton County,62.40%,36.40%,0.16%,55.66%,37.67%,3.95%,0.16%,N/A,N/A,N/A,N/A,N/A,107,N/A,7.7,64,N/A,4.6,1.69,NC-25560,36.4965175,-77.6448323,62%,67%,56%,53%,55%,34.6,46,66,N/A,N/A,N/A,N/A,28.25%,29.23%,29.11%
Gastonia,North Carolina,76635,1483,Charlotte-Concord-Gastonia,2684276,$50266,25.59%,38,$281000,1624,$173,43,56.95%,$902,52.99%,N/A,N/A,15.19%,6.37%,64.28%,Gaston County,32.30%,64.10%,1.62%,29.19%,55.47%,10.0%,6.49%,Eastern Standard Time,N/A,N/A,N/A,N/A,105,N/A,6.4,47,769,4.8,51.68,NC-25580,35.2493375,-81.1853589,64%,68%,58%,52%,55%,38.3,47,66,N/A,N/A,N/A,N/A,29.7%,33.74%,32.11%
Gatesville,North Carolina,240,600,Virginia Beach-Norfolk-Newport News,1779824,$62500,17.99%,49,N/A,N/A,N/A,60,75.83%,$932,40.49%,N/A,N/A,0.83%,5.56%,62.38%,Gates County,44.20%,53.30%,2.08%,6.25%,91.67%,0.0%,0.0%,Eastern Standard Time,N/A,N/A,N/A,N/A,112,N/A,7.7,74,30,4.4,0.4,NC-25680,36.4073554,-76.7565917,61%,65%,57%,57%,59%,34.9,48,66,N/A,N/A,N/A,N/A,31.56%,31.65%,33.33%
Germanton,North Carolina,1124,642,Winston-Salem,679731,$55804,10.25%,59,$177000,1246,$142,46,97.6%,$811,19.12%,N/A,N/A,6.94%,0.0%,45.9%,Forsyth County,53.00%,42.60%,0.0%,0.0%,100.0%,0.0%,0.0%,Eastern Standard Time,N/A,N/A,N/A,N/A,106,N/A,6.6,67,970,4.7,1.75,NC-25880,36.2586728,-80.2359791,64%,68%,58%,51%,54%,41.5,46,65,N/A,N/A,N/A,N/A,35.7%,39.67%,36.0%
Gerton,North Carolina,258,69,Asheville,466634,$43750,47.92%,49,N/A,N/A,N/A,62,84.11%,N/A,44.18%,N/A,N/A,9.3%,0.0%,42.97%,Henderson County,34.10%,61.60%,0.0%,0.0%,100.0%,0.0%,0.0%,Eastern Standard Time,N/A,N/A,N/A,N/A,125,N/A,6.6,77,2207,4.8,3.72,NC-25900,35.4757849,-82.3504088,59%,59%,57%,55%,59%,44.7,46,64,N/A,N/A,N/A,N/A,35.7%,42.64%,34.44%
Gibson,North Carolina,680,694,Laurinburg,34637,$25769,10.47%,37,N/A,N/A,N/A,49,47.79%,$619,67.95%,N/A,N/A,33.38%,17.41%,46.09%,Scotland County,52.50%,44.90%,0.0%,50.29%,30.59%,0.88%,0.44%,N/A,N/A,N/A,N/A,N/A,102,N/A,6.4,66,N/A,4.9,0.98,NC-25940,34.7594889,-79.6068815,64%,68%,58%,52%,55%,38.3,47,66,N/A,N/A,N/A,N/A,33.01%,37.47%,36.33%
Gibsonville,North Carolina,7232,1971,Burlington,171346,$77500,36.52%,42,$300000,1724,$174,21,89.22%,$761,39.96%,231,1848,9.44%,2.92%,68.66%,Guilford County,58.00%,38.10%,0.83%,28.42%,64.02%,5.38%,4.29%,Eastern Standard Time,N/A,N/A,N/A,N/A,109,N/A,6.5,50,633,4.8,3.67,NC-25980,36.0993854,-79.5414977,59%,61%,55%,53%,56%,41.5,46,65,N/A,N/A,N/A,N/A,34.63%,38.02%,33.22%
Glen Alpine,North Carolina,1927,896,Hickory-Lenoir-Morganton,370266,$39550,21.01%,39,$306000,1843,$166,47,77.11%,$691,45.93%,N/A,N/A,14.63%,5.52%,59.13%,Burke County,28.90%,67.40%,2.8%,2.65%,84.17%,4.72%,7.01%,Eastern Standard Time,N/A,N/A,N/A,N/A,114,N/A,6.6,72,897,4.6,2.15,NC-26200,35.7307402,-81.7825764,59%,59%,57%,55%,59%,44.7,46,64,N/A,N/A,N/A,N/A,34.25%,40.11%,31.89%
Glen Raven,North Carolina,3697,1053,Burlington,171346,$53634,22.03%,29,$250000,1351,$185,36,77.68%,$820,52.72%,N/A,N/A,10.58%,7.76%,68.81%,Alamance County,41.90%,54.50%,1.79%,11.14%,74.36%,11.12%,6.76%,Eastern Standard Time,N/A,N/A,N/A,N/A,111,N/A,6.5,55,633,4.8,3.51,NC-26460,36.1246792,-79.4648562,59%,61%,55%,53%,56%,41.5,46,65,N/A,N/A,N/A,N/A,34.63%,38.02%,33.22%
Glenville,North Carolina,99,74,Cullowhee,58212,$44844,63.64%,60,N/A,N/A,N/A,29,90.91%,N/A,46.46%,N/A,N/A,5.05%,0.0%,67.68%,Jackson County,41.20%,52.70%,0.0%,0.0%,100.0%,0.0%,0.0%,N/A,N/A,N/A,N/A,N/A,151,N/A,6.6,85,N/A,4.8,1.34,NC-26520,35.171814,-83.1273396,59%,59%,57%,55%,59%,44.7,46,64,N/A,N/A,N/A,N/A,42.85%,51.87%,45.22%
Gloucester,North Carolina,484,336,Morehead City,69558,$42031,23.76%,44,$260000,935,$278,47,62.19%,N/A,32.72%,N/A,N/A,14.67%,4.53%,65.85%,Carteret County,26.30%,70.30%,0.0%,0.0%,100.0%,0.0%,0.0%,N/A,N/A,N/A,N/A,N/A,114,N/A,6.5,91,N/A,4.6,1.44,NC-26680,34.7293536,-76.5390165,59%,61%,55%,53%,56%,42.5,47,66,N/A,N/A,N/A,N/A,35.26%,40.33%,34.56%
Godwin,North Carolina,129,248,Fayetteville,529252,$35938,21.95%,58,N/A,N/A,N/A,45,62.79%,$444,36.0%,N/A,N/A,30.23%,0.0%,47.2%,Cumberland County,56.20%,40.20%,0.0%,59.69%,40.31%,0.0%,0.0%,Eastern Standard Time,N/A,N/A,N/A,N/A,112,N/A,6.5,66,96,4.7,0.52,NC-26740,35.2134536,-78.6770585,59%,61%,55%,53%,56%,42.5,47,66,N/A,N/A,N/A,N/A,30.47%,34.73%,31.0%
Goldsboro,North Carolina,34610,1211,Goldsboro,123967,$37556,20.49%,37,$160000,1441,$111,46,38.92%,$799,60.4%,783,5823,24.27%,10.79%,56.27%,Wayne County,42.90%,54.30%,2.26%,51.99%,35.32%,5.81%,5.18%,Eastern Standard Time,N/A,N/A,N/A,N/A,113,N/A,6.5,65,121,4.8,28.59,NC-26880,35.3777856,-77.9718047,59%,61%,55%,53%,56%,42.5,47,66,N/A,N/A,N/A,N/A,33.07%,34.18%,34.89%
Goldston,North Carolina,392,496,Durham-Chapel Hill,652542,$40833,8.83%,33,N/A,N/A,N/A,59,87.24%,$813,60.4%,N/A,N/A,6.63%,0.0%,74.92%,Chatham County,52.90%,42.90%,0.26%,2.81%,93.62%,0.51%,0.26%,Eastern Standard Time,N/A,N/A,N/A,N/A,106,N/A,6.5,66,441,4.6,0.79,NC-26920,35.5929371,-79.3285967,59%,61%,55%,53%,56%,42.5,47,66,N/A,N/A,N/A,N/A,25.95%,28.57%,26.56%
Gorman,North Carolina,979,338,Durham-Chapel Hill,652542,$63275,6.02%,49,$350000,2734,$128,53,85.19%,$1108,36.19%,N/A,N/A,22.27%,0.0%,44.13%,Durham County,77.70%,18.20%,0.0%,9.6%,47.8%,42.59%,42.59%,Eastern Standard Time,N/A,N/A,N/A,N/A,105,N/A,6.5,60,441,4.6,2.9,NC-27120,36.0417287,-78.8091706,59%,61%,55%,53%,56%,42.5,47,66,N/A,N/A,N/A,N/A,35.73%,38.46%,36.22%
Graham,North Carolina,15168,1524,Burlington,171346,$41499,20.7%,39,$362000,2235,$162,41,54.28%,$768,51.76%,N/A,N/A,24.81%,6.59%,60.4%,Alamance County,41.90%,54.50%,0.13%,23.93%,52.89%,17.62%,8.16%,Eastern Standard Time,N/A,N/A,N/A,N/A,108,N/A,6.5,53,633,4.8,9.95,NC-27280,36.058905,-79.38953,59%,61%,55%,53%,56%,41.5,46,65,N/A,N/A,N/A,N/A,33.04%,34.62%,34.33%
Grandfather,North Carolina,74,48,None,N/A,$195000,90.77%,66,N/A,N/A,N/A,39,100.0%,N/A,13.89%,N/A,N/A,0.0%,0.0%,29.17%,Avery County,20.50%,76.30%,0.0%,0.0%,100.0%,0.0%,2.7%,N/A,N/A,N/A,N/A,N/A,141,N/A,6.6,86,N/A,5,1.55,NC-27324,36.0987673,-81.8481481,59%,59%,57%,55%,59%,40.6,45,63,N/A,N/A,N/A,N/A,46.99%,52.31%,48.67%
Granite Falls,North Carolina,4659,945,Hickory-Lenoir-Morganton,370266,$67069,31.11%,42,$215000,1287,$167,35,66.05%,$774,42.54%,86,7172,10.37%,7.37%,56.23%,Caldwell County,23.20%,73.30%,2.73%,7.53%,78.06%,7.43%,3.84%,Eastern Standard Time,N/A,N/A,N/A,N/A,113,N/A,6.4,67,897,4.6,4.93,NC-27420,35.7969966,-81.4238363,64%,68%,58%,52%,55%,38.3,47,66,N/A,N/A,N/A,N/A,33.37%,39.34%,31.44%
Granite Quarry,North Carolina,2973,1022,Charlotte-Concord-Gastonia,2684276,$47529,19.38%,37,$306000,1987,$154,36,68.22%,$602,53.39%,N/A,N/A,13.79%,5.83%,58.89%,Rowan County,30.10%,66.50%,0.0%,3.83%,92.06%,3.3%,0.34%,Eastern Standard Time,N/A,N/A,N/A,N/A,102,N/A,6.4,60,769,4.7,2.91,NC-27440,35.612991,-80.4487829,64%,68%,58%,52%,55%,38.3,47,66,N/A,N/A,N/A,N/A,33.12%,35.05%,35.33%
Grantsboro,North Carolina,586,152,New Bern,123198,$56111,10.48%,45,$200000,1429,$140,36,75.91%,$766,42.63%,N/A,N/A,17.75%,6.5%,55.18%,Pamlico County,35.60%,62.00%,0.0%,6.48%,82.25%,7.0%,2.05%,Eastern Standard Time,N/A,N/A,N/A,N/A,117,N/A,6.5,84,10,4.5,3.85,NC-27520,35.1448713,-76.8446824,59%,61%,55%,53%,56%,42.5,47,66,N/A,N/A,N/A,N/A,32.19%,38.24%,34.44%
Green Level,North Carolina,2541,1694,Burlington,171346,$33938,5.86%,32,$234000,1614,$145,35,65.39%,$712,69.92%,N/A,N/A,20.72%,1.41%,53.94%,Alamance County,41.90%,54.50%,0.0%,54.03%,15.82%,29.87%,16.49%,Eastern Standard Time,N/A,N/A,N/A,N/A,111,N/A,6.5,36,633,4.8,1.5,NC-27870,36.1233279,-79.3461021,59%,61%,55%,53%,56%,41.5,46,65,N/A,N/A,N/A,N/A,33.04%,34.62%,34.33%
Greenevers,North Carolina,901,567,None,N/A,$27234,9.42%,39,N/A,N/A,N/A,29,69.54%,$494,67.56%,N/A,N/A,22.39%,11.46%,54.39%,Duplin County,39.70%,58.60%,0.0%,76.14%,5.11%,12.99%,5.88%,N/A,N/A,N/A,N/A,N/A,112,N/A,6.5,76,N/A,4.9,1.59,NC-27780,34.8271331,-77.925134,59%,61%,55%,53%,56%,42.5,47,66,N/A,N/A,N/A,N/A,31.07%,35.82%,32.11%
Greensboro,North Carolina,294395,2272,Greensboro-High Point,776363,$49492,39.39%,34,$255000,1635,$156,36,52.12%,$893,60.11%,818,3688,18.45%,6.54%,65.18%,Guilford County,58.00%,38.10%,5.43%,42.36%,40.98%,8.02%,12.05%,Eastern Standard Time,N/A,N/A,N/A,N/A,111,N/A,6.5,55,897,4.4,129.58,NC-28000,36.0956163,-79.8270883,59%,61%,55%,53%,56%,41.5,46,65,N/A,N/A,N/A,N/A,29.62%,31.98%,30.22%
Greenville,North Carolina,92826,2536,Greenville,182924,$42612,37.83%,27,$269000,1949,$138,26,34.32%,$823,68.34%,463,3011,27.31%,8.69%,63.56%,Pitt County,51.90%,44.30%,2.38%,39.18%,50.87%,4.43%,4.17%,Eastern Standard Time,N/A,N/A,N/A,N/A,110,N/A,6.5,64,40,4.7,36.6,NC-28080,35.5942921,-77.3760216,59%,61%,55%,53%,56%,42.5,47,66,N/A,N/A,N/A,N/A,34.36%,38.35%,34.44%
Grifton,North Carolina,2873,1072,Kinston,55720,$31846,10.01%,39,$107000,982,$109,46,48.05%,$500,54.66%,N/A,N/A,27.34%,11.23%,57.7%,Pitt County,51.90%,44.30%,0.0%,46.95%,43.09%,9.43%,4.46%,N/A,N/A,N/A,N/A,N/A,111,N/A,6.5,71,N/A,4.7,2.68,NC-28200,35.3728095,-77.442479,59%,61%,55%,53%,56%,42.5,47,66,N/A,N/A,N/A,N/A,26.96%,31.43%,26.56%
Grimesland,North Carolina,392,576,Greenville,182924,$36406,8.33%,54,N/A,N/A,N/A,46,61.48%,$684,58.31%,N/A,N/A,23.98%,8.43%,48.4%,Pitt County,51.90%,44.30%,0.0%,22.96%,69.64%,2.55%,6.12%,Eastern Standard Time,N/A,N/A,N/A,N/A,114,N/A,6.5,77,40,4.7,0.68,NC-28240,35.5623335,-77.1914767,59%,61%,55%,53%,56%,42.5,47,66,N/A,N/A,N/A,N/A,33.86%,39.12%,34.22%
Grover,North Carolina,588,613,Shelby,99035,$30750,9.49%,48,$215000,1194,$180,48,48.64%,$721,53.85%,N/A,N/A,14.12%,9.17%,49.67%,Cleveland County,33.50%,63.70%,3.74%,8.33%,86.73%,1.19%,3.57%,N/A,N/A,N/A,N/A,N/A,108,N/A,6.4,57,N/A,4.6,0.96,NC-28400,35.1734465,-81.4519601,64%,68%,58%,52%,55%,38.3,47,66,N/A,N/A,N/A,N/A,32.11%,38.46%,32.11%
Gulf,North Carolina,490,538,Durham-Chapel Hill,652542,$12059,N/A,N/A,N/A,N/A,N/A,78,0.0%,N/A,0.0%,N/A,N/A,0.0%,0.0%,0.0%,Chatham County,52.90%,42.90%,0.0%,0.0%,0.0%,0.0%,0.0%,Eastern Standard Time,N/A,N/A,N/A,N/A,106,N/A,6.5,66,441,4.6,0.91,NC-28600,35.5596975,-79.2806327,59%,61%,55%,53%,56%,42.5,47,66,N/A,N/A,N/A,N/A,25.95%,28.57%,26.56%
Half Moon,North Carolina,8384,1130,Jacksonville,203943,$51725,16.69%,29,$195000,1266,$154,34,70.56%,$866,32.68%,N/A,N/A,14.99%,10.74%,65.71%,Onslow County,30.70%,65.00%,3.26%,16.53%,59.26%,13.96%,4.2%,Eastern Standard Time,N/A,N/A,N/A,N/A,119,N/A,6.5,79,30,4.5,7.42,NC-28900,34.8297673,-77.4591316,59%,61%,55%,53%,56%,42.5,47,66,N/A,N/A,N/A,N/A,27.4%,32.75%,27.67%
Halifax,North Carolina,240,522,Roanoke Rapids,68567,$52150,28.57%,53,N/A,N/A,N/A,60,86.7%,N/A,35.94%,N/A,N/A,8.33%,0.0%,84.62%,Halifax County,62.60%,35.90%,0.0%,9.58%,90.0%,0.0%,0.0%,N/A,N/A,N/A,N/A,N/A,111,N/A,6.5,73,N/A,4.8,0.46,NC-28920,36.3254954,-77.5900951,59%,61%,55%,53%,56%,42.5,47,66,N/A,N/A,N/A,N/A,28.25%,29.23%,29.11%
Hallsboro,North Carolina,444,135,None,N/A,$55926,5.45%,66,N/A,N/A,N/A,43,73.52%,$606,33.9%,N/A,N/A,7.66%,10.42%,36.09%,Columbus County,38.20%,60.10%,0.0%,66.44%,33.56%,0.0%,0.0%,N/A,N/A,N/A,N/A,N/A,114,N/A,6.5,74,N/A,4.9,3.28,NC-29000,34.318915,-78.5933763,59%,61%,55%,53%,56%,42.5,47,66,N/A,N/A,N/A,N/A,27.26%,32.2%,27.56%
Hamilton,North Carolina,226,461,None,N/A,$36250,8.74%,57,N/A,N/A,N/A,60,67.26%,$817,48.11%,N/A,N/A,8.85%,25.25%,46.7%,Martin County,48.90%,49.30%,0.0%,51.33%,38.5%,0.0%,0.0%,N/A,N/A,N/A,N/A,N/A,113,N/A,6.5,76,N/A,4.4,0.49,NC-29120,35.9443779,-77.2067451,59%,61%,55%,53%,56%,42.5,47,66,N/A,N/A,N/A,N/A,32.3%,33.74%,34.0%
Hamlet,North Carolina,6366,1208,Rockingham,44332,$36381,11.9%,40,$121000,968,$125,53,58.35%,$544,62.81%,N/A,N/A,23.41%,7.13%,55.94%,Richmond County,44.00%,53.70%,1.16%,45.1%,49.17%,1.49%,1.26%,N/A,N/A,N/A,N/A,N/A,104,N/A,6.4,62,N/A,4.7,5.27,NC-29160,34.8892279,-79.7099847,64%,68%,58%,52%,55%,38.3,47,66,N/A,N/A,N/A,N/A,34.85%,38.02%,39.33%
Hampstead,North Carolina,6940,343,Wilmington,301284,$86250,41.57%,39,$490000,2333,$210,19,86.22%,$960,42.47%,N/A,N/A,12.04%,10.18%,63.52%,Pender County,33.50%,63.30%,0.43%,1.3%,93.83%,1.59%,3.36%,Eastern Standard Time,N/A,N/A,N/A,N/A,122,N/A,6.5,79,30,4.5,20.24,NC-29180,34.3626741,-77.7318405,59%,61%,55%,53%,56%,42.5,47,66,N/A,N/A,N/A,N/A,34.19%,40.55%,34.22%
Harkers Island,North Carolina,1314,587,Morehead City,69558,$53125,29.7%,51,$224000,1251,$179,41,76.24%,$1079,45.13%,N/A,N/A,16.74%,7.94%,47.72%,Carteret County,26.30%,70.30%,0.68%,2.97%,93.68%,2.66%,1.07%,N/A,N/A,N/A,N/A,N/A,114,N/A,6.5,91,N/A,4.6,2.24,NC-29560,34.6993796,-76.5587006,59%,61%,55%,53%,56%,42.5,47,66,N/A,N/A,N/A,N/A,35.26%,40.33%,34.56%
Harmony,North Carolina,525,386,Charlotte-Concord-Gastonia,2684276,$52917,15.49%,45,$222000,1805,$123,57,78.29%,$850,47.64%,N/A,N/A,5.65%,1.43%,68.22%,Iredell County,30.00%,66.30%,0.0%,3.24%,87.81%,8.19%,3.43%,Eastern Standard Time,N/A,N/A,N/A,N/A,107,N/A,6.4,68,769,4.8,1.36,NC-29640,35.9590784,-80.773498,64%,68%,58%,52%,55%,38.3,47,66,N/A,N/A,N/A,N/A,33.32%,37.25%,34.44%
Harrells,North Carolina,217,69,None,N/A,$58250,12.84%,32,N/A,N/A,N/A,48,43.78%,$618,55.95%,N/A,N/A,33.18%,5.1%,58.33%,Sampson County,40.70%,57.20%,0.0%,26.27%,44.7%,25.81%,11.52%,N/A,N/A,N/A,N/A,N/A,106,N/A,6.5,75,N/A,4.5,3.15,NC-29680,34.7278351,-78.2015141,59%,61%,55%,53%,56%,42.5,47,66,N/A,N/A,N/A,N/A,31.07%,35.82%,32.11%
Harrellsville,North Carolina,177,610,None,N/A,$58667,8.04%,40,N/A,N/A,N/A,69,80.23%,N/A,57.03%,N/A,N/A,13.56%,16.87%,64.84%,Hertford County,67.80%,30.40%,0.0%,51.41%,43.5%,5.08%,5.08%,N/A,N/A,N/A,N/A,N/A,103,N/A,7.7,76,N/A,4.5,0.29,NC-29720,36.3016736,-76.7917773,61%,65%,57%,57%,59%,34.9,48,66,N/A,N/A,N/A,N/A,31.56%,31.65%,33.33%
Harrisburg,North Carolina,16073,1425,Charlotte-Concord-Gastonia,2684276,$112757,51.04%,36,$445000,2225,$200,15,87.11%,$1678,39.57%,N/A,N/A,2.91%,3.62%,67.5%,Cabarrus County,38.10%,57.70%,10.26%,17.46%,60.31%,6.66%,10.43%,Eastern Standard Time,N/A,N/A,N/A,N/A,107,N/A,6.4,54,769,4.7,11.28,NC-29800,35.2993555,-80.6724337,64%,68%,58%,52%,55%,38.3,47,66,N/A,N/A,N/A,N/A,31.53%,34.73%,32.78%
