City,State,Population,People per sq mi,Metro Name,Metro population,Median household income,% with at least Bachelor's degree,Median age,Median home price,Median home sqft,Median home cost per sqft,Median home age,Homeownership Rate,Avg Apartment Monthly Rent,Single Population,Num Violent Crimes Per 100k residents,Num Property Crimes Per 100k residents,Poverty Rate,Unemployment rate,Labor Force Participation rate,County,% Democrat,% Republican,% Asian,% Black,% Non-Hispanic White,% Hispanic,Foreign Born %,Timezone,Hottest month's avg high (F),Coldest month's avg high (F),Hottest high minus coldest high,Hottest month's avg low (F),Coldest month's avg low (F),Annual Relative Humidity (afternoon),Summer Relative Humidity (afternoon),Annual dew point (F),Average summer dew point (F),Hottest month's avg heat index high (F),Annual Sunshine - Percentage of Possible,Summer Sunshine - Percentage of Possible,Winter Sunshine - Percentage of Possible,Annual rainfall (in),Summer rainfall (in),Winter rainfall (in),Percent of days that include precipitation,Percent of Summer days that include precipitation,Percent of Winter days that include precipitation,Annual snowfall (in),Days of snow per year,Average yearly windspeed (mph),Number of days with thunder per year,Air quality Index,Elevation (ft),UV Index,Land Area (sq mi),Fips Code,Latitude,Longitude
Abbeville,South Carolina,4863,782,Greenwood,69338,$38983,14.91%,37,N/A,N/A,N/A,54,53.38%,$575,62.25%,936,2451,23.39%,4.24%,53.35%,Abbeville County,34.70%,62.80%,0.0%,53.81%,41.07%,1.75%,1.99%,N/A,91,54,37,69,32,50%,52%,48,66,98,64%,67%,57%,46.42,11.84,13.25,32.33%,35.6%,35.11%,2.2,0,6.1,42.5,61,636,4.9,6.22,SC-00100,34.1787092,-82.3774188
Aiken,South Carolina,32334,1546,Augusta-Richmond County,607673,$69837,45.07%,47,$277000,1776,$156,33,68.85%,$1199,52.72%,575,4847,16.29%,4.65%,53.25%,Aiken County,34.00%,61.50%,1.98%,32.16%,59.47%,3.48%,3.72%,Eastern Standard Time,94,58,36,70,32,50%,52%,51,68,104,64%,67%,57%,46.57,14.71,11.65,29.15%,35.93%,32.11%,1.0,0,6.1,50.8,54,495,4.7,20.91,SC-00550,33.5304254,-81.7269822
Alcolu,South Carolina,426,94,None,N/A,$41917,20.28%,22,N/A,N/A,N/A,39,70.94%,$685,57.2%,N/A,N/A,44.39%,0.0%,56.25%,Clarendon County,50.20%,48.00%,0.0%,56.81%,15.26%,24.88%,0.0%,N/A,90,56,34,70,35,50%,52%,51,68,96,64%,67%,57%,50.66,15.8,11.19,33.21%,37.36%,37.0%,1.2,0,6.1,50.8,64,78,4.9,4.55,SC-00775,33.7546613,-80.2221348
Allendale,South Carolina,2595,784,None,N/A,$25250,20.92%,37,N/A,N/A,N/A,45,62.57%,$685,59.27%,2599,4651,42.76%,3.99%,40.15%,Allendale County,76.10%,22.00%,11.64%,62.24%,13.68%,23.39%,1.16%,N/A,94,60,34,70,35,54%,57%,55,70,108,59%,59%,55%,48.45,15.58,11.79,28.82%,35.27%,31.11%,1.0,0,6.9,60.5,57,156,5.2,3.31,SC-00955,33.008047,-81.3091642
Anderson,South Carolina,29563,2043,Greenville-Anderson-Mauldin,918166,$44321,27.32%,33,$235000,1655,$142,44,47.97%,$965,60.93%,N/A,N/A,22.27%,7.31%,61.19%,Anderson County,26.20%,69.90%,2.41%,28.59%,59.26%,4.73%,5.21%,Eastern Standard Time,91,53,38,71,32,55%,59%,48,66,102,59%,59%,57%,50.42,12.8,14.42,30.93%,33.52%,35.11%,2.2,0,6.6,42.5,47,732,5,14.47,SC-01360,34.5210975,-82.6476648
Andrews,South Carolina,2558,1157,Georgetown,62992,$53611,12.4%,34,N/A,N/A,N/A,39,59.16%,$1012,57.56%,N/A,N/A,30.22%,2.2%,68.12%,Georgetown County,42.00%,54.90%,0.0%,56.33%,41.13%,0.16%,0.08%,N/A,90,58,32,70,34,50%,52%,54,70,96,64%,67%,57%,51.07,17.18,10.26,31.26%,38.68%,32.0%,0.6,0,7.9,54.4,63,33,5,2.21,SC-01450,33.4494268,-79.5659698
Antreville,South Carolina,253,65,Greenwood,69338,$136250,20.0%,57,N/A,N/A,N/A,18,100.0%,N/A,73.44%,N/A,N/A,24.11%,0.0%,32.74%,Abbeville County,34.70%,62.80%,0.0%,0.79%,99.21%,0.0%,13.04%,N/A,91,54,37,70,32,55%,59%,48,66,102,59%,59%,57%,46.42,11.84,13.25,27.92%,29.56%,31.22%,2.2,0,6.6,42.5,64,636,4.9,3.88,SC-01810,34.2970989,-82.5540432
Arcadia,South Carolina,2724,1390,Spartanburg,322864,$37574,17.61%,28,$140000,1207,$116,19,53.59%,$1181,68.79%,N/A,N/A,27.75%,4.61%,78.88%,Spartanburg County,33.00%,63.00%,8.41%,24.63%,24.93%,42.36%,27.83%,Eastern Standard Time,91,55,36,68,31,55%,59%,48,66,102,59%,59%,57%,53.02,13.48,13.54,26.85%,28.35%,29.89%,3.6,0,6.6,42.5,49,759,4.7,1.96,SC-02080,34.9608833,-81.9929503
Arcadia Lakes,South Carolina,843,1505,Columbia,825823,$96000,69.32%,64,N/A,N/A,N/A,50,96.56%,N/A,26.69%,N/A,N/A,2.85%,0.7%,60.73%,Richland County,64.00%,31.10%,1.3%,5.22%,88.02%,5.34%,5.22%,Eastern Standard Time,96,60,36,72,37,50%,52%,51,68,109,64%,67%,57%,48.96,15.05,12.02,32.93%,38.68%,37.56%,1.2,0,6.1,50.8,45,192,4.9,0.56,SC-02125,34.0536306,-80.9615547
Arial,South Carolina,2024,432,Greenville-Anderson-Mauldin,918166,$50132,16.3%,46,$140000,1239,$113,45,85.77%,$749,47.57%,N/A,N/A,10.47%,0.0%,58.05%,Pickens County,21.10%,73.90%,1.24%,5.14%,83.05%,3.9%,2.03%,Eastern Standard Time,90,53,37,69,30,55%,59%,48,66,100,59%,59%,57%,50.64,13.82,13.39,32.16%,37.03%,34.0%,2.2,0,6.6,42.5,65,909,4.4,4.68,SC-02440,34.8462615,-82.6404577
Atlantic Beach,South Carolina,283,1769,Myrtle Beach-Conway-North Myrtle Beach,478654,$40000,16.42%,42,$313000,716,$437,49,46.41%,$982,64.5%,N/A,N/A,35.34%,7.32%,71.0%,Horry County,29.60%,67.20%,0.0%,64.66%,18.37%,15.55%,23.67%,Eastern Standard Time,88,56,32,74,37,50%,52%,54,70,92,64%,67%,57%,49.24,16.62,9.25,30.77%,37.25%,32.22%,0.9,0,7.9,54.4,76,30,5.1,0.16,SC-03205,33.8035535,-78.7177418
Awendaw,South Carolina,1574,91,Charleston-North Charleston,789932,$70781,38.55%,58,$300000,1333,$225,21,93.52%,$2792,38.79%,N/A,N/A,15.88%,11.05%,50.59%,Charleston County,50.60%,42.80%,0.0%,46.51%,53.3%,0.0%,0.64%,Eastern Standard Time,91,60,31,74,39,50%,52%,54,70,98,64%,67%,57%,51.58,17.91,9.76,27.75%,37.8%,27.78%,0.6,0,7.9,54.4,74,6,5.1,17.3,SC-03385,32.9662573,-79.6584301
Aynor,South Carolina,1077,598,Myrtle Beach-Conway-North Myrtle Beach,478654,$70972,26.44%,38,N/A,N/A,N/A,30,79.49%,$1059,45.79%,301,2716,8.73%,2.56%,63.75%,Horry County,29.60%,67.20%,1.49%,11.7%,84.87%,0.65%,0.84%,Eastern Standard Time,90,54,36,70,33,50%,52%,54,70,96,64%,67%,57%,54.23,16.19,10.74,30.63%,35.49%,32.89%,2.1,0,7.9,54.4,67,102,5.1,1.8,SC-03430,34.0002297,-79.2071179
Bamberg,South Carolina,3036,848,None,N/A,$27614,26.05%,45,N/A,N/A,N/A,48,72.25%,$779,72.88%,500,4600,31.86%,17.99%,48.24%,Bamberg County,62.70%,35.50%,0.0%,57.28%,41.14%,1.58%,1.58%,N/A,92,57,35,71,37,50%,52%,51,68,100,64%,67%,57%,48.35,15.18,11.26,32.33%,37.8%,34.11%,1.2,0,6.1,50.8,62,144,5,3.58,SC-03790,33.2995922,-81.0322292
Barnwell,South Carolina,4616,589,None,N/A,$43239,18.09%,34,N/A,N/A,N/A,51,59.05%,$545,66.86%,2059,4767,33.09%,15.07%,55.05%,Barnwell County,46.40%,51.50%,1.73%,47.88%,44.54%,1.36%,7.37%,N/A,94,60,34,70,35,50%,52%,51,68,104,64%,67%,57%,48.29,15.75,11.65,28.82%,35.27%,31.11%,1.0,0,6.1,50.8,61,225,4.8,7.84,SC-04060,33.2419381,-81.3659124
Batesburg-Leesville,South Carolina,4935,602,Columbia,825823,$53102,17.83%,40,N/A,N/A,N/A,50,63.75%,$792,47.18%,1131,4100,18.43%,2.61%,55.93%,Lexington County,28.90%,65.50%,0.0%,39.05%,47.6%,9.06%,3.36%,Eastern Standard Time,91,55,36,70,35,50%,52%,51,68,98,64%,67%,57%,46.16,12.96,11.8,29.95%,31.98%,35.56%,1.2,0,6.1,50.8,62,603,4.7,8.2,SC-04300,33.9101425,-81.5373261
Beaufort,South Carolina,13660,559,Hilton Head Island-Bluffton-Beaufort,214370,$59454,38.09%,32,$386000,1643,$235,36,55.13%,$1061,56.99%,430,3411,18.0%,3.94%,70.38%,Beaufort County,40.90%,54.70%,0.78%,27.66%,61.54%,6.31%,3.85%,Eastern Standard Time,92,61,31,75,40,54%,57%,55,70,103,59%,59%,55%,49.21,17.4,10.6,28.22%,36.48%,29.11%,0.2,0,6.9,60.5,64,33,5.5,24.43,SC-04690,32.4597508,-80.7236316
Belton,South Carolina,4405,1165,Greenville-Anderson-Mauldin,918166,$48164,15.59%,33,$193000,1206,$160,63,66.87%,$896,43.39%,338,3518,19.16%,7.2%,66.55%,Anderson County,26.20%,69.90%,0.14%,8.6%,81.45%,1.02%,1.29%,Eastern Standard Time,91,53,38,71,32,55%,59%,48,66,102,59%,59%,57%,48.9,12.47,13.8,29.23%,30.11%,33.56%,2.2,0,6.6,42.5,62,711,5,3.78,SC-05365,34.5236912,-82.4936886
Belvedere,South Carolina,5458,1582,Augusta-Richmond County,607673,$57933,23.28%,38,$203000,1420,$143,53,77.45%,$952,60.42%,N/A,N/A,16.02%,5.21%,69.39%,Aiken County,34.00%,61.50%,0.95%,21.11%,62.97%,9.8%,5.39%,Eastern Standard Time,94,58,36,74,40,50%,52%,51,68,104,64%,67%,57%,44.9,14.68,11.75,29.78%,35.82%,33.0%,1.0,0,6.1,50.8,46,387,4.7,3.45,SC-05410,33.536906,-81.9423558
Bennettsville,South Carolina,6798,1102,Bennettsville,26912,$40889,14.64%,41,N/A,N/A,N/A,52,50.52%,$650,68.91%,685,4025,23.47%,8.8%,49.64%,Marlboro County,57.30%,41.10%,1.09%,61.53%,28.96%,1.78%,0.74%,N/A,92,56,36,70,34,52%,55%,47,66,101,64%,68%,58%,49.64,15.54,10.73,40.0%,42.42%,43.89%,2.1,0,6.4,38.3,61,138,4.8,6.17,SC-05680,34.6303488,-79.6875262
Berea,South Carolina,16642,2161,Greenville-Anderson-Mauldin,918166,$48104,18.18%,37,$245000,1376,$178,41,60.82%,$1032,54.84%,N/A,N/A,21.96%,6.7%,61.56%,Greenville County,34.60%,59.40%,1.31%,22.21%,40.54%,32.63%,19.79%,Eastern Standard Time,91,54,37,72,35,55%,59%,48,66,102,59%,59%,57%,54.18,14.98,14.22,33.42%,38.9%,34.89%,3.6,0,6.6,42.5,55,867,5,7.7,SC-05770,34.8802393,-82.4650766
Bethune,South Carolina,421,383,Columbia,825823,$42656,21.61%,38,N/A,N/A,N/A,61,71.06%,$1644,63.01%,N/A,N/A,35.15%,6.85%,42.32%,Kershaw County,35.60%,60.50%,0.0%,5.94%,80.76%,11.16%,5.46%,Eastern Standard Time,92,55,37,70,32,50%,52%,51,68,100,64%,67%,57%,48.62,15.05,11.12,29.78%,34.73%,32.56%,1.2,0,6.1,50.8,66,168,4.9,1.1,SC-06040,34.4141813,-80.3487468
Bishopville,South Carolina,2958,1264,None,N/A,$44015,17.15%,43,N/A,N/A,N/A,39,43.56%,$554,62.17%,2938,6627,29.01%,2.14%,52.21%,Lee County,63.70%,34.40%,0.41%,74.85%,22.08%,1.08%,7.57%,N/A,91,57,34,70,33,50%,52%,51,68,98,64%,67%,57%,48.62,15.05,11.12,29.78%,34.73%,32.56%,1.2,0,6.1,50.8,62,159,4.8,2.34,SC-06310,34.2203068,-80.2482004
Blacksburg,South Carolina,2158,1154,Gaffney,56204,$33500,12.24%,33,$171000,1613,$106,48,41.31%,$789,63.89%,531,3611,33.24%,9.56%,59.39%,Cherokee County,28.00%,69.70%,0.37%,21.22%,60.38%,14.69%,6.72%,N/A,88,51,37,66,27,52%,55%,47,66,93,64%,68%,58%,47.53,12.12,12.0,32.11%,38.46%,32.11%,3.2,0,6.4,38.3,59,531,5,1.87,SC-06400,35.1220888,-81.5181183
Blackville,South Carolina,1778,199,None,N/A,$26100,5.61%,43,N/A,N/A,N/A,42,67.5%,$966,65.82%,1048,5925,28.23%,3.45%,54.68%,Barnwell County,46.40%,51.50%,0.0%,85.15%,11.87%,2.64%,0.39%,N/A,91,57,34,70,36,50%,52%,51,68,98,64%,67%,57%,45.95,14.09,11.55,28.82%,35.27%,31.11%,1.0,0,6.1,50.8,62,291,4.8,8.93,SC-06490,33.3551999,-81.2835245
Blenheim,South Carolina,46,71,Bennettsville,26912,$66667,25.71%,35,N/A,N/A,N/A,64,44.72%,N/A,52.63%,N/A,N/A,11.63%,0.0%,72.22%,Marlboro County,57.30%,41.10%,0.0%,8.7%,76.09%,0.0%,0.0%,N/A,92,56,36,70,34,50%,52%,51,68,100,64%,67%,57%,49.64,15.54,10.73,40.0%,42.42%,43.89%,2.1,0,6.1,50.8,63,138,4.8,0.65,SC-06850,34.509758,-79.6524856
Bluffton,South Carolina,31323,603,Hilton Head Island-Bluffton-Beaufort,214370,$105463,47.87%,41,$525000,2152,$244,8,83.32%,$2187,34.78%,185,886,4.82%,2.25%,62.5%,Beaufort County,40.90%,54.70%,0.89%,9.42%,70.94%,14.93%,7.17%,Eastern Standard Time,93,62,31,74,40,54%,57%,55,70,105,59%,59%,55%,49.38,17.48,10.47,28.3%,38.68%,27.44%,0.2,0,6.9,60.5,67,15,5.5,51.97,SC-07210,32.2134797,-80.9316562
Blythewood,South Carolina,5309,499,Columbia,825823,$105583,44.28%,44,N/A,N/A,N/A,10,87.21%,$1083,27.97%,N/A,N/A,3.6%,4.26%,67.96%,Richland County,64.00%,31.10%,6.8%,40.35%,45.98%,2.99%,8.44%,Eastern Standard Time,91,55,36,68,29,50%,52%,51,68,98,64%,67%,57%,46.31,12.75,12.19,29.64%,31.98%,34.44%,1.2,0,6.1,50.8,58,309,4.9,10.63,SC-07255,34.2120606,-80.9920667
Boiling Springs,South Carolina,12609,1843,Spartanburg,322864,$79798,29.88%,34,$265000,1596,$166,14,80.71%,$1267,39.89%,N/A,N/A,9.2%,2.97%,68.46%,Spartanburg County,33.00%,63.00%,4.06%,16.51%,67.91%,5.0%,11.95%,Eastern Standard Time,89,52,37,67,27,55%,59%,48,66,97,59%,59%,57%,51.51,13.55,13.04,33.01%,37.36%,35.44%,3.6,0,6.6,42.5,56,684,4.7,6.84,SC-07345,35.0450112,-81.9779299
Bonneau,South Carolina,536,177,Charleston-North Charleston,789932,$58750,12.87%,39,$425000,1398,$304,36,95.56%,$1188,42.25%,N/A,N/A,33.21%,12.66%,57.68%,Berkeley County,38.60%,56.10%,0.0%,16.04%,77.99%,0.56%,0.75%,Eastern Standard Time,94,59,35,74,39,50%,52%,54,70,104,64%,67%,57%,52.05,17.78,10.81,30.74%,38.02%,31.67%,0.6,0,7.9,54.4,63,45,4.7,3.02,SC-07525,33.3080922,-79.9573425
Bonneau Beach,South Carolina,1543,657,Charleston-North Charleston,789932,$57561,18.99%,62,$425000,2225,$191,25,68.55%,$1306,29.12%,N/A,N/A,16.9%,0.0%,34.54%,Berkeley County,38.60%,56.10%,6.74%,15.81%,70.12%,0.0%,2.27%,Eastern Standard Time,94,59,35,74,39,50%,52%,54,70,104,64%,67%,57%,52.05,17.78,10.81,30.74%,38.02%,31.67%,0.6,0,7.9,54.4,63,45,4.7,2.35,SC-07535,33.3228658,-79.9899813
Bowman,South Carolina,789,669,Orangeburg,84909,$27500,4.89%,33,$195000,1931,$101,43,72.12%,$848,65.36%,1769,4203,48.92%,8.7%,43.48%,Orangeburg County,67.60%,30.70%,0.0%,76.05%,20.66%,2.79%,3.04%,N/A,92,58,34,72,37,50%,52%,51,68,100,64%,67%,57%,51.2,16.7,11.49,32.33%,37.8%,34.11%,1.2,0,6.1,50.8,62,84,4.8,1.18,SC-07840,33.3483023,-80.6842926
Boykin,South Carolina,134,19,Columbia,825823,$134219,12.7%,66,N/A,N/A,N/A,34,83.19%,N/A,38.06%,N/A,N/A,0.0%,0.0%,89.55%,Kershaw County,35.60%,60.50%,0.0%,0.0%,97.01%,0.0%,0.0%,Eastern Standard Time,91,55,36,70,32,50%,52%,51,68,98,64%,67%,57%,48.09,13.43,12.4,33.21%,37.36%,37.0%,1.2,0,6.1,50.8,63,174,4.9,6.88,SC-08110,34.1198126,-80.5886333
Bradley,South Carolina,207,26,Greenwood,69338,N/A,20.37%,36,N/A,N/A,N/A,70,14.96%,N/A,80.85%,N/A,N/A,78.26%,0.0%,19.15%,Greenwood County,37.20%,59.00%,0.0%,46.86%,5.31%,0.0%,0.0%,N/A,93,55,38,70,33,50%,52%,48,66,102,64%,67%,57%,46.5,13.26,12.95,32.33%,35.6%,35.11%,1.0,0,6.1,42.5,62,465,5,7.86,SC-08155,34.0391011,-82.2435136
Branchville,South Carolina,1169,369,Orangeburg,84909,$40144,17.65%,53,N/A,N/A,N/A,39,51.95%,$772,47.94%,105,1995,15.59%,11.64%,53.39%,Orangeburg County,67.60%,30.70%,0.0%,41.75%,54.15%,3.17%,0.0%,N/A,92,57,35,71,37,50%,52%,51,68,100,64%,67%,57%,51.2,16.7,11.49,32.33%,37.8%,34.11%,0.6,0,6.1,50.8,62,84,4.8,3.17,SC-08245,33.2517124,-80.8160778
Briarcliffe Acres,South Carolina,499,780,Myrtle Beach-Conway-North Myrtle Beach,478654,$182083,61.38%,61,$740000,2761,$268,43,97.92%,N/A,38.7%,N/A,N/A,8.42%,0.93%,47.05%,Horry County,29.60%,67.20%,0.4%,4.81%,91.58%,2.61%,2.0%,Eastern Standard Time,88,56,32,74,37,50%,52%,54,70,92,64%,67%,57%,49.24,16.62,9.25,30.77%,37.25%,32.22%,0.9,0,7.9,54.4,76,30,5.1,0.64,SC-08830,33.790125,-78.7490294
Brookdale,South Carolina,4061,1116,Orangeburg,84909,$34279,14.05%,33,$128000,1219,$105,42,43.06%,$711,78.04%,N/A,N/A,36.11%,14.7%,45.1%,Orangeburg County,67.60%,30.70%,0.0%,98.47%,1.06%,0.0%,1.11%,N/A,93,60,33,71,37,50%,52%,51,68,102,64%,67%,57%,51.19,16.35,11.83,31.89%,37.25%,34.11%,1.2,0,6.1,50.8,57,168,4.8,3.64,SC-09527,33.5182724,-80.8332661
Brunson,South Carolina,457,448,None,N/A,$37391,15.15%,46,N/A,N/A,N/A,50,62.31%,$922,60.36%,N/A,N/A,24.28%,7.27%,57.14%,Hampton County,58.70%,39.60%,0.0%,32.39%,57.33%,0.44%,1.31%,N/A,94,60,34,70,35,54%,57%,55,70,108,59%,59%,55%,48.65,16.42,11.13,28.82%,35.27%,31.11%,1.0,0,6.9,60.5,60,123,5.5,1.02,SC-09865,32.9242564,-81.1886435
Bucksport,South Carolina,583,139,Myrtle Beach-Conway-North Myrtle Beach,478654,N/A,19.12%,50,$105000,946,$111,24,96.05%,N/A,97.06%,N/A,N/A,13.21%,11.59%,57.86%,Horry County,29.60%,67.20%,17.32%,82.68%,0.0%,0.0%,17.32%,Eastern Standard Time,89,58,31,73,37,50%,52%,54,70,94,64%,67%,57%,56.69,18.13,10.67,30.77%,37.25%,32.22%,0.9,0,7.9,54.4,68,18,5.1,4.2,SC-10000,33.6706023,-79.1102149
Buffalo,South Carolina,1232,306,Spartanburg,322864,$21831,5.03%,28,N/A,N/A,N/A,49,61.86%,N/A,63.16%,N/A,N/A,43.59%,10.13%,49.31%,Union County,39.10%,58.40%,0.0%,0.0%,100.0%,0.0%,0.0%,Eastern Standard Time,91,54,37,68,28,52%,55%,48,66,99,64%,68%,58%,45.04,11.2,12.31,30.93%,33.19%,32.67%,3.6,0,6.4,42.5,61,438,4.8,4.02,SC-10090,34.7244403,-81.684357
Burnettown,South Carolina,3090,562,Augusta-Richmond County,607673,$38371,20.92%,34,$107000,1029,$104,36,59.87%,$1014,36.64%,36,836,26.73%,6.58%,53.43%,Aiken County,34.00%,61.50%,0.0%,20.16%,68.48%,7.93%,0.65%,Eastern Standard Time,93,57,36,68,30,50%,52%,51,68,102,64%,67%,57%,47.97,15.34,11.86,29.78%,35.82%,33.0%,1.0,0,6.1,50.8,55,273,4.7,5.5,SC-10270,33.5185511,-81.8634953
Burton,South Carolina,7132,854,Hilton Head Island-Bluffton-Beaufort,214370,$57315,18.22%,32,$240000,1165,$206,32,50.47%,$1281,49.6%,N/A,N/A,10.62%,1.24%,59.56%,Beaufort County,40.90%,54.70%,3.7%,38.29%,39.6%,15.77%,7.94%,Eastern Standard Time,92,61,31,75,40,54%,57%,55,70,103,59%,59%,55%,49.21,17.4,10.6,28.22%,36.48%,29.11%,0.2,0,6.9,60.5,69,33,5.5,8.35,SC-10360,32.4232083,-80.7455752
Calhoun Falls,South Carolina,1897,560,Greenwood,69338,$35527,10.45%,45,N/A,N/A,N/A,48,68.36%,$476,68.18%,732,1621,15.6%,1.04%,47.82%,Abbeville County,34.70%,62.80%,0.0%,58.46%,37.27%,0.0%,0.0%,N/A,91,54,37,70,32,50%,52%,48,66,98,64%,67%,57%,46.5,11.61,13.75,27.92%,29.56%,31.22%,2.2,0,6.1,42.5,64,486,4.9,3.39,SC-10720,34.0932441,-82.5963125
Camden,South Carolina,8025,724,Columbia,825823,$53289,36.26%,42,N/A,N/A,N/A,47,80.66%,$803,50.76%,1187,5316,16.66%,8.74%,61.14%,Kershaw County,35.60%,60.50%,0.46%,30.11%,58.7%,7.36%,4.09%,Eastern Standard Time,91,55,36,70,32,50%,52%,51,68,98,64%,67%,57%,48.09,13.43,12.4,33.21%,37.36%,37.0%,1.2,0,6.1,50.8,58,174,4.9,11.08,SC-10855,34.257028,-80.6089528
Cameron,South Carolina,451,144,Columbia,825823,$72500,20.95%,50,N/A,N/A,N/A,50,89.49%,$1025,40.06%,0,2020,15.3%,8.58%,66.57%,Calhoun County,47.30%,50.20%,1.33%,16.19%,80.04%,1.33%,1.55%,Eastern Standard Time,93,60,33,71,37,50%,52%,51,68,102,64%,67%,57%,51.19,16.35,11.83,31.89%,37.25%,34.11%,1.2,0,6.1,50.8,65,168,4.8,3.13,SC-10900,33.5579545,-80.7150343
Campobello,South Carolina,888,321,Spartanburg,322864,$84063,17.23%,31,$257000,1291,$199,50,86.32%,$1344,45.93%,N/A,N/A,8.47%,2.98%,64.5%,Spartanburg County,33.00%,63.00%,0.45%,8.56%,85.81%,8.67%,5.86%,Eastern Standard Time,87,50,37,68,32,55%,59%,48,66,93,59%,59%,57%,58.49,14.93,15.34,37.97%,45.38%,38.56%,3.6,0,6.6,42.5,68,1026,4.7,2.77,SC-11125,35.1256719,-82.1492938
Cane Savannah,South Carolina,1497,412,Sumter,137150,N/A,25.41%,48,$379000,2893,$131,21,84.32%,N/A,39.57%,N/A,N/A,5.48%,17.0%,77.04%,Sumter County,54.50%,42.50%,0.0%,55.51%,41.88%,0.0%,0.2%,Eastern Standard Time,91,56,35,70,33,50%,52%,51,68,98,64%,67%,57%,50.5,16.33,10.91,33.21%,37.36%,37.0%,1.2,0,6.1,50.8,61,165,5,3.63,SC-11350,33.8923073,-80.4396056
Carlisle,South Carolina,438,308,Spartanburg,322864,$59750,9.26%,35,N/A,N/A,N/A,41,63.57%,$871,63.59%,N/A,N/A,6.39%,6.83%,80.05%,Union County,39.10%,58.40%,0.0%,87.44%,11.42%,1.14%,0.0%,Eastern Standard Time,93,55,38,68,31,50%,52%,51,68,102,64%,67%,57%,44.0,11.09,11.67,30.93%,33.19%,32.67%,3.6,0,6.1,50.8,61,477,4.8,1.42,SC-11755,34.5920409,-81.4645133
Catawba,South Carolina,1225,123,Charlotte-Concord-Gastonia,2625282,$55385,25.03%,38,$220000,969,$227,26,75.21%,$1525,60.44%,N/A,N/A,17.31%,11.39%,66.7%,York County,36.40%,58.40%,4.0%,17.96%,78.04%,4.0%,2.61%,Eastern Standard Time,91,54,37,70,33,52%,55%,47,66,99,64%,68%,58%,45.72,11.78,11.56,29.56%,30.99%,32.67%,3.2,0,6.4,38.3,56,522,4.8,9.97,SC-12430,34.8464391,-80.9060546
Cayce,South Carolina,13718,810,Columbia,825823,$58095,30.54%,37,N/A,N/A,N/A,50,54.58%,$1358,62.8%,971,5657,17.81%,5.28%,66.77%,Lexington County,28.90%,65.50%,3.22%,27.02%,57.96%,9.57%,6.01%,Eastern Standard Time,94,58,36,73,37,50%,52%,51,68,104,64%,67%,57%,44.76,14.14,10.58,30.33%,35.82%,31.56%,1.2,0,6.1,50.8,40,195,4.7,16.94,SC-12655,33.94592,-81.0428831
Centerville,South Carolina,6860,1161,Greenville-Anderson-Mauldin,918166,$66912,23.07%,46,$255000,1689,$151,30,84.52%,$1027,44.34%,N/A,N/A,7.33%,1.03%,70.26%,Anderson County,26.20%,69.90%,1.09%,8.59%,86.72%,3.72%,1.71%,Eastern Standard Time,91,54,37,70,33,55%,59%,48,66,102,59%,59%,57%,44.52,11.03,12.62,30.93%,33.52%,35.11%,2.2,0,6.6,42.5,54,696,5,5.91,SC-12965,34.5256723,-82.7161215
Central,South Carolina,5299,1906,Greenville-Anderson-Mauldin,918166,$58262,48.56%,23,$174000,1349,$129,27,17.22%,$973,70.17%,18,2527,31.42%,4.98%,56.37%,Pickens County,21.10%,73.90%,8.13%,7.28%,64.67%,7.1%,10.59%,Eastern Standard Time,91,53,38,69,33,55%,59%,48,66,102,59%,59%,57%,51.58,12.7,14.86,31.59%,33.96%,35.22%,2.2,0,6.6,42.5,60,732,4.4,2.78,SC-13015,34.7233675,-82.7788308
Central Pacolet,South Carolina,255,1063,Spartanburg,322864,$29500,3.91%,45,N/A,N/A,N/A,60,67.5%,$738,59.31%,N/A,N/A,21.18%,0.0%,38.22%,Spartanburg County,33.00%,63.00%,0.0%,0.0%,94.9%,2.35%,1.57%,Eastern Standard Time,91,55,36,68,31,52%,55%,48,66,99,64%,68%,58%,49.87,12.25,13.26,26.85%,28.35%,29.89%,3.6,0,6.4,42.5,60,558,4.7,0.24,SC-13060,34.9095976,-81.7527569
Chapin,South Carolina,1410,712,Columbia,825823,$77632,29.63%,43,N/A,N/A,N/A,19,84.39%,$1400,50.26%,181,3387,5.21%,2.71%,62.32%,Lexington County,28.90%,65.50%,1.35%,17.59%,70.99%,3.97%,2.55%,Eastern Standard Time,91,55,36,71,35,50%,52%,51,68,98,64%,67%,57%,45.28,12.57,11.67,33.64%,36.37%,36.33%,1.2,0,6.1,50.8,63,396,4.7,1.98,SC-13150,34.1649609,-81.344658
Charleston,South Carolina,152014,1325,Charleston-North Charleston,789932,$90038,57.67%,36,$523000,1743,$300,26,58.28%,$1632,54.11%,373,2259,11.97%,3.41%,67.91%,Charleston County,50.60%,42.80%,2.17%,17.36%,70.56%,5.89%,5.43%,Eastern Standard Time,88,59,29,77,44,54%,57%,54,70,94,59%,59%,55%,49.03,16.83,9.9,27.75%,37.8%,27.78%,0.6,0,7.9,54.4,59,15,5.1,114.76,SC-13330,32.8162917,-79.9679229
Cheraw,South Carolina,5024,844,None,N/A,$27275,21.02%,45,N/A,N/A,N/A,52,43.21%,$806,60.43%,1091,7389,35.44%,14.91%,55.09%,Chesterfield County,41.40%,56.20%,1.35%,53.38%,36.35%,6.51%,5.97%,N/A,90,55,35,70,31,52%,55%,47,66,97,64%,68%,58%,51.91,15.39,11.27,40.0%,42.42%,43.89%,2.1,0,6.4,38.3,60,138,5,5.95,SC-13600,34.6955541,-79.9084199
Cherryvale,South Carolina,3136,1733,Sumter,137150,$41563,11.77%,25,N/A,N/A,N/A,36,47.63%,$950,70.97%,N/A,N/A,19.23%,23.19%,68.77%,Sumter County,54.50%,42.50%,0.48%,55.96%,39.48%,3.06%,2.2%,Eastern Standard Time,91,56,35,70,33,50%,52%,51,68,98,64%,67%,57%,50.5,16.33,10.91,33.21%,37.36%,37.0%,1.2,0,6.1,50.8,63,165,5,1.81,SC-14018,33.9542765,-80.4608985
Chesnee,South Carolina,804,751,Gaffney,56204,$39375,9.03%,43,$219000,1058,$207,57,59.8%,$839,69.26%,316,5590,31.84%,4.93%,56.55%,Spartanburg County,33.00%,63.00%,0.0%,11.57%,81.59%,4.1%,1.87%,N/A,89,52,37,67,27,55%,59%,48,66,97,59%,59%,57%,52.7,12.86,13.63,33.01%,37.36%,35.44%,3.6,0,6.6,42.5,59,834,4.7,1.07,SC-14050,35.1462476,-81.8629779
Chester,South Carolina,5241,1583,Charlotte-Concord-Gastonia,2625282,$41231,13.08%,37,$201000,1511,$133,60,56.68%,$905,65.96%,1527,3967,25.03%,11.58%,54.86%,Chester County,46.40%,51.20%,0.8%,64.63%,31.83%,1.3%,0.42%,Eastern Standard Time,90,52,38,69,30,52%,55%,47,66,97,64%,68%,58%,45.72,12.78,11.71,28.22%,31.21%,31.78%,3.2,0,6.4,38.3,50,513,4.8,3.31,SC-14095,34.7050204,-81.2132076
Chesterfield,South Carolina,1497,369,None,N/A,$48167,19.58%,43,N/A,N/A,N/A,56,72.34%,$775,63.07%,282,4028,23.39%,8.56%,51.47%,Chesterfield County,41.40%,56.20%,0.53%,34.34%,58.58%,4.21%,0.4%,N/A,93,56,37,70,32,52%,55%,47,66,104,64%,68%,58%,50.76,15.84,11.03,40.0%,42.42%,43.89%,2.1,0,6.4,38.3,65,189,5,4.06,SC-14140,34.7329668,-80.0779095
City View,South Carolina,1172,2442,Greenville-Anderson-Mauldin,918166,$37625,12.79%,33,N/A,N/A,N/A,40,47.92%,$1043,60.74%,N/A,N/A,45.48%,9.52%,48.9%,Greenville County,34.60%,59.40%,0.77%,23.89%,61.52%,13.05%,10.75%,Eastern Standard Time,91,54,37,72,35,55%,59%,48,66,102,59%,59%,57%,54.18,14.98,14.22,33.42%,38.9%,34.89%,3.6,0,6.6,42.5,46,867,5,0.48,SC-14455,34.8620376,-82.4249855
Clarks Hill,South Carolina,125,39,None,N/A,$40714,5.61%,73,N/A,N/A,N/A,29,80.0%,N/A,52.0%,N/A,N/A,18.4%,0.0%,28.8%,McCormick County,47.50%,50.80%,0.0%,78.4%,21.6%,0.0%,0.0%,N/A,92,56,36,71,36,50%,52%,51,68,100,64%,67%,57%,47.06,14.96,12.48,29.78%,35.82%,33.0%,1.0,0,6.1,50.8,60,366,5,3.2,SC-14590,33.6581758,-82.1659969
Clearwater,South Carolina,3124,746,Augusta-Richmond County,607673,$50669,9.13%,41,$207000,1711,$121,45,53.88%,$835,53.0%,N/A,N/A,14.39%,8.58%,68.74%,Aiken County,34.00%,61.50%,1.76%,8.07%,66.61%,18.89%,9.28%,Eastern Standard Time,94,58,36,74,40,50%,52%,51,68,104,64%,67%,57%,44.9,14.68,11.75,29.78%,35.82%,33.0%,1.0,0,6.1,50.8,52,387,4.7,4.19,SC-14860,33.5038011,-81.9099769
Clemson,South Carolina,17759,2352,Greenville-Anderson-Mauldin,918166,$49713,58.96%,25,$375000,1913,$196,32,39.07%,$972,73.14%,182,2422,36.14%,4.13%,58.09%,Pickens County,21.10%,73.90%,4.99%,8.68%,77.17%,3.38%,6.97%,Eastern Standard Time,91,53,38,69,33,55%,59%,48,66,102,59%,59%,57%,51.58,12.7,14.86,31.59%,33.96%,35.22%,2.2,0,6.6,42.5,54,732,4.4,7.55,SC-14950,34.6837079,-82.8123041
Clifton,South Carolina,861,805,Spartanburg,322864,$48357,0.0%,32,$30000,1364,$22,82,30.25%,N/A,81.5%,N/A,N/A,45.76%,7.6%,70.08%,Spartanburg County,33.00%,63.00%,0.0%,6.85%,93.15%,0.0%,0.0%,Eastern Standard Time,91,55,36,68,31,55%,59%,48,66,102,59%,59%,57%,49.87,12.25,13.26,26.85%,28.35%,29.89%,3.6,0,6.6,42.5,57,558,4.7,1.07,SC-15220,34.9845893,-81.8221581
Clinton,South Carolina,7624,740,Greenville-Anderson-Mauldin,918166,$40372,29.6%,35,$175000,1620,$108,53,64.93%,$864,75.35%,784,4148,26.52%,4.92%,54.15%,Laurens County,33.50%,63.30%,1.31%,41.25%,54.54%,0.88%,1.14%,Eastern Standard Time,91,55,36,70,31,50%,52%,48,66,98,64%,67%,57%,46.42,12.03,12.7,30.27%,32.2%,34.67%,3.6,0,6.1,42.5,60,600,4.8,10.3,SC-15295,34.4780431,-81.8639066
Clio,South Carolina,591,687,Bennettsville,26912,$28875,6.18%,56,N/A,N/A,N/A,49,83.26%,$542,61.18%,303,1969,24.87%,6.96%,49.37%,Marlboro County,57.30%,41.10%,0.0%,57.53%,13.71%,15.57%,13.87%,N/A,92,56,36,70,34,52%,55%,47,66,101,64%,68%,58%,49.64,15.54,10.73,33.01%,37.47%,36.33%,2.1,0,6.4,38.3,64,138,4.8,0.86,SC-15310,34.5790464,-79.5460593
Clover,South Carolina,7013,1541,Charlotte-Concord-Gastonia,2625282,$66992,26.56%,36,$370000,2056,$180,23,70.68%,$995,56.76%,288,2387,13.93%,8.3%,68.28%,York County,36.40%,58.40%,0.58%,22.4%,60.02%,10.21%,3.29%,Eastern Standard Time,91,54,37,70,33,52%,55%,47,66,99,64%,68%,58%,46.18,12.02,11.7,34.27%,39.01%,33.44%,3.2,0,6.4,38.3,56,690,4.8,4.55,SC-15355,35.112488,-81.2203072
Cokesbury,South Carolina,341,578,Greenwood,69338,N/A,3.23%,72,$384000,2667,$144,59,38.43%,N/A,92.08%,N/A,N/A,0.0%,0.0%,45.45%,Greenwood County,37.20%,59.00%,0.0%,97.65%,2.35%,0.0%,0.0%,N/A,91,54,37,69,32,50%,52%,48,66,98,64%,67%,57%,40.25,9.79,11.77,32.33%,35.6%,35.11%,3.6,0,6.1,42.5,61,576,5,0.59,SC-15625,34.2900149,-82.2087399
Columbia,South Carolina,138019,1009,Columbia,825823,$55653,46.13%,29,N/A,N/A,N/A,42,49.29%,$1158,68.29%,775,5252,23.25%,7.62%,65.36%,Richland County,64.00%,31.10%,2.67%,39.54%,47.91%,5.68%,5.1%,Eastern Standard Time,93,57,36,71,35,50%,52%,51,68,102,64%,67%,57%,48.96,15.05,12.02,30.33%,35.82%,31.56%,1.2,0,6.1,50.8,40,192,4.9,136.78,SC-16000,34.037711,-80.9035481
Converse,South Carolina,424,614,Spartanburg,322864,$50139,11.53%,32,N/A,N/A,N/A,48,72.29%,$831,41.36%,N/A,N/A,12.5%,0.0%,62.71%,Spartanburg County,33.00%,63.00%,0.0%,13.92%,64.39%,0.0%,1.65%,Eastern Standard Time,91,55,36,68,31,55%,59%,48,66,102,59%,59%,57%,49.87,12.25,13.26,26.85%,28.35%,29.89%,3.6,0,6.6,42.5,56,558,4.7,0.69,SC-16360,34.9939799,-81.8421209
Conway,South Carolina,26082,1105,Myrtle Beach-Conway-North Myrtle Beach,478654,$54841,19.13%,34,$278000,1519,$183,26,62.93%,$881,63.99%,424,3383,20.26%,8.21%,49.92%,Horry County,29.60%,67.20%,1.33%,29.04%,61.23%,3.79%,3.27%,Eastern Standard Time,87,57,30,71,34,50%,52%,54,70,91,64%,67%,57%,56.9,18.49,10.4,30.77%,37.25%,32.22%,0.9,0,7.9,54.4,60,27,5.1,23.6,SC-16405,33.8399231,-79.0429711
Cope,South Carolina,27,108,Orangeburg,84909,N/A,7.41%,53,N/A,N/A,N/A,82,35.71%,N/A,62.96%,N/A,N/A,55.56%,0.0%,25.93%,Orangeburg County,67.60%,30.70%,0.0%,74.07%,25.93%,0.0%,0.0%,N/A,92,57,35,71,37,50%,52%,51,68,100,64%,67%,57%,47.59,14.04,11.74,32.33%,37.8%,34.11%,1.2,0,6.1,50.8,62,252,4.8,0.25,SC-16720,33.3777444,-81.0079409
Cordova,South Carolina,160,364,Orangeburg,84909,$73750,19.57%,29,N/A,N/A,N/A,60,52.42%,$890,46.49%,N/A,N/A,13.75%,2.3%,82.08%,Orangeburg County,67.60%,30.70%,0.0%,5.63%,90.63%,3.75%,0.0%,N/A,92,58,34,72,37,50%,52%,51,68,100,64%,67%,57%,47.59,14.04,11.74,32.33%,37.8%,34.11%,1.2,0,6.1,50.8,61,252,4.8,0.44,SC-16855,33.4344891,-80.9210343
Coronaca,South Carolina,46,27,Greenwood,69338,N/A,0.0%,N/A,$645000,3193,$202,N/A,49.38%,N/A,100.0%,N/A,N/A,100.0%,0.0%,100.0%,Greenwood County,37.20%,59.00%,0.0%,100.0%,0.0%,0.0%,0.0%,N/A,91,54,37,70,33,50%,52%,48,66,98,64%,67%,57%,46.65,12.0,12.77,32.33%,35.6%,35.11%,3.6,0,6.1,42.5,59,486,5,1.68,SC-16945,34.2595588,-82.0969251
Cottageville,South Carolina,1154,337,None,N/A,$68750,11.54%,38,N/A,N/A,N/A,28,76.88%,$915,35.42%,N/A,N/A,9.84%,3.56%,65.24%,Colleton County,44.20%,52.70%,0.0%,5.72%,84.49%,0.0%,0.26%,N/A,91,59,32,71,36,54%,57%,54,70,100,59%,59%,55%,53.37,19.16,10.62,28.22%,36.48%,29.11%,0.6,0,7.9,54.4,64,66,5.5,3.42,SC-16990,32.9361971,-80.4803157
Coward,South Carolina,668,189,Florence,200709,$36250,12.35%,38,N/A,N/A,N/A,32,69.58%,$825,48.41%,521,2086,36.08%,9.31%,51.57%,Florence County,46.10%,51.00%,0.0%,16.02%,77.54%,4.64%,1.2%,Eastern Standard Time,92,59,33,70,33,50%,52%,51,68,100,64%,67%,57%,48.8,16.09,10.28,31.37%,35.93%,32.44%,2.1,0,6.1,50.8,63,69,5.1,3.53,SC-17215,33.9721729,-79.7490396
Cowpens,South Carolina,2031,883,Spartanburg,322864,$37168,18.86%,49,N/A,N/A,N/A,47,65.85%,$815,36.98%,166,2367,31.0%,1.9%,48.9%,Spartanburg County,33.00%,63.00%,0.0%,10.0%,75.43%,11.62%,3.94%,Eastern Standard Time,91,55,36,68,31,52%,55%,48,66,99,64%,68%,58%,49.87,12.25,13.26,26.85%,28.35%,29.89%,3.6,0,6.4,42.5,60,558,4.7,2.3,SC-17260,35.0186171,-81.8041209
Cross Anchor,South Carolina,89,116,Spartanburg,322864,N/A,0.0%,74,$347000,1239,$280,38,100.0%,N/A,28.09%,N/A,N/A,28.09%,0.0%,12.36%,Spartanburg County,33.00%,63.00%,0.0%,48.31%,51.69%,0.0%,0.0%,Eastern Standard Time,91,54,37,68,28,50%,52%,48,66,98,64%,67%,57%,45.04,11.2,12.31,30.27%,32.2%,34.67%,3.6,0,6.1,42.5,60,438,4.7,0.77,SC-17845,34.6440287,-81.8584708
Cross Hill,South Carolina,502,157,Greenville-Anderson-Mauldin,918166,$37083,5.76%,53,N/A,N/A,N/A,40,83.63%,$1013,48.42%,N/A,N/A,14.54%,0.45%,50.0%,Laurens County,33.50%,63.30%,0.0%,45.42%,47.61%,1.79%,1.39%,Eastern Standard Time,91,54,37,70,33,50%,52%,48,66,98,64%,67%,57%,46.65,12.0,12.77,32.33%,35.6%,35.11%,3.6,0,6.1,42.5,62,486,4.8,3.19,SC-17890,34.3045074,-81.983573
Dalzell,South Carolina,2949,504,Sumter,137150,$52723,15.39%,29,$199000,1401,$142,30,85.61%,$961,52.36%,N/A,N/A,13.28%,13.2%,68.63%,Sumter County,54.50%,42.50%,0.64%,41.03%,45.0%,4.24%,2.14%,Eastern Standard Time,91,56,35,70,33,50%,52%,51,68,98,64%,67%,57%,50.5,16.33,10.91,33.21%,37.36%,37.0%,1.2,0,6.1,50.8,63,165,5,5.85,SC-18430,34.0188774,-80.4297149
Darlington,South Carolina,6128,1321,Florence,200709,$31240,15.41%,46,N/A,N/A,N/A,54,56.72%,$801,64.91%,1478,8579,33.92%,10.04%,44.83%,Darlington County,46.80%,50.50%,0.0%,60.17%,30.84%,2.63%,2.28%,Eastern Standard Time,93,57,36,71,32,50%,52%,51,68,102,64%,67%,57%,50.08,15.0,11.35,31.37%,35.93%,32.44%,2.1,0,6.1,50.8,51,138,4.8,4.64,SC-18565,34.3014139,-79.8669826
Denmark,South Carolina,3141,803,None,N/A,$33100,15.08%,27,N/A,N/A,N/A,47,38.09%,$785,84.78%,1060,4514,26.85%,15.57%,40.7%,Bamberg County,62.70%,35.50%,1.81%,85.0%,10.89%,1.97%,11.75%,N/A,92,57,35,71,37,50%,52%,51,68,100,64%,67%,57%,49.11,15.4,12.36,28.82%,35.27%,31.11%,1.2,0,6.1,50.8,61,228,5,3.91,SC-19105,33.3151624,-81.1364062
Dentsville,South Carolina,15396,2301,Columbia,825823,$44029,22.81%,36,N/A,N/A,N/A,36,37.61%,$1145,60.42%,N/A,N/A,17.13%,4.97%,64.46%,Richland County,64.00%,31.10%,3.9%,75.23%,10.54%,6.2%,6.4%,Eastern Standard Time,93,57,36,71,35,50%,52%,51,68,102,64%,67%,57%,48.96,15.05,12.02,32.93%,38.68%,37.56%,1.2,0,6.1,50.8,46,192,4.9,6.69,SC-19285,34.0753299,-80.9545998
Dillon,South Carolina,6406,1211,None,N/A,$34964,11.82%,34,N/A,N/A,N/A,47,36.39%,$624,60.46%,N/A,N/A,38.58%,3.69%,55.69%,Dillon County,49.90%,48.20%,0.0%,54.34%,35.36%,6.85%,2.11%,N/A,90,54,36,70,33,50%,52%,51,68,96,64%,67%,57%,49.64,15.54,10.73,30.63%,35.49%,32.89%,2.1,0,6.1,50.8,63,138,5,5.29,SC-19420,34.4229735,-79.3689469
Donalds,South Carolina,352,424,Greenwood,69338,$49643,21.8%,48,N/A,N/A,N/A,62,75.08%,$818,61.83%,N/A,N/A,15.63%,2.52%,50.96%,Abbeville County,34.70%,62.80%,0.0%,23.3%,75.0%,0.57%,2.84%,N/A,91,54,37,69,32,55%,59%,48,66,102,59%,59%,57%,44.33,10.2,12.9,29.12%,29.67%,34.0%,2.2,0,6.6,42.5,63,567,4.9,0.83,SC-19870,34.3766539,-82.3466986
Due West,South Carolina,1185,723,Greenwood,69338,$52059,43.38%,22,N/A,N/A,N/A,48,69.97%,$936,76.97%,0,1451,11.19%,19.42%,48.01%,Abbeville County,34.70%,62.80%,0.34%,21.94%,66.75%,7.59%,6.67%,N/A,91,54,37,69,32,55%,59%,48,66,102,59%,59%,57%,46.42,11.84,13.25,29.12%,29.67%,34.0%,2.2,0,6.6,42.5,64,636,4.9,1.64,SC-21040,34.3334525,-82.3885148
Duncan,South Carolina,4175,803,Spartanburg,322864,$51596,33.95%,31,$248000,1560,$159,19,35.51%,$1045,58.42%,195,1875,17.09%,3.26%,65.61%,Spartanburg County,33.00%,63.00%,0.0%,40.6%,49.6%,7.81%,7.09%,Eastern Standard Time,90,53,37,69,32,55%,59%,48,66,100,59%,59%,57%,53.98,13.92,13.76,37.34%,44.18%,37.56%,3.6,0,6.6,42.5,46,855,4.7,5.2,SC-21265,34.9343621,-82.1442264
Dunean,South Carolina,3716,2367,Greenville-Anderson-Mauldin,918166,$50382,24.38%,37,$253000,1150,$220,61,53.44%,$1061,64.27%,N/A,N/A,16.74%,8.56%,69.08%,Greenville County,34.60%,59.40%,0.0%,36.09%,51.21%,7.94%,7.97%,Eastern Standard Time,91,54,37,72,35,55%,59%,48,66,102,59%,59%,57%,46.75,12.97,12.47,33.42%,38.9%,34.89%,3.6,0,6.6,42.5,43,957,5,1.57,SC-21310,34.8202654,-82.4225361
Easley,South Carolina,23942,1891,Greenville-Anderson-Mauldin,918166,$65330,31.54%,41,$290000,1933,$150,34,73.52%,$903,46.07%,458,5133,14.25%,3.89%,60.9%,Pickens County,21.10%,73.90%,0.44%,10.63%,78.85%,7.67%,4.79%,Eastern Standard Time,90,53,37,69,30,55%,59%,48,66,100,59%,59%,57%,50.64,13.82,13.39,32.16%,37.03%,34.0%,2.2,0,6.6,42.5,58,909,4.4,12.66,SC-21985,34.8187898,-82.5827579
East Gaffney,South Carolina,3169,1049,Gaffney,56204,$26314,11.29%,42,$100000,1042,$96,47,67.83%,$753,55.71%,N/A,N/A,28.81%,2.16%,50.4%,Cherokee County,28.00%,69.70%,0.0%,30.74%,66.99%,0.25%,0.0%,N/A,88,51,37,66,27,52%,55%,48,66,93,64%,68%,58%,47.53,12.12,12.0,32.11%,38.46%,32.11%,3.6,0,6.4,42.5,55,531,5,3.02,SC-22075,35.0845762,-81.6218346
East Sumter,South Carolina,852,257,Sumter,137150,N/A,5.77%,50,$184000,1957,$94,44,75.25%,$773,55.81%,N/A,N/A,29.75%,0.0%,50.15%,Sumter County,54.50%,42.50%,0.0%,65.96%,31.81%,2.23%,0.7%,Eastern Standard Time,91,56,35,70,33,50%,52%,51,68,98,64%,67%,57%,50.47,15.83,11.13,33.21%,37.36%,37.0%,1.2,0,6.1,50.8,58,162,5,3.32,SC-22547,33.9260836,-80.2949917
Eastover,South Carolina,566,468,Columbia,825823,$22750,2.05%,47,N/A,N/A,N/A,46,55.08%,$680,66.67%,N/A,N/A,33.27%,14.53%,41.53%,Richland County,64.00%,31.10%,0.0%,81.45%,13.43%,0.0%,0.0%,Eastern Standard Time,94,58,36,73,37,50%,52%,51,68,104,64%,67%,57%,48.94,14.7,11.69,30.33%,35.82%,31.56%,1.2,0,6.1,50.8,60,384,4.9,1.21,SC-22390,33.87789,-80.6949258
Edgefield,South Carolina,3977,947,Augusta-Richmond County,607673,$37500,14.37%,40,$1124000,4307,$261,52,63.06%,$849,73.39%,N/A,N/A,32.83%,15.84%,29.88%,Edgefield County,38.60%,58.80%,0.43%,53.21%,34.55%,10.59%,6.74%,Eastern Standard Time,92,56,36,70,34,50%,52%,51,68,100,64%,67%,57%,47.87,13.79,12.76,29.95%,31.98%,35.56%,1.0,0,6.1,50.8,63,555,5.1,4.2,SC-22795,33.7871119,-81.929219
Edisto,South Carolina,2261,429,Orangeburg,84909,$46644,17.77%,39,$144000,1398,$103,50,59.96%,$852,74.27%,N/A,N/A,23.79%,7.64%,56.92%,Orangeburg County,67.60%,30.70%,0.0%,76.38%,22.03%,0.75%,0.75%,N/A,93,60,33,71,37,50%,52%,51,68,102,64%,67%,57%,51.19,16.35,11.83,31.89%,37.25%,34.11%,1.2,0,6.1,50.8,58,168,4.8,5.27,SC-22997,33.4777325,-80.8998742
Edisto Beach,South Carolina,987,461,None,N/A,$81250,55.94%,65,N/A,N/A,N/A,30,91.83%,$1170,24.06%,246,2463,3.55%,4.06%,44.97%,Colleton County,44.20%,52.70%,0.71%,0.2%,97.37%,0.51%,1.62%,N/A,91,60,31,74,41,54%,57%,54,70,100,59%,59%,55%,52.32,19.54,10.4,28.22%,36.48%,29.11%,0.6,0,7.9,54.4,71,12,5.5,2.14,SC-23020,32.4917555,-80.3238296
Ehrhardt,South Carolina,416,134,None,N/A,$33984,32.24%,71,N/A,N/A,N/A,52,78.22%,$593,41.15%,623,2702,9.73%,0.0%,16.37%,Bamberg County,62.70%,35.50%,0.0%,42.79%,55.05%,2.16%,0.0%,N/A,92,57,35,71,37,50%,52%,54,70,100,64%,67%,57%,50.32,17.81,11.83,28.82%,35.27%,31.11%,1.0,0,7.9,54.4,60,93,5,3.11,SC-23200,33.0985123,-81.0138224
Elgin,South Carolina,2258,465,Charlotte-Concord-Gastonia,2625282,$74167,17.4%,52,$159000,1046,$152,35,72.15%,$744,48.18%,372,4714,4.36%,3.6%,53.25%,Lancaster County,35.50%,60.90%,0.0%,6.73%,86.01%,4.25%,3.41%,Eastern Standard Time,93,57,36,70,32,52%,55%,47,66,104,64%,68%,58%,46.04,13.35,11.12,29.56%,30.99%,32.67%,3.2,0,6.4,38.3,62,417,5,4.86,SC-23290,34.6724738,-80.7215461
Elgin town,South Carolina,2176,2015,Columbia,825823,$84219,26.13%,35,$159000,1046,$152,25,82.67%,$1288,42.28%,372,4714,4.78%,4.98%,74.03%,Kershaw County,35.60%,60.50%,0.83%,15.63%,73.58%,7.44%,2.99%,Eastern Standard Time,93,57,36,71,35,50%,52%,51,68,102,64%,67%,57%,49.46,13.91,12.53,29.64%,31.98%,34.44%,1.2,0,6.1,50.8,59,402,4.9,1.08,SC-23245,34.1702052,-80.7931088
Elko,South Carolina,198,189,None,N/A,$41023,7.84%,33,N/A,N/A,N/A,44,76.15%,N/A,66.29%,N/A,N/A,17.68%,65.0%,57.14%,Barnwell County,46.40%,51.50%,0.0%,75.76%,24.24%,0.0%,0.0%,N/A,91,57,34,70,36,50%,52%,51,68,98,64%,67%,57%,45.95,14.09,11.55,28.82%,35.27%,31.11%,1.0,0,6.1,50.8,62,291,4.8,1.05,SC-23335,33.3807451,-81.3805255
Elloree,South Carolina,1005,995,Orangeburg,84909,$33750,13.32%,62,$412000,3377,$122,73,69.53%,$954,42.63%,N/A,N/A,20.1%,20.49%,33.73%,Orangeburg County,67.60%,30.70%,0.0%,55.52%,43.28%,0.0%,0.3%,N/A,92,59,33,70,35,50%,52%,51,68,100,64%,67%,57%,49.59,16.34,11.06,32.33%,37.8%,34.11%,1.2,0,6.1,50.8,64,87,4.8,1.01,SC-23470,33.5302244,-80.5712035
Enoree,South Carolina,472,305,Spartanburg,322864,N/A,2.34%,44,N/A,N/A,N/A,79,83.93%,N/A,40.19%,N/A,N/A,42.58%,12.33%,51.77%,Spartanburg County,33.00%,63.00%,0.0%,6.78%,49.36%,39.19%,19.92%,Eastern Standard Time,91,54,37,69,30,55%,59%,48,66,102,59%,59%,57%,48.17,12.17,12.93,25.23%,29.23%,26.44%,3.6,0,6.6,42.5,60,678,4.7,1.55,SC-23605,34.6592932,-81.9609142
Estill,South Carolina,2287,708,None,N/A,$36547,7.02%,32,N/A,N/A,N/A,39,67.11%,$760,69.02%,1994,5013,27.62%,12.56%,64.74%,Hampton County,58.70%,39.60%,0.0%,84.26%,7.56%,8.31%,4.46%,N/A,91,60,31,70,36,54%,57%,55,70,100,59%,59%,55%,49.43,16.03,10.89,28.82%,35.27%,31.11%,0.2,0,6.9,60.5,53,96,5.5,3.23,SC-23830,32.7538612,-81.241189
Eureka Mill,South Carolina,1732,1375,Charlotte-Concord-Gastonia,2625282,$35980,8.62%,40,$185000,1039,$178,42,84.98%,$936,62.65%,N/A,N/A,40.88%,13.51%,60.07%,Chester County,46.40%,51.20%,0.0%,69.46%,29.1%,3.18%,0.0%,Eastern Standard Time,90,52,38,69,30,52%,55%,47,66,97,64%,68%,58%,45.72,12.78,11.71,28.22%,31.21%,31.78%,3.2,0,6.4,38.3,51,513,4.8,1.26,SC-24020,34.717969,-81.1929128
Eutawville,South Carolina,530,558,Orangeburg,84909,N/A,2.9%,33,N/A,N/A,N/A,38,63.5%,$731,67.39%,684,2397,37.92%,6.81%,66.91%,Orangeburg County,67.60%,30.70%,0.94%,54.34%,43.21%,0.19%,0.94%,N/A,92,59,33,70,35,50%,52%,54,70,100,64%,67%,57%,49.59,16.34,11.06,30.74%,38.02%,31.67%,0.6,0,7.9,54.4,66,87,4.8,0.95,SC-24100,33.3977347,-80.3429313
Fair Play,South Carolina,578,85,Greenville-Anderson-Mauldin,918166,$113466,24.21%,51,N/A,N/A,N/A,20,100.0%,N/A,10.45%,N/A,N/A,28.55%,4.96%,51.6%,Oconee County,23.80%,71.90%,2.42%,0.0%,94.98%,1.9%,0.0%,Eastern Standard Time,89,52,37,70,33,55%,59%,48,66,97,59%,59%,57%,52.27,12.91,14.58,34.47%,38.02%,37.89%,2.2,0,6.6,42.5,62,732,4.6,6.77,SC-24730,34.5076855,-82.986218
Fairfax,South Carolina,2037,615,None,N/A,$41328,8.54%,43,N/A,N/A,N/A,38,56.38%,$702,62.42%,N/A,N/A,23.71%,9.41%,52.53%,Allendale County,76.10%,22.00%,0.29%,71.87%,18.41%,7.71%,2.65%,N/A,94,60,34,70,35,54%,57%,55,70,108,59%,59%,55%,48.45,15.58,11.79,28.82%,35.27%,31.11%,1.0,0,6.9,60.5,60,156,5.2,3.31,SC-24370,32.9593467,-81.2363331
Fairforest,South Carolina,1711,819,Spartanburg,322864,$60199,3.41%,44,$229000,1468,$156,40,43.2%,$696,54.3%,N/A,N/A,21.96%,10.02%,51.14%,Spartanburg County,33.00%,63.00%,7.95%,4.03%,64.7%,22.91%,25.42%,Eastern Standard Time,91,55,36,68,31,55%,59%,48,66,102,59%,59%,57%,53.02,13.48,13.54,26.85%,28.35%,29.89%,3.6,0,6.6,42.5,49,759,4.7,2.09,SC-24505,34.9532235,-82.0157231
Five Forks,South Carolina,19093,2522,Greenville-Anderson-Mauldin,918166,$140668,64.74%,38,$523000,2589,$202,17,92.57%,$2139,33.34%,N/A,N/A,2.1%,3.71%,64.06%,Greenville County,34.60%,59.40%,6.23%,8.41%,73.29%,6.87%,9.11%,Eastern Standard Time,90,53,37,69,32,55%,59%,48,66,100,59%,59%,57%,54.22,14.66,14.47,31.89%,37.03%,33.44%,3.6,0,6.6,42.5,49,798,5,7.57,SC-25540,34.8068688,-82.2271194
Florence,South Carolina,40205,1740,Florence,200709,$56433,29.93%,38,$130000,1092,$119,38,59.45%,$922,53.54%,1187,6631,18.14%,5.63%,60.58%,Florence County,46.10%,51.00%,3.15%,49.49%,42.57%,2.94%,4.02%,Eastern Standard Time,92,57,35,72,36,50%,52%,51,68,100,64%,67%,57%,47.75,15.04,9.67,31.37%,35.93%,32.44%,2.1,0,6.1,50.8,48,135,5.1,23.11,SC-25810,34.1778665,-79.7895692
Folly Beach,South Carolina,958,77,Charleston-North Charleston,789932,$97813,60.48%,63,$645000,1476,$437,31,53.75%,$1930,27.12%,N/A,N/A,8.77%,3.39%,53.8%,Charleston County,50.60%,42.80%,0.0%,0.0%,94.78%,0.0%,0.0%,Eastern Standard Time,88,59,29,77,44,54%,57%,54,70,94,59%,59%,55%,53.33,18.67,10.9,27.75%,37.8%,27.78%,0.6,0,7.9,54.4,81,6,5.1,12.51,SC-26035,32.6684065,-79.9500873
Forest Acres,South Carolina,10491,2281,Columbia,825823,$76417,63.07%,42,N/A,N/A,N/A,55,73.41%,$1182,49.8%,620,6172,8.15%,4.13%,63.08%,Richland County,64.00%,31.10%,1.93%,12.42%,79.96%,1.62%,3.59%,Eastern Standard Time,96,60,36,72,37,50%,52%,51,68,109,64%,67%,57%,48.96,15.05,12.02,32.93%,38.68%,37.56%,1.2,0,6.1,50.8,42,192,4.9,4.6,SC-26305,34.0320594,-80.9718107
Forestbrook,South Carolina,7450,2030,Myrtle Beach-Conway-North Myrtle Beach,478654,$77791,30.56%,51,$340000,1780,$191,17,87.68%,$1087,50.62%,N/A,N/A,5.96%,6.21%,56.53%,Horry County,29.60%,67.20%,0.21%,3.88%,85.02%,9.87%,10.99%,Eastern Standard Time,87,57,30,71,34,50%,52%,54,70,91,64%,67%,57%,55.72,18.47,10.83,30.77%,37.25%,32.22%,0.9,0,7.9,54.4,67,27,5.1,3.67,SC-26372,33.7242285,-78.9677705
Fort Lawn,South Carolina,1144,823,Charlotte-Concord-Gastonia,2625282,$54141,16.95%,30,$255000,1378,$185,30,68.48%,$1280,50.9%,N/A,N/A,13.81%,9.27%,74.01%,Chester County,46.40%,51.20%,0.0%,48.43%,41.87%,5.33%,0.52%,Eastern Standard Time,90,52,38,69,30,52%,55%,47,66,97,64%,68%,58%,46.04,13.35,11.12,29.56%,30.99%,32.67%,3.2,0,6.4,38.3,59,417,4.8,1.39,SC-26845,34.7002336,-80.8991208
Fort Mill,South Carolina,28281,1440,Charlotte-Concord-Gastonia,2625282,$127537,58.14%,38,$506000,2530,$200,10,83.4%,$1437,39.46%,103,1098,3.66%,2.31%,69.39%,York County,36.40%,58.40%,3.25%,11.53%,75.5%,4.73%,6.7%,Eastern Standard Time,90,53,37,69,31,52%,55%,47,66,97,64%,68%,58%,45.49,12.13,11.18,26.96%,29.45%,29.78%,3.2,0,6.4,38.3,51,519,4.8,19.64,SC-26890,35.0062054,-80.938924
Fountain Inn,South Carolina,11307,1463,Greenville-Anderson-Mauldin,918166,$72021,30.81%,34,$330000,2157,$153,23,73.48%,$1072,48.04%,433,1937,12.92%,6.18%,70.61%,Greenville County,34.60%,59.40%,0.0%,28.96%,55.89%,9.78%,5.76%,Eastern Standard Time,90,54,36,68,30,55%,59%,48,66,100,59%,59%,57%,50.22,13.32,13.54,25.23%,29.23%,26.44%,3.6,0,6.6,42.5,58,759,5,7.73,SC-27070,34.6986286,-82.2004903
Furman,South Carolina,747,239,None,N/A,$57708,7.77%,31,N/A,N/A,N/A,37,91.16%,$670,49.92%,N/A,N/A,4.69%,12.59%,64.45%,Hampton County,58.70%,39.60%,0.0%,45.11%,53.82%,0.0%,0.0%,N/A,91,60,31,70,36,54%,57%,55,70,100,59%,59%,55%,49.43,16.03,10.89,28.3%,38.68%,27.44%,0.2,0,6.9,60.5,60,96,5.5,3.12,SC-27835,32.6812475,-81.1877049
Gadsden,South Carolina,1131,98,Columbia,825823,$54464,24.32%,43,N/A,N/A,N/A,29,75.38%,N/A,71.48%,N/A,N/A,24.05%,8.93%,45.43%,Richland County,64.00%,31.10%,0.0%,91.51%,7.43%,0.0%,0.0%,Eastern Standard Time,94,58,36,73,37,50%,52%,51,68,104,64%,67%,57%,48.94,14.7,11.69,30.33%,35.82%,31.56%,1.2,0,6.1,50.8,61,384,4.9,11.51,SC-27970,33.8479753,-80.7663018
Gaffney,South Carolina,12612,1518,Gaffney,56204,$41214,21.79%,33,$148000,1495,$99,46,56.14%,$822,66.82%,814,5850,24.83%,11.31%,55.52%,Cherokee County,28.00%,69.70%,0.84%,40.94%,42.27%,6.87%,6.22%,N/A,88,51,37,66,27,52%,55%,48,66,93,64%,68%,58%,47.53,12.12,12.0,32.11%,38.46%,32.11%,3.6,0,6.4,42.5,56,531,5,8.31,SC-28060,35.074263,-81.6553029
Gantt,South Carolina,15057,1538,Greenville-Anderson-Mauldin,918166,$47265,18.95%,33,$223000,1232,$181,47,51.26%,$1021,58.6%,N/A,N/A,25.46%,7.37%,66.58%,Greenville County,34.60%,59.40%,0.31%,51.7%,21.23%,30.86%,11.5%,Eastern Standard Time,91,54,37,72,35,55%,59%,48,66,102,59%,59%,57%,51.32,13.03,13.73,33.42%,38.9%,34.89%,3.6,0,6.6,42.5,52,756,5,9.79,SC-28375,34.7837569,-82.4027507
Garden City,South Carolina,10820,2022,Myrtle Beach-Conway-North Myrtle Beach,478654,$50027,24.47%,61,$320000,1502,$213,30,74.6%,$1382,53.06%,N/A,N/A,14.16%,4.79%,45.36%,Horry County,29.60%,67.20%,0.57%,0.87%,95.21%,1.52%,2.25%,Eastern Standard Time,89,58,31,73,37,50%,52%,54,70,94,64%,67%,57%,54.7,17.64,10.66,30.77%,37.25%,32.22%,0.9,0,7.9,54.4,63,18,5.1,5.35,SC-28455,33.5925929,-79.007196
Gaston,South Carolina,2026,381,Columbia,825823,$59500,9.21%,37,N/A,N/A,N/A,31,59.55%,$920,63.24%,236,2955,24.25%,1.7%,67.45%,Lexington County,28.90%,65.50%,0.44%,16.29%,63.57%,13.77%,10.96%,Eastern Standard Time,93,57,36,72,35,50%,52%,51,68,102,64%,67%,57%,47.69,14.67,11.67,29.42%,35.16%,30.78%,1.2,0,6.1,50.8,60,279,4.7,5.32,SC-28780,33.8179694,-81.099749
Gayle Mill,South Carolina,1119,1695,Charlotte-Concord-Gastonia,2625282,N/A,3.53%,36,N/A,N/A,N/A,67,48.2%,$710,68.5%,N/A,N/A,31.99%,0.0%,55.17%,Chester County,46.40%,51.20%,0.0%,21.45%,60.68%,17.87%,0.0%,Eastern Standard Time,90,52,38,69,30,52%,55%,47,66,97,64%,68%,58%,45.72,12.78,11.71,28.22%,31.21%,31.78%,3.2,0,6.4,38.3,50,513,4.8,0.66,SC-28825,34.7022198,-81.2392288
Georgetown,South Carolina,8511,1218,Georgetown,62992,$57704,28.56%,49,$256000,1718,$149,44,58.31%,$805,56.35%,1225,6217,15.78%,8.02%,55.9%,Georgetown County,42.00%,54.90%,0.34%,45.62%,51.32%,2.16%,3.3%,N/A,91,59,32,73,37,50%,52%,54,70,98,64%,67%,57%,54.99,19.31,10.76,31.26%,38.68%,32.0%,0.6,0,7.9,54.4,62,27,5,6.99,SC-28870,33.3651429,-79.2809
Gifford,South Carolina,200,206,None,N/A,$29583,10.91%,38,N/A,N/A,N/A,36,68.47%,$664,82.08%,N/A,N/A,17.5%,7.69%,52.6%,Hampton County,58.70%,39.60%,0.0%,100.0%,0.0%,0.0%,0.0%,N/A,91,60,31,70,36,54%,57%,55,70,100,59%,59%,55%,48.65,16.42,11.13,28.82%,35.27%,31.11%,0.2,0,6.9,60.5,53,123,5.5,0.97,SC-29005,32.8600353,-81.2385068
Gilbert,South Carolina,563,208,Columbia,825823,$76364,26.11%,40,N/A,N/A,N/A,25,84.92%,$980,41.29%,N/A,N/A,5.33%,4.46%,71.85%,Lexington County,28.90%,65.50%,2.31%,4.62%,81.88%,5.68%,3.02%,Eastern Standard Time,91,55,36,70,35,50%,52%,51,68,98,64%,67%,57%,48.22,14.17,12.25,33.64%,36.37%,36.33%,1.2,0,6.1,50.8,64,450,4.7,2.71,SC-29050,33.9244453,-81.3927052
Glendale,South Carolina,173,824,Spartanburg,322864,N/A,5.04%,36,N/A,N/A,N/A,82,69.55%,N/A,60.63%,N/A,N/A,52.02%,14.81%,85.04%,Spartanburg County,33.00%,63.00%,0.0%,0.0%,81.5%,14.45%,14.45%,Eastern Standard Time,91,55,36,68,31,55%,59%,48,66,102,59%,59%,57%,49.87,12.25,13.26,26.85%,28.35%,29.89%,3.6,0,6.6,42.5,57,558,4.7,0.21,SC-29275,34.9450779,-81.8363731
Gloverville,South Carolina,2418,666,Augusta-Richmond County,607673,$51691,7.65%,32,$197000,2141,$92,31,63.37%,$950,67.66%,N/A,N/A,10.22%,3.78%,63.29%,Aiken County,34.00%,61.50%,0.0%,19.89%,78.0%,1.61%,1.61%,Eastern Standard Time,93,57,36,68,30,50%,52%,51,68,102,64%,67%,57%,47.97,15.34,11.86,29.78%,35.82%,33.0%,1.0,0,6.1,50.8,57,273,4.7,3.63,SC-29410,33.5273313,-81.814503
Golden Grove,South Carolina,3084,534,Greenville-Anderson-Mauldin,918166,$71694,28.29%,42,$310000,2214,$140,42,82.55%,$1102,49.92%,N/A,N/A,8.5%,0.42%,69.83%,Greenville County,34.60%,59.40%,0.0%,27.76%,63.39%,1.72%,10.02%,Eastern Standard Time,91,54,37,72,35,55%,59%,48,66,102,59%,59%,57%,51.67,13.77,13.75,29.23%,30.11%,33.56%,3.6,0,6.6,42.5,58,819,5,5.78,SC-29635,34.7324178,-82.4407632
Goose Creek,South Carolina,46964,1138,Charleston-North Charleston,789932,$87437,29.38%,34,$325000,1729,$188,19,71.4%,$1611,48.62%,N/A,N/A,6.61%,3.14%,72.69%,Berkeley County,38.60%,56.10%,3.46%,22.45%,57.99%,10.55%,7.93%,Eastern Standard Time,91,61,30,74,39,50%,52%,54,70,98,64%,67%,57%,53.9,20.2,10.31,29.59%,39.34%,28.67%,0.6,0,7.9,54.4,54,48,4.7,41.26,SC-29815,32.9926775,-80.0054591
Govan,South Carolina,61,81,None,N/A,$95833,40.91%,55,N/A,N/A,N/A,42,90.0%,N/A,38.0%,N/A,N/A,9.84%,5.71%,72.92%,Bamberg County,62.70%,35.50%,0.0%,0.0%,100.0%,0.0%,0.0%,N/A,94,60,34,70,35,50%,52%,51,68,104,64%,67%,57%,48.29,15.75,11.65,28.82%,35.27%,31.11%,1.0,0,6.1,50.8,61,225,5,0.75,SC-29950,33.2227702,-81.174834
Graniteville,South Carolina,2176,657,Augusta-Richmond County,607673,$29495,17.09%,33,$210000,1382,$152,54,49.24%,$960,54.22%,N/A,N/A,33.38%,5.38%,52.99%,Aiken County,34.00%,61.50%,0.0%,26.65%,45.63%,23.48%,10.02%,Eastern Standard Time,93,57,36,68,30,50%,52%,51,68,102,64%,67%,57%,47.97,15.34,11.86,29.78%,35.82%,33.0%,1.0,0,6.1,50.8,59,273,4.7,3.31,SC-30265,33.5645883,-81.8078973
Gray Court,South Carolina,731,402,Greenville-Anderson-Mauldin,918166,$64286,13.3%,39,N/A,N/A,N/A,41,70.0%,$883,49.82%,N/A,N/A,13.0%,10.99%,69.33%,Laurens County,33.50%,63.30%,0.0%,41.18%,35.84%,14.91%,6.7%,Eastern Standard Time,90,54,36,68,30,55%,59%,48,66,100,59%,59%,57%,50.22,13.32,13.54,30.27%,32.2%,34.67%,3.6,0,6.6,42.5,62,759,4.8,1.82,SC-30355,34.607845,-82.1143378
Great Falls,South Carolina,1741,411,Charlotte-Concord-Gastonia,2625282,$30475,9.59%,40,$135000,1667,$81,61,77.3%,$822,56.22%,373,3839,33.49%,3.73%,47.93%,Chester County,46.40%,51.20%,0.0%,35.04%,54.51%,4.08%,2.7%,Eastern Standard Time,91,53,38,69,31,50%,52%,51,68,98,64%,67%,57%,45.08,12.6,11.44,32.52%,34.4%,37.56%,3.2,0,6.1,50.8,61,306,4.8,4.24,SC-30490,34.575341,-80.9048194
Greeleyville,South Carolina,364,298,None,N/A,$31250,14.44%,45,N/A,N/A,N/A,46,69.19%,$492,53.63%,N/A,N/A,26.92%,4.29%,46.28%,Williamsburg County,66.10%,32.30%,0.0%,70.05%,22.25%,4.12%,1.1%,N/A,90,56,34,70,35,50%,52%,54,70,96,64%,67%,57%,51.66,16.1,10.73,30.74%,38.02%,31.67%,0.6,0,7.9,54.4,65,66,4.8,1.22,SC-30535,33.5802237,-79.9900218
Greenville,South Carolina,71755,2417,Greenville-Anderson-Mauldin,918166,$68460,55.0%,35,$405000,1816,$223,33,47.29%,$1248,57.68%,575,4016,14.05%,4.0%,68.94%,Greenville County,34.60%,59.40%,2.04%,20.49%,66.55%,7.19%,7.73%,Eastern Standard Time,91,54,37,72,35,55%,59%,48,66,102,59%,59%,57%,46.75,12.97,12.47,33.42%,38.9%,34.89%,3.6,0,6.6,42.5,46,957,5,29.69,SC-30850,34.8354003,-82.3647324
Greenwood,South Carolina,22527,1379,Greenwood,69338,$40253,20.84%,32,$193000,1723,$112,54,46.4%,$826,73.05%,1494,5515,25.11%,6.55%,52.56%,Greenwood County,37.20%,59.00%,1.49%,49.53%,38.62%,8.94%,4.23%,N/A,91,54,37,69,32,50%,52%,48,66,98,64%,67%,57%,47.44,12.01,13.63,32.33%,35.6%,35.11%,3.6,0,6.1,42.5,51,510,5,16.34,SC-30895,34.1946258,-82.1542607
Greer,South Carolina,39191,1711,Greenville-Anderson-Mauldin,918166,$80030,40.77%,36,$333000,2030,$164,18,67.95%,$1144,45.85%,433,3096,9.87%,2.22%,69.0%,Greenville County,34.60%,59.40%,6.11%,16.43%,59.03%,15.49%,14.07%,Eastern Standard Time,90,53,37,69,32,55%,59%,48,66,100,59%,59%,57%,53.98,13.92,13.76,31.89%,37.03%,33.44%,3.6,0,6.6,42.5,52,855,5,22.91,SC-30985,34.9331358,-82.2313476
Hampton,South Carolina,2691,597,None,N/A,$45809,11.35%,53,N/A,N/A,N/A,29,69.58%,$818,46.35%,1040,6722,14.09%,14.24%,44.43%,Hampton County,58.70%,39.60%,2.01%,52.99%,40.36%,0.0%,3.49%,N/A,91,60,31,70,36,54%,57%,55,70,100,59%,59%,55%,48.65,16.42,11.13,28.82%,35.27%,31.11%,0.2,0,6.9,60.5,60,123,5.5,4.51,SC-31885,32.8676117,-81.1092133
Hanahan,South Carolina,21119,2006,Charleston-North Charleston,789932,$84061,38.0%,37,$383000,1717,$223,33,67.2%,$1324,45.98%,204,1280,10.94%,2.33%,68.07%,Berkeley County,38.60%,56.10%,4.79%,9.23%,71.88%,11.59%,11.18%,Eastern Standard Time,91,61,30,74,39,50%,52%,54,70,98,64%,67%,57%,55.33,19.98,11.03,29.59%,39.34%,28.67%,0.6,0,7.9,54.4,51,48,4.7,10.53,SC-32065,32.9302195,-80.0026834
Hardeeville,South Carolina,9293,164,Hilton Head Island-Bluffton-Beaufort,214370,$78233,45.57%,61,$450000,1915,$235,7,68.49%,$1384,31.26%,749,2939,10.83%,7.45%,47.16%,Jasper County,52.10%,45.40%,0.22%,11.69%,65.02%,21.3%,13.47%,Eastern Standard Time,93,62,31,74,40,54%,57%,55,70,105,59%,59%,55%,49.38,17.48,10.47,28.3%,38.68%,27.44%,0.2,0,6.9,60.5,63,15,5.5,56.71,SC-32245,32.294854,-81.0321353
Harleyville,South Carolina,653,616,Charleston-North Charleston,789932,$60231,10.88%,46,N/A,N/A,N/A,47,59.05%,$742,53.72%,N/A,N/A,25.35%,6.94%,60.27%,Dorchester County,38.40%,55.90%,4.13%,23.74%,65.85%,5.97%,2.14%,Eastern Standard Time,92,59,33,70,35,50%,52%,54,70,100,64%,67%,57%,49.59,16.34,11.06,30.74%,38.02%,31.67%,0.6,0,7.9,54.4,62,87,4.7,1.06,SC-32335,33.2130655,-80.4477755
Hartsville,South Carolina,7422,1254,Florence,200709,$47720,33.15%,34,$385000,3080,$125,45,54.16%,$834,62.57%,1435,8878,23.55%,8.26%,59.29%,Darlington County,46.80%,50.50%,1.85%,47.56%,48.6%,1.2%,2.48%,Eastern Standard Time,92,55,37,70,32,50%,52%,51,68,100,64%,67%,57%,48.62,15.05,11.12,29.78%,34.73%,32.56%,2.1,0,6.1,50.8,57,168,4.8,5.92,SC-32560,34.3674931,-80.0830802
Heath Springs,South Carolina,825,506,Charlotte-Concord-Gastonia,2625282,$50500,17.79%,36,$326000,2050,$159,48,69.01%,$903,59.22%,N/A,N/A,15.86%,7.16%,54.48%,Lancaster County,35.50%,60.90%,4.85%,49.09%,43.03%,0.0%,3.15%,Eastern Standard Time,93,57,36,70,32,50%,52%,51,68,102,64%,67%,57%,45.08,12.6,11.44,29.56%,30.99%,32.67%,3.2,0,6.1,50.8,66,306,5,1.63,SC-32965,34.5932681,-80.6750472
Hemingway,South Carolina,413,480,None,N/A,$44375,28.44%,51,N/A,N/A,N/A,55,72.8%,$665,50.68%,500,9250,11.25%,1.2%,47.12%,Williamsburg County,66.10%,32.30%,0.0%,28.09%,67.07%,3.87%,2.18%,N/A,92,59,33,70,33,50%,52%,54,70,100,64%,67%,57%,48.8,16.09,10.28,30.63%,35.49%,32.89%,0.6,0,7.9,54.4,65,69,4.8,0.86,SC-33145,33.7533187,-79.4462608
Hickory Grove,South Carolina,559,335,Charlotte-Concord-Gastonia,2625282,$61250,17.53%,44,N/A,N/A,N/A,36,92.96%,$1118,43.63%,N/A,N/A,12.23%,5.73%,56.59%,York County,36.40%,58.40%,0.0%,21.65%,74.78%,0.36%,0.18%,Eastern Standard Time,88,51,37,66,27,52%,55%,47,66,93,64%,68%,58%,45.28,12.02,11.34,29.75%,32.64%,33.22%,3.2,0,6.4,38.3,60,456,4.8,1.67,SC-33640,34.9784647,-81.4180568
Hilda,South Carolina,506,165,None,N/A,$46111,3.07%,47,N/A,N/A,N/A,46,84.6%,$725,39.19%,N/A,N/A,22.38%,5.83%,49.16%,Barnwell County,46.40%,51.50%,3.36%,6.52%,88.54%,0.0%,2.37%,N/A,94,60,34,70,35,50%,52%,51,68,104,64%,67%,57%,48.29,15.75,11.65,28.82%,35.27%,31.11%,1.0,0,6.1,50.8,61,225,4.8,3.07,SC-33820,33.2739784,-81.24661
Hilton Head Island,South Carolina,37805,914,Hilton Head Island-Bluffton-Beaufort,214370,$96715,55.3%,60,$662000,1532,$432,33,77.51%,$1518,38.21%,N/A,N/A,8.41%,2.42%,48.78%,Beaufort County,40.90%,54.70%,0.91%,6.28%,75.09%,15.1%,12.56%,Eastern Standard Time,92,61,31,75,40,54%,57%,55,70,103,59%,59%,55%,46.58,16.75,9.83,28.3%,38.68%,27.44%,0.2,0,6.9,60.5,74,6,5.5,41.35,SC-34045,32.1883373,-80.7404257
Hodges,South Carolina,177,227,Greenwood,69338,$54531,8.41%,41,N/A,N/A,N/A,45,53.98%,N/A,71.05%,N/A,N/A,28.25%,9.52%,42.86%,Greenwood County,37.20%,59.00%,1.69%,2.26%,93.22%,0.0%,1.69%,N/A,91,54,37,69,32,50%,52%,48,66,98,64%,67%,57%,47.44,12.01,13.63,32.33%,35.6%,35.11%,3.6,0,6.1,42.5,63,510,5,0.78,SC-34225,34.2876208,-82.2479227
Holly Hill,South Carolina,1415,1080,Orangeburg,84909,$34792,17.89%,33,$228000,1617,$141,45,56.17%,$637,49.29%,846,3725,37.03%,5.15%,38.89%,Orangeburg County,67.60%,30.70%,0.28%,43.67%,54.35%,0.0%,5.16%,N/A,92,59,33,70,35,50%,52%,54,70,100,64%,67%,57%,49.59,16.34,11.06,30.74%,38.02%,31.67%,0.6,0,7.9,54.4,64,87,4.8,1.31,SC-34360,33.3244403,-80.4130626
Hollywood,South Carolina,5330,228,Charleston-North Charleston,789932,$77415,33.55%,53,$680000,2731,$249,18,83.43%,$1142,46.83%,N/A,N/A,9.02%,2.71%,54.84%,Charleston County,50.60%,42.80%,1.22%,35.25%,56.38%,5.1%,5.16%,Eastern Standard Time,91,60,31,74,41,54%,57%,54,70,100,59%,59%,55%,53.08,19.61,10.62,28.22%,36.48%,29.11%,0.6,0,7.9,54.4,69,39,5.1,23.41,SC-34495,32.7519704,-80.2117929
Homeland Park,South Carolina,6944,1474,Greenville-Anderson-Mauldin,918166,$38079,8.53%,38,$140000,1102,$127,47,49.56%,$809,51.95%,N/A,N/A,33.38%,15.59%,59.45%,Anderson County,26.20%,69.90%,0.06%,38.84%,47.91%,10.87%,3.82%,Eastern Standard Time,91,54,37,70,33,55%,59%,48,66,102,59%,59%,57%,44.52,11.03,12.62,30.93%,33.52%,35.11%,2.2,0,6.6,42.5,54,696,5,4.71,SC-34720,34.4644175,-82.6592916
Honea Path,South Carolina,3734,1064,Greenwood,69338,$56304,22.32%,46,$148000,1465,$101,55,71.13%,$740,45.5%,314,3832,25.55%,7.63%,48.67%,Anderson County,26.20%,69.90%,0.0%,13.87%,75.95%,0.94%,1.12%,N/A,91,53,38,71,32,55%,59%,48,66,102,59%,59%,57%,44.33,10.2,12.9,29.12%,29.67%,34.0%,2.2,0,6.6,42.5,62,567,5,3.51,SC-34810,34.4476196,-82.3949567
Hopkins,South Carolina,1962,119,Columbia,825823,$49464,15.22%,51,N/A,N/A,N/A,33,68.49%,$1016,66.1%,N/A,N/A,19.52%,33.76%,54.02%,Richland County,64.00%,31.10%,0.0%,80.94%,18.3%,0.66%,0.66%,Eastern Standard Time,94,58,36,73,37,50%,52%,51,68,104,64%,67%,57%,48.94,14.7,11.69,30.33%,35.82%,31.56%,1.2,0,6.1,50.8,61,384,4.9,16.51,SC-34990,33.8982584,-80.8599592
India Hook,South Carolina,3794,1437,Charlotte-Concord-Gastonia,2625282,$94505,44.51%,40,$315000,1567,$201,17,95.37%,$1189,43.09%,N/A,N/A,1.13%,4.12%,67.21%,York County,36.40%,58.40%,2.11%,13.94%,80.18%,1.48%,3.56%,Eastern Standard Time,90,53,37,69,31,52%,55%,47,66,97,64%,68%,58%,44.58,11.88,10.98,26.96%,29.45%,29.78%,3.2,0,6.4,38.3,54,480,4.8,2.64,SC-35635,35.0141439,-81.0378917
Inman,South Carolina,3085,1815,Spartanburg,322864,$55156,18.71%,42,$352000,2347,$150,36,61.93%,$1132,52.38%,124,2454,16.75%,2.87%,59.98%,Spartanburg County,33.00%,63.00%,2.53%,15.79%,72.09%,4.8%,12.41%,Eastern Standard Time,89,52,37,67,27,55%,59%,48,66,97,59%,59%,57%,51.49,13.49,12.8,37.34%,44.18%,37.56%,3.6,0,6.6,42.5,59,807,4.7,1.7,SC-35755,35.0463876,-82.0895977
Inman Mills,South Carolina,896,830,Spartanburg,322864,$42031,9.62%,53,N/A,N/A,N/A,82,43.35%,$1064,70.89%,N/A,N/A,16.86%,0.0%,39.07%,Spartanburg County,33.00%,63.00%,5.8%,17.75%,75.67%,0.0%,3.35%,Eastern Standard Time,89,52,37,67,27,55%,59%,48,66,97,59%,59%,57%,51.49,13.49,12.8,37.34%,44.18%,37.56%,3.6,0,6.6,42.5,59,807,4.7,1.08,SC-35800,35.0409084,-82.1023944
Irmo,South Carolina,11799,1720,Columbia,825823,$85137,37.34%,40,N/A,N/A,N/A,36,78.14%,$1412,49.14%,311,3299,8.08%,8.26%,67.63%,Richland County,64.00%,31.10%,2.47%,29.73%,61.3%,2.81%,4.03%,Eastern Standard Time,91,55,36,68,29,50%,52%,51,68,98,64%,67%,57%,45.9,12.76,11.78,33.64%,36.37%,36.33%,1.2,0,6.1,50.8,50,333,4.9,6.86,SC-35890,34.1018028,-81.1956322
Irwin,South Carolina,1801,602,Charlotte-Concord-Gastonia,2625282,$53795,2.93%,40,$264000,1671,$158,57,71.71%,$889,61.7%,N/A,N/A,35.49%,16.9%,70.33%,Lancaster County,35.50%,60.90%,0.0%,35.54%,55.36%,0.67%,0.67%,Eastern Standard Time,91,54,37,70,33,52%,55%,47,66,99,64%,68%,58%,46.04,13.35,11.12,29.56%,30.99%,32.67%,3.2,0,6.4,38.3,61,417,5,2.99,SC-35980,34.6941564,-80.8197686
Islandton,South Carolina,54,19,None,N/A,$38250,24.07%,71,N/A,N/A,N/A,35,100.0%,N/A,44.44%,N/A,N/A,0.0%,0.0%,42.59%,Colleton County,44.20%,52.70%,0.0%,38.89%,61.11%,0.0%,0.0%,N/A,91,60,31,70,36,54%,57%,54,70,100,59%,59%,55%,50.32,17.81,11.83,28.82%,35.27%,31.11%,0.6,0,7.9,54.4,62,93,5.5,2.77,SC-36070,32.9092619,-80.9359488
Isle of Palms,South Carolina,4333,976,Charleston-North Charleston,789932,N/A,N/A,N/A,$1925000,2490,$773,N/A,N/A,N/A,N/A,22,1969,N/A,N/A,N/A,Charleston County,50.60%,42.80%,N/A,N/A,N/A,N/A,N/A,Eastern Standard Time,N/A,N/A,N/A,N/A,N/A,N/A,N/A,N/A,N/A,N/A,N/A,N/A,N/A,N/A,N/A,N/A,N/A,N/A,N/A,N/A,N/A,N/A,N/A,77,N/A,5.1,4.44,N/A,N/A,N/A
Iva,South Carolina,937,1018,Greenville-Anderson-Mauldin,918166,$24313,10.49%,39,$209000,1451,$144,55,73.05%,$685,59.04%,305,3203,35.23%,15.92%,51.36%,Anderson County,26.20%,69.90%,0.0%,7.36%,85.27%,0.0%,0.43%,Eastern Standard Time,92,53,39,70,32,55%,59%,48,66,105,59%,59%,57%,47.36,11.67,13.78,30.93%,33.52%,35.11%,2.2,0,6.6,42.5,64,555,5,0.92,SC-36160,34.3069593,-82.663571
Jackson,South Carolina,1782,506,Augusta-Richmond County,607673,$37067,14.64%,60,$195000,2600,$75,51,77.88%,$540,47.44%,223,1841,8.14%,2.43%,49.97%,Aiken County,34.00%,61.50%,0.51%,31.43%,63.24%,0.95%,0.95%,Eastern Standard Time,95,60,35,72,36,50%,52%,51,68,107,64%,67%,57%,43.4,13.12,11.96,29.15%,35.93%,32.11%,1.0,0,6.1,50.8,58,120,4.7,3.52,SC-36205,33.3283199,-81.7925677
Jacksonboro,South Carolina,220,15,None,N/A,N/A,14.81%,54,N/A,N/A,N/A,34,86.5%,N/A,53.61%,N/A,N/A,20.45%,0.0%,60.82%,Colleton County,44.20%,52.70%,0.0%,88.18%,11.82%,0.0%,0.0%,N/A,91,59,32,71,36,54%,57%,54,70,100,59%,59%,55%,55.17,21.65,11.43,28.22%,36.48%,29.11%,0.6,0,7.9,54.4,71,39,5.5,14.47,SC-36250,32.7717575,-80.4769388
James Island,South Carolina,11738,2476,Charleston-North Charleston,789932,$100176,48.01%,41,$508000,1699,$299,49,83.72%,$1443,38.82%,N/A,N/A,5.39%,1.37%,66.11%,Charleston County,50.60%,42.80%,0.29%,12.15%,82.55%,2.38%,2.17%,Eastern Standard Time,88,59,29,77,44,54%,57%,54,70,94,59%,59%,55%,53.33,18.67,10.9,27.75%,37.8%,27.78%,0.6,0,7.9,54.4,75,6,5.1,4.74,SC-36430,32.7301426,-79.9660683
Jamestown,South Carolina,70,115,Charleston-North Charleston,789932,N/A,11.43%,57,N/A,N/A,N/A,44,75.44%,$1615,40.0%,1204,4819,1.43%,0.0%,70.0%,Berkeley County,38.60%,56.10%,0.0%,4.29%,95.71%,0.0%,7.14%,Eastern Standard Time,93,60,33,71,35,50%,52%,54,70,102,64%,67%,57%,51.07,17.18,10.26,30.74%,38.02%,31.67%,0.6,0,7.9,54.4,64,33,4.7,0.61,SC-36475,33.285876,-79.6945919
Jefferson,South Carolina,753,418,None,N/A,$35227,12.38%,33,N/A,N/A,N/A,45,54.27%,$295,52.6%,N/A,N/A,21.65%,6.4%,61.17%,Chesterfield County,41.40%,56.20%,0.0%,32.54%,63.61%,2.12%,0.0%,N/A,93,56,37,70,32,52%,55%,47,66,104,64%,68%,58%,46.13,12.14,10.58,29.78%,34.73%,32.56%,3.2,0,6.4,38.3,67,489,5,1.8,SC-36610,34.6511685,-80.3866859
Jenkinsville,South Carolina,47,522,Columbia,825823,N/A,0.0%,26,N/A,N/A,N/A,27,72.22%,N/A,81.58%,N/A,N/A,72.34%,0.0%,47.37%,Fairfield County,61.60%,35.70%,0.0%,100.0%,0.0%,0.0%,0.0%,Eastern Standard Time,91,55,36,71,35,50%,52%,51,68,98,64%,67%,57%,45.96,12.67,12.27,32.52%,34.4%,37.56%,1.2,0,6.1,50.8,62,252,5.1,0.09,SC-36655,34.3100298,-81.2866697
Joanna,South Carolina,1375,438,Greenville-Anderson-Mauldin,918166,$42169,14.1%,43,$98000,1508,$65,56,81.65%,$597,48.75%,N/A,N/A,17.16%,1.77%,56.31%,Laurens County,33.50%,63.30%,3.64%,7.27%,80.07%,7.2%,7.85%,Eastern Standard Time,91,55,36,70,31,50%,52%,48,66,98,64%,67%,57%,46.42,12.03,12.7,30.27%,32.2%,34.67%,3.6,0,6.1,42.5,61,600,4.8,3.14,SC-36790,34.4149484,-81.8086492
Johnsonville,South Carolina,1037,491,Florence,200709,$47891,23.16%,35,$240000,2000,$120,45,74.08%,$838,49.87%,66,1673,26.9%,1.86%,49.93%,Florence County,46.10%,51.00%,0.0%,25.36%,70.11%,0.0%,0.0%,Eastern Standard Time,92,59,33,70,33,50%,52%,54,70,100,64%,67%,57%,48.8,16.09,10.28,30.63%,35.49%,32.89%,2.1,0,7.9,54.4,65,69,5.1,2.11,SC-37105,33.8151888,-79.4443916
Johnston,South Carolina,2518,950,Augusta-Richmond County,607673,$34957,13.81%,46,$65000,1182,$55,53,48.32%,$803,60.91%,N/A,N/A,27.12%,7.6%,48.8%,Edgefield County,38.60%,58.80%,2.3%,65.89%,26.09%,3.26%,3.53%,Eastern Standard Time,94,56,38,69,33,50%,52%,51,68,104,64%,67%,57%,47.87,13.79,12.76,29.95%,31.98%,35.56%,1.0,0,6.1,50.8,65,576,5.1,2.65,SC-37150,33.8327272,-81.8051579
Jonesville,South Carolina,1016,1006,Spartanburg,322864,$35000,10.61%,50,$236000,1605,$147,62,75.67%,$533,52.04%,239,2038,18.9%,6.96%,60.2%,Union County,39.10%,58.40%,0.0%,38.19%,53.84%,3.64%,1.08%,Eastern Standard Time,91,55,36,68,31,52%,55%,48,66,99,64%,68%,58%,42.46,10.89,11.49,28.55%,30.11%,31.89%,3.6,0,6.4,42.5,62,366,4.8,1.01,SC-37330,34.8347753,-81.6810125
Judson,South Carolina,2201,2786,Greenville-Anderson-Mauldin,918166,$33600,17.68%,30,$297000,1344,$221,63,47.52%,$1250,62.4%,N/A,N/A,37.26%,21.51%,70.53%,Greenville County,34.60%,59.40%,3.04%,48.57%,20.67%,27.58%,13.9%,Eastern Standard Time,91,54,37,72,35,55%,59%,48,66,102,59%,59%,57%,54.18,14.98,14.22,33.42%,38.9%,34.89%,3.6,0,6.6,42.5,44,867,5,0.79,SC-37465,34.833488,-82.4272192
Kershaw,South Carolina,2220,1072,Charlotte-Concord-Gastonia,2625282,$58077,14.6%,35,$213000,1566,$136,58,66.23%,$893,51.06%,N/A,N/A,16.96%,2.71%,58.77%,Lancaster County,35.50%,60.90%,0.0%,24.73%,61.58%,0.99%,0.81%,Eastern Standard Time,93,57,36,70,32,50%,52%,51,68,102,64%,67%,57%,45.08,12.6,11.44,29.56%,30.99%,32.67%,3.2,0,6.1,50.8,65,210,5,2.07,SC-38095,34.546246,-80.5872169
Kiawah Island,South Carolina,2196,197,Charleston-North Charleston,789932,$236607,86.47%,66,$1243000,1550,$802,31,97.8%,N/A,11.13%,N/A,N/A,2.69%,3.09%,31.39%,Charleston County,50.60%,42.80%,1.14%,0.0%,98.13%,0.23%,3.92%,Eastern Standard Time,88,59,29,77,44,54%,57%,54,70,94,59%,59%,55%,53.86,18.55,11.05,27.75%,37.8%,27.78%,0.6,0,7.9,54.4,79,6,5.1,11.17,SC-38162,32.6143524,-80.0630588
Kingstree,South Carolina,3161,994,None,N/A,$28776,21.28%,42,N/A,N/A,N/A,45,47.31%,$526,65.52%,561,5948,34.5%,6.87%,38.91%,Williamsburg County,66.10%,32.30%,2.97%,69.85%,25.18%,0.32%,3.73%,N/A,93,58,35,71,34,50%,52%,54,70,102,64%,67%,57%,51.66,16.1,10.73,30.74%,38.02%,31.67%,0.6,0,7.9,54.4,62,66,4.8,3.18,SC-38590,33.666467,-79.8291914
Kline,South Carolina,135,43,None,N/A,$68750,14.29%,34,N/A,N/A,N/A,41,97.33%,$1063,56.41%,N/A,N/A,12.59%,13.33%,54.55%,Barnwell County,46.40%,51.50%,0.0%,19.26%,71.11%,8.15%,1.48%,N/A,94,60,34,70,35,50%,52%,51,68,104,64%,67%,57%,48.45,15.58,11.79,28.82%,35.27%,31.11%,1.0,0,6.1,50.8,62,156,4.8,3.11,SC-38950,33.125141,-81.3425637
Ladson,South Carolina,16261,2313,Charleston-North Charleston,789932,$83031,19.57%,32,$292000,1490,$196,31,70.43%,$1517,55.92%,N/A,N/A,12.1%,6.63%,69.67%,Berkeley County,38.60%,56.10%,4.34%,31.57%,44.81%,14.06%,12.13%,Eastern Standard Time,91,59,32,71,35,50%,52%,54,70,99,64%,67%,57%,53.9,20.2,10.31,29.59%,39.34%,28.67%,0.6,0,7.9,54.4,53,48,4.7,7.03,SC-39220,33.0092457,-80.1077514
Lake City,South Carolina,6032,1130,Florence,200709,$35000,19.98%,44,$162000,1841,$88,48,58.44%,$696,75.9%,1712,4326,24.52%,6.89%,55.38%,Florence County,46.10%,51.00%,0.0%,69.06%,23.72%,0.8%,0.8%,Eastern Standard Time,92,59,33,70,33,50%,52%,51,68,100,64%,67%,57%,48.8,16.09,10.28,31.37%,35.93%,32.44%,2.1,0,6.1,50.8,59,69,5.1,5.34,SC-39310,33.8677142,-79.7533856
Lake Murray of Richland,South Carolina,6402,1151,Columbia,825823,N/A,N/A,N/A,N/A,N/A,N/A,N/A,N/A,N/A,N/A,N/A,N/A,N/A,N/A,N/A,Richland County,64.00%,31.10%,N/A,N/A,N/A,N/A,N/A,Eastern Standard Time,N/A,N/A,N/A,N/A,N/A,N/A,N/A,N/A,N/A,N/A,N/A,N/A,N/A,N/A,N/A,N/A,N/A,N/A,N/A,N/A,N/A,N/A,N/A,59,N/A,4.9,5.56,N/A,N/A,N/A
Lake Secession,South Carolina,1209,208,Greenwood,69338,$46933,22.96%,54,N/A,N/A,N/A,28,88.83%,$950,35.65%,N/A,N/A,5.62%,7.06%,48.16%,Abbeville County,34.70%,62.80%,0.0%,0.0%,84.45%,0.0%,0.0%,N/A,91,54,37,70,32,55%,59%,48,66,102,59%,59%,57%,46.42,11.84,13.25,27.92%,29.56%,31.22%,2.2,0,6.6,42.5,64,636,4.9,5.8,SC-39512,34.2820959,-82.5904001
Lake View,South Carolina,661,391,None,N/A,$31033,13.61%,45,N/A,N/A,N/A,50,43.38%,$703,75.36%,N/A,N/A,27.23%,2.88%,57.33%,Dillon County,49.90%,48.20%,0.0%,30.56%,66.41%,0.0%,0.0%,N/A,90,55,35,70,32,50%,52%,51,68,96,64%,67%,57%,52.39,15.68,10.56,30.63%,35.49%,32.89%,2.1,0,6.1,50.8,68,87,5,1.69,SC-39715,34.3405596,-79.1663146
Lake Wylie,South Carolina,15177,1924,Charlotte-Concord-Gastonia,2625282,$112113,46.42%,39,$492000,2400,$205,14,77.11%,$1517,40.58%,N/A,N/A,10.73%,6.8%,71.65%,York County,36.40%,58.40%,2.15%,10.23%,77.27%,7.07%,7.15%,Eastern Standard Time,90,53,37,69,31,52%,55%,47,66,97,64%,68%,58%,45.48,12.13,10.9,26.96%,29.45%,29.78%,3.2,0,6.4,38.3,55,597,4.8,7.89,SC-39785,35.0996559,-81.0676475
Lakewood,South Carolina,3154,419,Sumter,137150,$49255,14.63%,44,$415000,2986,$139,34,65.74%,$928,53.49%,N/A,N/A,10.27%,8.17%,62.79%,Sumter County,54.50%,42.50%,0.0%,44.36%,43.37%,0.0%,2.6%,Eastern Standard Time,91,56,35,70,33,50%,52%,51,68,98,64%,67%,57%,50.47,15.83,11.13,33.21%,37.36%,37.0%,1.2,0,6.1,50.8,64,162,5,7.53,SC-39772,33.8428386,-80.3492028
Lamar,South Carolina,1446,1176,Florence,200709,$44000,28.55%,30,N/A,N/A,N/A,55,83.97%,$947,54.03%,640,2134,31.33%,2.07%,56.57%,Darlington County,46.80%,50.50%,0.0%,47.1%,52.28%,0.62%,0.14%,Eastern Standard Time,91,57,34,70,33,50%,52%,51,68,98,64%,67%,57%,50.24,14.65,10.62,29.78%,34.73%,32.56%,2.1,0,6.1,50.8,62,159,4.8,1.23,SC-39805,34.169483,-80.064987
Lancaster,South Carolina,8738,1334,Charlotte-Concord-Gastonia,2625282,$43234,17.34%,38,$260000,1503,$173,47,40.92%,$824,60.62%,N/A,N/A,27.51%,14.12%,57.09%,Lancaster County,35.50%,60.90%,1.48%,46.1%,35.72%,14.31%,10.63%,Eastern Standard Time,91,54,37,70,33,52%,55%,47,66,99,64%,68%,58%,46.04,13.35,11.12,29.56%,30.99%,32.67%,3.2,0,6.4,38.3,54,417,5,6.55,SC-39895,34.7249028,-80.7803623
Landrum,South Carolina,2564,960,Spartanburg,322864,$41161,21.66%,47,$357000,1741,$205,48,78.88%,$485,48.05%,N/A,N/A,18.6%,3.7%,50.73%,Spartanburg County,33.00%,63.00%,0.0%,6.36%,88.14%,5.27%,3.82%,Eastern Standard Time,87,50,37,68,32,55%,59%,48,66,93,59%,59%,57%,58.49,14.93,15.34,37.97%,45.38%,38.56%,3.6,0,6.6,42.5,68,1026,4.7,2.67,SC-40075,35.1747581,-82.1848465
Lane,South Carolina,531,134,None,N/A,$35726,19.42%,56,N/A,N/A,N/A,46,66.08%,$1063,44.24%,N/A,N/A,14.88%,5.66%,37.68%,Williamsburg County,66.10%,32.30%,0.0%,84.75%,14.69%,0.0%,0.0%,N/A,90,58,32,70,34,50%,52%,54,70,96,64%,67%,57%,51.66,16.1,10.73,30.74%,38.02%,31.67%,0.6,0,7.9,54.4,63,66,4.8,3.95,SC-40210,33.5250941,-79.8796796
Langley,South Carolina,1718,1507,Augusta-Richmond County,607673,$50750,7.53%,36,$30000,1500,$20,63,79.49%,$879,48.13%,N/A,N/A,29.16%,5.84%,60.57%,Aiken County,34.00%,61.50%,0.0%,1.8%,87.37%,4.66%,2.1%,Eastern Standard Time,93,57,36,68,30,50%,52%,51,68,102,64%,67%,57%,47.97,15.34,11.86,29.78%,35.82%,33.0%,1.0,0,6.1,50.8,56,273,4.7,1.14,SC-40390,33.5120166,-81.8343985
Latta,South Carolina,1301,1183,None,N/A,$45500,24.12%,38,N/A,N/A,N/A,50,63.06%,$685,62.32%,1552,7375,26.99%,10.92%,56.45%,Dillon County,49.90%,48.20%,0.0%,30.9%,59.26%,0.08%,0.38%,N/A,91,56,35,70,34,50%,52%,51,68,98,64%,67%,57%,49.75,15.56,10.21,30.63%,35.49%,32.89%,2.1,0,6.1,50.8,63,69,5,1.1,SC-40480,34.3389947,-79.4336438
Laurel Bay,South Carolina,5627,1353,Hilton Head Island-Bluffton-Beaufort,214370,$52094,20.41%,23,N/A,N/A,N/A,28,23.79%,$1375,26.73%,N/A,N/A,17.95%,0.0%,64.31%,Beaufort County,40.90%,54.70%,0.2%,38.21%,44.43%,14.55%,3.96%,Eastern Standard Time,92,61,31,75,40,54%,57%,55,70,103,59%,59%,55%,49.21,17.4,10.6,28.22%,36.48%,29.11%,0.2,0,6.9,60.5,70,33,5.5,4.16,SC-40525,32.4598697,-80.7867499
Laurens,South Carolina,9307,948,Greenville-Anderson-Mauldin,918166,$55207,15.01%,42,$197000,1894,$104,45,47.75%,$795,52.59%,906,5100,21.98%,2.52%,52.18%,Laurens County,33.50%,63.30%,0.6%,34.59%,54.45%,7.6%,5.74%,Eastern Standard Time,91,54,37,69,30,50%,52%,48,66,98,64%,67%,57%,46.89,11.87,13.14,30.27%,32.2%,34.67%,3.6,0,6.1,42.5,53,540,4.8,9.82,SC-40615,34.5022491,-82.0207322
Lesslie,South Carolina,3202,528,Charlotte-Concord-Gastonia,2625282,$86500,18.03%,38,$241000,1052,$229,26,81.98%,N/A,50.72%,N/A,N/A,3.98%,5.35%,69.09%,York County,36.40%,58.40%,0.0%,14.49%,82.64%,2.0%,0.56%,Eastern Standard Time,91,54,37,70,33,52%,55%,47,66,99,64%,68%,58%,45.72,11.78,11.56,29.56%,30.99%,32.67%,3.2,0,6.4,38.3,54,522,4.8,6.06,SC-41065,34.8855655,-80.9541441
Lexington,South Carolina,24132,2038,Columbia,825823,$83263,48.03%,41,N/A,N/A,N/A,17,71.79%,$1360,41.08%,324,2851,7.36%,4.1%,62.01%,Lexington County,28.90%,65.50%,5.96%,10.9%,73.24%,6.27%,10.79%,Eastern Standard Time,93,57,36,72,35,50%,52%,51,68,102,64%,67%,57%,48.43,14.18,11.84,33.64%,36.37%,36.33%,1.2,0,6.1,50.8,53,339,4.7,11.84,SC-41335,33.9889374,-81.22018
Liberty,South Carolina,3337,750,Greenville-Anderson-Mauldin,918166,$42077,17.01%,39,$220000,1392,$158,50,77.05%,$725,37.32%,666,2220,19.39%,6.1%,62.54%,Pickens County,21.10%,73.90%,0.0%,13.19%,74.23%,8.18%,3.12%,Eastern Standard Time,90,53,37,69,30,55%,59%,48,66,100,59%,59%,57%,57.76,14.56,16.01,32.16%,37.03%,34.0%,2.2,0,6.6,42.5,64,942,4.4,4.45,SC-41380,34.7903631,-82.6961099
Lincolnville,South Carolina,835,714,Charleston-North Charleston,789932,$36538,17.0%,48,$334000,1898,$176,28,66.45%,$610,65.98%,N/A,N/A,31.64%,7.89%,42.76%,Charleston County,50.60%,42.80%,1.08%,49.94%,37.13%,6.11%,9.46%,Eastern Standard Time,91,59,32,71,35,50%,52%,54,70,99,64%,67%,57%,49.16,16.6,10.15,29.59%,39.34%,28.67%,0.6,0,7.9,54.4,59,60,5.1,1.17,SC-41740,33.007859,-80.1559557
Little Mountain,South Carolina,446,293,Newberry,37842,$90893,34.67%,37,N/A,N/A,N/A,39,92.06%,N/A,39.31%,N/A,N/A,13.45%,0.93%,62.39%,Newberry County,37.00%,59.60%,0.0%,10.54%,82.74%,2.02%,0.0%,N/A,91,55,36,71,35,50%,52%,51,68,98,64%,67%,57%,46.73,12.79,12.42,33.64%,36.37%,36.33%,1.2,0,6.1,50.8,65,651,4.9,1.52,SC-41965,34.1968988,-81.4123738
Little River,South Carolina,10457,998,Myrtle Beach-Conway-North Myrtle Beach,478654,$64590,24.74%,62,$350000,1659,$211,25,75.38%,$1531,41.97%,N/A,N/A,9.94%,3.54%,44.05%,Horry County,29.60%,67.20%,0.09%,3.88%,88.94%,2.38%,2.73%,Eastern Standard Time,88,56,32,74,37,50%,52%,54,70,92,64%,67%,57%,58.31,17.99,11.56,30.77%,37.25%,32.22%,0.9,0,7.9,54.4,77,39,5.1,10.48,SC-42010,33.8786099,-78.6394091
Livingston,South Carolina,173,219,Orangeburg,84909,$47188,22.58%,29,N/A,N/A,N/A,34,76.67%,$525,42.74%,N/A,N/A,8.67%,1.82%,47.01%,Orangeburg County,67.60%,30.70%,0.0%,20.23%,77.46%,0.0%,0.0%,N/A,93,58,35,72,34,50%,52%,51,68,102,64%,67%,57%,47.14,15.06,11.83,31.89%,37.25%,34.11%,1.2,0,6.1,50.8,64,228,4.8,0.79,SC-42100,33.5531187,-81.1195453
Lockhart,South Carolina,411,1326,Spartanburg,322864,$37188,9.52%,40,N/A,N/A,N/A,82,50.82%,$744,46.88%,N/A,N/A,13.2%,6.38%,44.06%,Union County,39.10%,58.40%,0.0%,6.57%,85.64%,0.0%,0.0%,Eastern Standard Time,93,55,38,68,31,52%,55%,47,66,104,64%,68%,58%,42.46,10.89,11.49,28.55%,30.11%,31.89%,3.2,0,6.4,38.3,61,366,4.8,0.31,SC-42190,34.7924122,-81.4614014
Lodge,South Carolina,150,48,None,N/A,$34625,8.14%,45,N/A,N/A,N/A,42,65.49%,N/A,65.55%,N/A,N/A,26.67%,2.7%,33.64%,Colleton County,44.20%,52.70%,0.0%,3.33%,70.67%,26.0%,4.67%,N/A,92,57,35,71,37,50%,52%,54,70,100,64%,67%,57%,50.32,17.81,11.83,32.33%,37.8%,34.11%,0.6,0,7.9,54.4,62,93,5.5,3.14,SC-42280,33.0678101,-80.9536983
Loris,South Carolina,2570,565,Myrtle Beach-Conway-North Myrtle Beach,478654,$36158,16.66%,50,$263000,1429,$184,40,51.83%,$664,55.76%,1240,3102,25.38%,2.09%,44.56%,Horry County,29.60%,67.20%,2.72%,36.26%,56.26%,1.83%,1.6%,Eastern Standard Time,88,56,32,74,37,50%,52%,54,70,92,64%,67%,57%,55.44,17.25,10.37,30.77%,37.25%,32.22%,0.9,0,7.9,54.4,67,99,5.1,4.55,SC-42730,34.0576417,-78.8876576
Lowndesville,South Carolina,166,213,Greenwood,69338,N/A,30.95%,53,N/A,N/A,N/A,50,81.98%,$520,44.76%,N/A,N/A,25.3%,0.0%,44.06%,Abbeville County,34.70%,62.80%,28.31%,13.86%,57.83%,0.0%,31.33%,N/A,91,54,37,70,32,55%,59%,48,66,102,59%,59%,57%,47.36,11.67,13.78,27.92%,29.56%,31.22%,2.2,0,6.6,42.5,64,555,4.9,0.78,SC-42820,34.2099089,-82.6476253
Lowrys,South Carolina,357,113,Charlotte-Concord-Gastonia,2625282,$79018,31.34%,34,$450000,2542,$177,37,67.21%,$2173,37.14%,N/A,N/A,10.08%,7.8%,52.42%,Chester County,46.40%,51.20%,0.0%,8.96%,74.79%,12.61%,10.92%,Eastern Standard Time,90,51,39,69,29,52%,55%,47,66,97,64%,68%,58%,43.45,11.2,11.16,29.75%,32.64%,33.22%,3.2,0,6.4,38.3,61,552,4.8,3.16,SC-42865,34.8040097,-81.2372221
Lugoff,South Carolina,9475,416,Columbia,825823,$61316,25.2%,40,N/A,N/A,N/A,27,87.85%,$793,42.32%,N/A,N/A,12.41%,2.65%,57.28%,Kershaw County,35.60%,60.50%,0.07%,24.2%,70.18%,3.67%,0.46%,Eastern Standard Time,91,55,36,70,32,50%,52%,51,68,98,64%,67%,57%,48.09,13.43,12.4,29.64%,31.98%,34.44%,1.2,0,6.1,50.8,56,174,4.9,22.78,SC-43000,34.2113052,-80.6973293
Luray,South Carolina,221,215,None,N/A,$52321,3.88%,32,N/A,N/A,N/A,26,53.42%,N/A,45.18%,N/A,N/A,29.03%,4.8%,65.99%,Hampton County,58.70%,39.60%,0.0%,41.63%,14.48%,32.13%,10.41%,N/A,91,60,31,70,36,54%,57%,55,70,100,59%,59%,55%,49.43,16.03,10.89,28.82%,35.27%,31.11%,0.2,0,6.9,60.5,53,96,5.5,1.03,SC-43090,32.8142077,-81.2402649
Lydia,South Carolina,237,90,Florence,200709,$22275,28.89%,47,N/A,N/A,N/A,29,78.28%,N/A,79.19%,N/A,N/A,35.02%,50.65%,44.51%,Darlington County,46.80%,50.50%,0.0%,55.7%,38.82%,0.0%,0.0%,Eastern Standard Time,92,55,37,70,32,50%,52%,51,68,100,64%,67%,57%,48.62,15.05,11.12,29.78%,34.73%,32.56%,2.1,0,6.1,50.8,64,168,4.8,2.64,SC-43135,34.2865196,-80.1185143
Lyman,South Carolina,6317,1007,Spartanburg,322864,$69688,28.24%,31,$280000,1697,$165,14,86.93%,$1157,39.67%,655,2103,8.47%,4.09%,71.27%,Spartanburg County,33.00%,63.00%,4.43%,18.7%,61.63%,8.77%,4.89%,Eastern Standard Time,90,53,37,69,32,55%,59%,48,66,100,59%,59%,57%,51.49,13.49,12.8,37.34%,44.18%,37.56%,3.6,0,6.6,42.5,56,807,4.7,6.27,SC-43315,34.9712287,-82.1034852
Lynchburg,South Carolina,373,330,None,N/A,$15000,11.26%,29,N/A,N/A,N/A,34,68.14%,$829,46.89%,N/A,N/A,68.9%,13.59%,37.73%,Lee County,63.70%,34.40%,0.8%,94.1%,2.41%,0.0%,0.8%,N/A,91,57,34,70,33,50%,52%,51,68,98,64%,67%,57%,50.24,14.65,10.62,33.21%,37.36%,37.0%,2.1,0,6.1,50.8,63,159,4.8,1.13,SC-43360,34.0600046,-80.076974
Manning,South Carolina,3843,1307,None,N/A,$27597,18.8%,50,$153000,1354,$113,39,59.94%,$653,62.27%,1479,8696,24.45%,11.36%,38.39%,Clarendon County,50.20%,48.00%,0.36%,55.24%,42.6%,0.39%,0.62%,N/A,90,56,34,70,35,50%,52%,51,68,96,64%,67%,57%,50.66,15.8,11.19,33.21%,37.36%,37.0%,1.2,0,6.1,50.8,61,78,4.9,2.94,SC-44350,33.6933229,-80.2167609
Marion,South Carolina,6338,1415,None,N/A,$27767,19.26%,44,N/A,N/A,N/A,56,34.71%,$624,71.9%,863,5695,27.5%,3.94%,45.77%,Marion County,60.00%,38.10%,0.66%,69.22%,27.83%,0.49%,0.79%,N/A,91,56,35,70,34,50%,52%,51,68,98,64%,67%,57%,49.75,15.56,10.21,30.63%,35.49%,32.89%,2.1,0,6.1,50.8,64,69,4.9,4.48,SC-44575,34.1786587,-79.3956576
Mauldin,South Carolina,25985,2195,Greenville-Anderson-Mauldin,918166,$81027,37.53%,41,$349000,2223,$157,26,68.56%,$1401,45.42%,223,1622,8.3%,4.9%,69.83%,Greenville County,34.60%,59.40%,3.02%,24.33%,59.08%,11.53%,9.47%,Eastern Standard Time,91,54,37,72,35,55%,59%,48,66,102,59%,59%,57%,52.6,14.3,13.65,33.42%,38.9%,34.89%,3.6,0,6.6,42.5,48,816,5,11.84,SC-45115,34.7820975,-82.3032325
Mayesville,South Carolina,801,785,Sumter,137150,$45179,21.61%,36,N/A,N/A,N/A,38,63.5%,N/A,59.76%,N/A,N/A,38.45%,1.33%,52.68%,Sumter County,54.50%,42.50%,0.0%,84.02%,15.23%,0.0%,1.12%,Eastern Standard Time,91,56,35,70,33,50%,52%,51,68,98,64%,67%,57%,50.47,15.83,11.13,33.21%,37.36%,37.0%,1.2,0,6.1,50.8,63,162,5,1.02,SC-45295,33.9849119,-80.2044432
Mayo,South Carolina,1963,646,Spartanburg,322864,$47384,14.66%,42,$180000,1463,$123,45,97.29%,$591,41.5%,N/A,N/A,8.41%,2.32%,62.3%,Spartanburg County,33.00%,63.00%,0.0%,0.25%,96.13%,2.65%,2.65%,Eastern Standard Time,89,52,37,67,27,55%,59%,48,66,97,59%,59%,57%,51.51,13.55,13.04,33.01%,37.36%,35.44%,3.6,0,6.6,42.5,59,684,4.7,3.04,SC-45430,35.0857046,-81.8534521
McClellanville,South Carolina,734,329,Charleston-North Charleston,789932,$104236,55.81%,45,$449000,1261,$356,34,91.35%,$1313,38.99%,N/A,N/A,4.5%,0.69%,52.26%,Charleston County,50.60%,42.80%,0.0%,0.95%,97.55%,1.09%,1.5%,Eastern Standard Time,88,58,30,73,40,50%,52%,54,70,93,64%,67%,57%,54.43,18.28,10.67,31.26%,38.68%,32.0%,0.6,0,7.9,54.4,74,6,5.1,2.23,SC-43585,33.0864334,-79.4679824
McColl,South Carolina,2453,2336,Bennettsville,26912,$33925,3.23%,31,N/A,N/A,N/A,48,54.1%,$480,69.39%,1413,3836,28.2%,4.66%,45.28%,Marlboro County,57.30%,41.10%,0.0%,25.85%,50.63%,3.14%,0.0%,N/A,92,56,36,70,34,52%,55%,47,66,101,64%,68%,58%,49.64,15.54,10.73,33.01%,37.47%,36.33%,2.1,0,6.4,38.3,66,174,4.8,1.05,SC-43630,34.6664868,-79.5447928
McConnells,South Carolina,312,92,Charlotte-Concord-Gastonia,2625282,$80833,30.04%,55,N/A,N/A,N/A,32,75.43%,$725,32.42%,N/A,N/A,15.64%,2.7%,58.5%,York County,36.40%,58.40%,0.0%,14.74%,83.65%,0.96%,2.56%,Eastern Standard Time,90,51,39,69,29,52%,55%,47,66,97,64%,68%,58%,43.57,12.07,10.8,29.75%,32.64%,33.22%,3.2,0,6.4,38.3,60,603,4.8,3.39,SC-43675,34.8694886,-81.2266162
McCormick,South Carolina,2681,662,None,N/A,$40269,9.21%,46,N/A,N/A,N/A,59,53.05%,$640,67.6%,435,2262,25.65%,3.52%,27.39%,McCormick County,47.50%,50.80%,0.07%,60.76%,31.52%,0.63%,0.41%,N/A,93,55,38,70,33,50%,52%,48,66,102,64%,67%,57%,46.5,13.26,12.95,27.92%,29.56%,31.22%,1.0,0,6.1,42.5,56,465,5,4.05,SC-43720,33.9128401,-82.2875891
Meggett,South Carolina,1274,70,Charleston-North Charleston,789932,$96032,46.39%,51,N/A,N/A,N/A,30,95.64%,N/A,27.59%,N/A,N/A,8.87%,2.43%,59.83%,Charleston County,50.60%,42.80%,0.31%,9.03%,88.62%,0.86%,0.31%,Eastern Standard Time,91,60,31,74,41,54%,57%,54,70,100,59%,59%,55%,52.2,18.76,10.42,28.22%,36.48%,29.11%,0.6,0,7.9,54.4,69,27,5.1,18.14,SC-45790,32.6888387,-80.2588165
Modoc,South Carolina,576,145,None,N/A,$95500,18.83%,52,N/A,N/A,N/A,37,90.98%,N/A,53.2%,N/A,N/A,36.23%,0.0%,42.43%,McCormick County,47.50%,50.80%,0.0%,0.0%,91.15%,4.86%,0.0%,N/A,92,56,36,71,36,50%,52%,48,66,100,64%,67%,57%,47.06,14.96,12.48,29.78%,35.82%,33.0%,1.0,0,6.1,42.5,60,366,5,3.98,SC-47050,33.7192508,-82.2173675
Monarch Mill,South Carolina,1828,326,Spartanburg,322864,$39212,6.17%,34,N/A,N/A,N/A,54,58.78%,$679,54.32%,N/A,N/A,24.89%,7.55%,50.66%,Union County,39.10%,58.40%,0.27%,16.63%,67.07%,0.11%,0.27%,Eastern Standard Time,93,55,38,68,31,52%,55%,48,66,104,64%,68%,58%,44.0,11.09,11.67,30.93%,33.19%,32.67%,3.6,0,6.4,42.5,55,477,4.8,5.61,SC-47200,34.7161225,-81.5847806
Moncks Corner,South Carolina,14362,1337,Charleston-North Charleston,789932,$91516,29.5%,36,$356000,2119,$168,15,71.02%,$1203,46.26%,458,3470,5.64%,3.9%,67.63%,Berkeley County,38.60%,56.10%,0.1%,35.98%,56.04%,6.5%,4.98%,Eastern Standard Time,94,59,35,74,39,50%,52%,54,70,104,64%,67%,57%,52.05,17.78,10.81,30.74%,38.02%,31.67%,0.6,0,7.9,54.4,59,45,4.7,10.74,SC-47275,33.1732458,-80.0106421
Monetta,South Carolina,209,303,Augusta-Richmond County,607673,$55781,3.59%,52,N/A,N/A,N/A,49,52.96%,$964,58.71%,N/A,N/A,14.83%,2.91%,51.24%,Aiken County,34.00%,61.50%,0.0%,45.93%,34.45%,14.83%,11.0%,Eastern Standard Time,91,55,36,70,35,50%,52%,51,68,98,64%,67%,57%,47.2,13.68,12.68,29.95%,31.98%,35.56%,1.2,0,6.1,50.8,65,579,4.7,0.69,SC-47320,33.849987,-81.6099316
Mount Carmel,South Carolina,338,37,None,N/A,$41534,0.0%,65,N/A,N/A,N/A,44,100.0%,N/A,35.89%,N/A,N/A,16.57%,13.13%,49.08%,McCormick County,47.50%,50.80%,0.0%,100.0%,0.0%,0.0%,0.0%,N/A,91,54,37,70,32,50%,52%,48,66,98,64%,67%,57%,46.5,11.61,13.75,27.92%,29.56%,31.22%,2.2,0,6.1,42.5,62,486,5,9.19,SC-48310,34.0184534,-82.5044463
Mount Croghan,South Carolina,138,182,None,N/A,$65833,19.61%,49,N/A,N/A,N/A,67,79.58%,N/A,37.74%,N/A,N/A,6.52%,3.92%,48.11%,Chesterfield County,41.40%,56.20%,0.0%,7.25%,71.01%,11.59%,0.0%,N/A,93,56,37,70,32,52%,55%,47,66,104,64%,68%,58%,50.76,15.84,11.03,40.0%,42.42%,43.89%,2.1,0,6.4,38.3,66,189,5,0.76,SC-48355,34.7697457,-80.2263871
Mount Pleasant,South Carolina,92662,1871,Charleston-North Charleston,789932,$121364,66.18%,43,$750000,2280,$329,20,78.16%,$2026,38.92%,113,1227,5.78%,2.97%,66.39%,Charleston County,50.60%,42.80%,1.6%,2.86%,90.25%,2.88%,4.94%,Eastern Standard Time,91,60,31,74,39,54%,57%,54,70,100,59%,59%,55%,53.31,19.02,10.32,27.75%,37.8%,27.78%,0.6,0,7.9,54.4,67,6,5.1,49.53,SC-48535,32.7829795,-79.8644285
Mountville,South Carolina,100,35,Greenville-Anderson-Mauldin,918166,$68710,22.62%,71,N/A,N/A,N/A,42,100.0%,N/A,67.0%,N/A,N/A,11.0%,0.0%,64.0%,Laurens County,33.50%,63.30%,0.0%,0.0%,100.0%,0.0%,0.0%,Eastern Standard Time,91,54,37,70,33,50%,52%,48,66,98,64%,67%,57%,46.65,12.0,12.77,30.27%,32.2%,34.67%,3.6,0,6.1,42.5,62,486,4.8,2.86,SC-48670,34.3664394,-81.9757573
Mulberry,South Carolina,230,117,Sumter,137150,$39697,10.87%,44,N/A,N/A,N/A,50,35.57%,N/A,84.78%,N/A,N/A,17.65%,0.0%,30.43%,Sumter County,54.50%,42.50%,0.0%,57.39%,42.61%,0.0%,0.0%,Eastern Standard Time,91,56,35,70,33,50%,52%,51,68,98,64%,67%,57%,50.47,15.83,11.13,33.21%,37.36%,37.0%,1.2,0,6.1,50.8,56,162,5,1.97,SC-48737,33.9565333,-80.3314949
Mullins,South Carolina,3965,1313,None,N/A,$30750,18.21%,36,N/A,N/A,N/A,47,51.08%,$683,72.65%,955,5268,34.69%,9.48%,50.45%,Marion County,60.00%,38.10%,0.0%,76.97%,20.08%,0.83%,2.57%,N/A,90,54,36,70,33,50%,52%,51,68,96,64%,67%,57%,54.23,16.19,10.74,30.63%,35.49%,32.89%,2.1,0,6.1,50.8,67,102,4.9,3.02,SC-48805,34.2039765,-79.2536398
Murphys Estates,South Carolina,1187,579,Augusta-Richmond County,607673,$90357,15.83%,39,N/A,N/A,N/A,21,91.3%,N/A,49.79%,N/A,N/A,3.45%,0.0%,70.84%,Edgefield County,38.60%,58.80%,0.0%,24.77%,75.23%,0.0%,0.93%,Eastern Standard Time,93,57,36,68,30,50%,52%,51,68,102,64%,67%,57%,47.48,14.34,12.4,29.78%,35.82%,33.0%,1.0,0,6.1,50.8,57,510,5.1,2.05,SC-48900,33.6003345,-81.9438818
Murrells Inlet,South Carolina,10087,1378,Georgetown,62992,$75438,42.15%,60,$549000,2356,$233,19,81.19%,$1702,35.46%,N/A,N/A,6.4%,2.74%,47.68%,Georgetown County,42.00%,54.90%,1.52%,8.09%,80.54%,8.87%,5.88%,N/A,89,58,31,73,37,50%,52%,54,70,94,64%,67%,57%,52.83,17.33,10.63,30.77%,37.25%,32.22%,0.9,0,7.9,54.4,71,18,5,7.32,SC-48985,33.555973,-79.0592985
Myrtle Beach,South Carolina,37214,1584,Myrtle Beach-Conway-North Myrtle Beach,478654,$53679,34.13%,47,$272000,982,$277,28,51.5%,$1132,51.05%,1190,11233,16.9%,4.29%,59.51%,Horry County,29.60%,67.20%,1.14%,14.44%,67.67%,12.56%,11.95%,Eastern Standard Time,87,57,30,71,34,50%,52%,54,70,91,64%,67%,57%,55.72,18.47,10.83,30.77%,37.25%,32.22%,0.9,0,7.9,54.4,69,36,5.1,23.5,SC-49075,33.7092944,-78.8847128
Neeses,South Carolina,431,252,Orangeburg,84909,$37708,9.33%,50,N/A,N/A,N/A,48,92.33%,N/A,51.74%,N/A,N/A,22.74%,0.62%,43.43%,Orangeburg County,67.60%,30.70%,4.87%,19.49%,72.85%,0.0%,2.09%,N/A,93,58,35,72,34,50%,52%,51,68,102,64%,67%,57%,47.14,15.06,11.83,31.89%,37.25%,34.11%,1.2,0,6.1,50.8,64,228,4.8,1.71,SC-49390,33.5364377,-81.123614
New Ellenton,South Carolina,2604,586,Augusta-Richmond County,607673,$60625,21.7%,37,$235000,1536,$153,46,71.57%,$695,68.25%,932,1072,13.52%,7.78%,63.96%,Aiken County,34.00%,61.50%,0.0%,49.77%,42.36%,1.5%,0.58%,Eastern Standard Time,94,58,36,70,32,50%,52%,51,68,104,64%,67%,57%,49.04,15.38,12.51,29.15%,35.93%,32.11%,1.0,0,6.1,50.8,59,306,4.7,4.44,SC-49705,33.4198078,-81.6825406
Newberry,South Carolina,10733,1194,Newberry,37842,$47885,22.68%,30,$195000,2191,$89,55,53.68%,$837,62.44%,696,3929,27.03%,7.45%,58.08%,Newberry County,37.00%,59.60%,0.68%,41.36%,40.17%,15.8%,11.13%,N/A,91,55,36,70,31,50%,52%,51,68,98,64%,67%,57%,46.77,12.96,12.67,29.95%,31.98%,35.56%,1.2,0,6.1,50.8,56,468,4.9,8.99,SC-49570,34.2813494,-81.6010781
Newport,South Carolina,4142,515,Charlotte-Concord-Gastonia,2625282,$107143,38.59%,42,$343000,1603,$214,29,96.41%,N/A,32.17%,N/A,N/A,12.86%,0.43%,67.86%,York County,36.40%,58.40%,0.22%,22.14%,65.11%,2.95%,0.99%,Eastern Standard Time,90,53,37,69,31,52%,55%,47,66,97,64%,68%,58%,45.59,12.71,11.12,33.64%,35.38%,35.89%,3.2,0,6.4,38.3,56,612,4.8,8.05,SC-49885,34.9790793,-81.1149265
Newry,South Carolina,393,1310,Seneca,77932,N/A,20.25%,58,N/A,N/A,N/A,82,75.51%,N/A,25.41%,N/A,N/A,28.24%,0.0%,10.86%,Oconee County,23.80%,71.90%,0.0%,0.0%,60.31%,28.24%,28.24%,N/A,89,52,37,70,33,55%,59%,48,66,97,59%,59%,57%,55.0,13.73,15.35,34.47%,38.02%,37.89%,2.2,0,6.6,42.5,64,795,4.6,0.3,SC-49975,34.7239385,-82.9141468
Nichols,South Carolina,195,146,None,N/A,$46471,18.71%,50,N/A,N/A,N/A,56,88.16%,N/A,52.49%,N/A,N/A,17.44%,3.64%,60.77%,Marion County,60.00%,38.10%,1.54%,27.69%,61.03%,1.54%,3.59%,N/A,90,54,36,70,33,50%,52%,51,68,96,64%,67%,57%,54.23,16.19,10.74,30.63%,35.49%,32.89%,2.1,0,6.1,50.8,67,102,4.9,1.34,SC-50110,34.2351806,-79.1491163
Ninety Six,South Carolina,2635,1448,Greenwood,69338,$53438,21.79%,38,$228000,2036,$112,69,75.11%,$859,50.27%,98,2010,18.9%,5.71%,58.74%,Greenwood County,37.20%,59.00%,0.0%,17.46%,78.18%,0.68%,0.23%,N/A,91,54,37,70,33,50%,52%,48,66,98,64%,67%,57%,46.65,12.0,12.77,32.33%,35.6%,35.11%,3.6,0,6.1,42.5,61,486,5,1.82,SC-50290,34.1696891,-82.0238494
Norris,South Carolina,838,446,Greenville-Anderson-Mauldin,918166,$51750,16.56%,47,$318000,1951,$163,52,74.04%,$696,41.78%,N/A,N/A,25.66%,4.84%,55.03%,Pickens County,21.10%,73.90%,0.0%,1.79%,92.0%,2.86%,1.79%,Eastern Standard Time,90,53,37,69,30,55%,59%,48,66,100,59%,59%,57%,57.66,14.76,15.69,32.16%,37.03%,34.0%,2.2,0,6.6,42.5,65,873,4.4,1.88,SC-50515,34.7661166,-82.7525349
North,South Carolina,783,910,Orangeburg,84909,$36250,6.47%,49,N/A,N/A,N/A,47,68.85%,$717,58.91%,N/A,N/A,38.83%,3.87%,53.08%,Orangeburg County,67.60%,30.70%,0.0%,54.41%,42.66%,1.79%,0.51%,N/A,93,58,35,72,34,50%,52%,51,68,102,64%,67%,57%,54.58,18.75,13.07,31.89%,37.25%,34.11%,1.2,0,6.1,50.8,63,294,4.8,0.86,SC-50560,33.6163657,-81.1029687
North Augusta,South Carolina,24928,1214,Augusta-Richmond County,607673,$90132,37.93%,43,$304000,2126,$143,34,65.55%,$1080,42.7%,230,2726,6.88%,3.78%,65.28%,Aiken County,34.00%,61.50%,0.95%,14.68%,74.53%,6.52%,3.34%,Eastern Standard Time,94,58,36,74,40,50%,52%,51,68,104,64%,67%,57%,44.9,14.68,11.75,29.78%,35.82%,33.0%,1.0,0,6.1,50.8,45,387,4.7,20.53,SC-50695,33.5213904,-81.954707
North Charleston,South Carolina,117460,1513,Charleston-North Charleston,789932,$62789,28.0%,34,$327000,1712,$191,25,46.85%,$1364,59.46%,966,6019,15.54%,4.31%,69.18%,Charleston County,50.60%,42.80%,3.5%,42.24%,37.04%,12.83%,12.16%,Eastern Standard Time,91,61,30,74,39,54%,57%,54,70,100,59%,59%,55%,53.89,20.0,10.34,29.59%,39.34%,28.67%,0.6,0,7.9,54.4,46,30,5.1,77.62,SC-50875,32.9066029,-80.0723072
North Hartsville,South Carolina,3217,709,Florence,200709,$59990,32.04%,37,$385000,3080,$125,40,82.61%,$1157,35.22%,N/A,N/A,30.84%,4.0%,65.09%,Darlington County,46.80%,50.50%,0.0%,20.95%,61.95%,2.42%,3.39%,Eastern Standard Time,92,55,37,70,32,50%,52%,51,68,100,64%,67%,57%,48.62,15.05,11.12,29.78%,34.73%,32.56%,2.1,0,6.1,50.8,64,168,4.8,4.54,SC-51145,34.401023,-80.0709251
North Myrtle Beach,South Carolina,19343,914,Myrtle Beach-Conway-North Myrtle Beach,478654,$72111,39.43%,61,$377000,1332,$283,23,76.76%,$1171,39.05%,419,6581,6.14%,6.95%,47.46%,Horry County,29.60%,67.20%,1.9%,1.55%,88.13%,5.74%,6.28%,Eastern Standard Time,88,56,32,74,37,50%,52%,54,70,92,64%,67%,57%,49.24,16.62,9.25,30.77%,37.25%,32.22%,0.9,0,7.9,54.4,73,30,5.1,21.16,SC-51280,33.8123544,-78.7541155
Northlake,South Carolina,3848,929,Greenville-Anderson-Mauldin,918166,$79531,33.12%,47,$178000,1290,$138,35,82.9%,$1026,34.6%,N/A,N/A,10.06%,2.39%,56.63%,Anderson County,26.20%,69.90%,3.01%,12.42%,79.99%,0.0%,3.77%,Eastern Standard Time,91,53,38,71,32,55%,59%,48,66,102,59%,59%,57%,51.62,13.6,14.0,33.07%,36.37%,36.0%,2.2,0,6.6,42.5,56,663,5,4.14,SC-51180,34.5691151,-82.6837816
Norway,South Carolina,279,353,Orangeburg,84909,$47632,19.53%,50,N/A,N/A,N/A,49,69.64%,$853,61.22%,N/A,N/A,13.26%,17.86%,59.07%,Orangeburg County,67.60%,30.70%,0.0%,64.52%,27.24%,0.0%,0.0%,N/A,92,57,35,71,37,50%,52%,51,68,100,64%,67%,57%,47.14,15.06,11.83,28.82%,35.27%,31.11%,1.2,0,6.1,50.8,62,228,4.8,0.79,SC-51550,33.4502699,-81.1266024
Oak Grove,South Carolina,12031,1577,Columbia,825823,$75506,33.46%,37,N/A,N/A,N/A,29,70.5%,$988,52.83%,N/A,N/A,11.11%,2.87%,64.81%,Lexington County,28.90%,65.50%,1.29%,15.84%,68.88%,11.25%,6.97%,Eastern Standard Time,93,57,36,72,35,50%,52%,51,68,102,64%,67%,57%,48.35,15.24,11.72,29.42%,35.16%,30.78%,1.2,0,6.1,50.8,50,297,4.7,7.63,SC-51720,33.971913,-81.143865
Oakland,South Carolina,901,1325,Sumter,137150,$61875,29.01%,41,$177000,1566,$113,42,59.05%,N/A,54.92%,N/A,N/A,21.53%,8.48%,49.07%,Sumter County,54.50%,42.50%,0.89%,41.84%,37.62%,10.65%,1.89%,Eastern Standard Time,91,56,35,70,33,50%,52%,51,68,98,64%,67%,57%,50.5,16.33,10.91,33.21%,37.36%,37.0%,1.2,0,6.1,50.8,63,165,5,0.68,SC-51887,33.9867957,-80.4972421
Olar,South Carolina,188,238,None,N/A,$36607,15.25%,38,N/A,N/A,N/A,50,47.56%,$1125,52.94%,N/A,N/A,14.89%,6.35%,52.94%,Bamberg County,62.70%,35.50%,1.6%,38.83%,42.02%,0.0%,1.6%,N/A,94,60,34,70,35,50%,52%,51,68,104,64%,67%,57%,48.29,15.75,11.65,28.82%,35.27%,31.11%,1.0,0,6.1,50.8,61,225,5,0.79,SC-52585,33.179864,-81.1853439
Orangeburg,South Carolina,13189,1464,Orangeburg,84909,$33066,27.17%,37,$144000,1455,$99,52,49.47%,$765,70.52%,N/A,N/A,31.5%,11.75%,48.89%,Orangeburg County,67.60%,30.70%,0.86%,73.93%,23.19%,0.2%,1.41%,N/A,93,60,33,71,37,50%,52%,51,68,102,64%,67%,57%,51.19,16.35,11.83,31.89%,37.25%,34.11%,1.2,0,6.1,50.8,46,168,4.8,9.01,SC-53080,33.4927579,-80.86709
Oswego,South Carolina,211,174,Sumter,137150,N/A,0.0%,15,N/A,N/A,N/A,N/A,100.0%,N/A,33.33%,N/A,N/A,100.0%,0.0%,0.0%,Sumter County,54.50%,42.50%,0.0%,0.0%,100.0%,0.0%,0.0%,Eastern Standard Time,91,56,35,70,33,50%,52%,51,68,98,64%,67%,57%,50.47,15.83,11.13,33.21%,37.36%,37.0%,1.2,0,6.1,50.8,63,162,5,1.21,SC-53485,34.0055978,-80.2861466
Pacolet,South Carolina,2164,373,Spartanburg,322864,$46120,19.38%,43,$232000,2468,$94,56,76.54%,$857,49.12%,359,1838,15.77%,3.81%,57.02%,Spartanburg County,33.00%,63.00%,0.0%,19.22%,77.08%,0.28%,0.0%,Eastern Standard Time,91,55,36,68,31,52%,55%,48,66,99,64%,68%,58%,49.87,12.25,13.26,26.85%,28.35%,29.89%,3.6,0,6.4,42.5,60,558,4.7,5.8,SC-53845,34.9101918,-81.7662881
Pageland,South Carolina,2476,573,None,N/A,$40236,10.45%,42,N/A,N/A,N/A,44,55.38%,$691,64.18%,N/A,N/A,22.01%,8.34%,54.23%,Chesterfield County,41.40%,56.20%,1.49%,34.65%,42.25%,13.85%,5.9%,N/A,92,53,39,69,31,52%,55%,47,66,101,64%,68%,58%,46.13,12.14,10.58,29.15%,31.54%,32.22%,3.2,0,6.4,38.3,66,489,5,4.32,SC-54025,34.7720342,-80.389635
Pamplico,South Carolina,952,588,Florence,200709,$24646,8.47%,30,N/A,N/A,N/A,44,63.37%,$591,57.66%,573,1228,40.93%,6.35%,64.38%,Florence County,46.10%,51.00%,0.21%,46.32%,50.21%,0.0%,1.16%,Eastern Standard Time,92,59,33,70,33,50%,52%,51,68,100,64%,67%,57%,48.8,16.09,10.28,31.37%,35.93%,32.44%,2.1,0,6.1,50.8,65,69,5.1,1.62,SC-54340,33.9957219,-79.5698441
Parker,South Carolina,12564,1831,Greenville-Anderson-Mauldin,918166,$38607,15.01%,32,$202000,1141,$177,50,37.6%,$1066,69.24%,N/A,N/A,29.17%,5.44%,63.48%,Greenville County,34.60%,59.40%,0.4%,21.62%,36.19%,31.43%,18.21%,Eastern Standard Time,91,54,37,72,35,55%,59%,48,66,102,59%,59%,57%,54.18,14.98,14.22,33.42%,38.9%,34.89%,3.6,0,6.6,42.5,46,867,5,6.86,SC-54535,34.8513409,-82.451301
Parksville,South Carolina,90,123,None,N/A,$41250,13.25%,60,N/A,N/A,N/A,71,82.22%,$638,34.09%,N/A,N/A,11.11%,5.88%,38.64%,McCormick County,47.50%,50.80%,0.0%,5.56%,91.11%,0.0%,0.0%,N/A,92,56,36,71,36,50%,52%,48,66,100,64%,67%,57%,47.06,14.96,12.48,29.78%,35.82%,33.0%,1.0,0,6.1,42.5,60,366,5,0.73,SC-54700,33.7865925,-82.2173669
Patrick,South Carolina,341,355,None,N/A,$27153,5.56%,36,N/A,N/A,N/A,49,62.85%,$768,63.12%,N/A,N/A,33.72%,15.04%,45.2%,Chesterfield County,41.40%,56.20%,0.0%,26.98%,61.29%,3.52%,0.0%,N/A,93,56,37,70,32,50%,52%,51,68,102,64%,67%,57%,50.76,15.84,11.03,29.78%,34.73%,32.56%,2.1,0,6.1,50.8,66,189,5,0.96,SC-54925,34.5752528,-80.044655
Pawleys Island,South Carolina,116,166,Georgetown,62992,$118750,81.58%,70,$700000,1867,$375,46,95.18%,N/A,29.82%,N/A,N/A,5.17%,0.0%,37.72%,Georgetown County,42.00%,54.90%,0.0%,0.0%,100.0%,0.0%,0.0%,N/A,89,58,31,73,37,50%,52%,54,70,94,64%,67%,57%,55.41,18.31,10.74,31.26%,38.68%,32.0%,0.6,0,7.9,54.4,78,9,5,0.7,SC-55015,33.4257604,-79.1249404
Paxville,South Carolina,386,368,None,N/A,$56071,13.15%,46,N/A,N/A,N/A,37,79.91%,$783,53.89%,N/A,N/A,15.03%,3.86%,64.49%,Clarendon County,50.20%,48.00%,0.0%,57.25%,31.61%,3.89%,4.66%,N/A,90,56,34,70,35,50%,52%,51,68,96,64%,67%,57%,50.66,15.8,11.19,33.21%,37.36%,37.0%,1.2,0,6.1,50.8,64,78,4.9,1.05,SC-55060,33.7390269,-80.3585651
Peak,South Carolina,78,229,Newberry,37842,N/A,26.19%,32,N/A,N/A,N/A,37,61.11%,N/A,26.19%,N/A,N/A,5.13%,0.0%,45.24%,Newberry County,37.00%,59.60%,0.0%,5.13%,94.87%,0.0%,0.0%,N/A,91,55,36,71,35,50%,52%,51,68,98,64%,67%,57%,46.12,12.83,12.15,29.64%,31.98%,34.44%,1.2,0,6.1,50.8,65,375,4.9,0.34,SC-55150,34.2363254,-81.3288398
Pelion,South Carolina,1147,312,Columbia,825823,$61250,22.5%,50,N/A,N/A,N/A,36,77.81%,$850,43.04%,284,2556,14.97%,2.32%,59.18%,Lexington County,28.90%,65.50%,0.26%,4.36%,87.88%,0.96%,0.0%,Eastern Standard Time,92,56,36,69,32,50%,52%,51,68,100,64%,67%,57%,48.6,14.15,12.39,29.42%,35.16%,30.78%,1.2,0,6.1,50.8,63,414,4.7,3.68,SC-55420,33.7888547,-81.262387
Pelzer,South Carolina,1570,1725,Greenville-Anderson-Mauldin,918166,$54886,24.83%,40,$230000,1917,$120,82,62.61%,$1036,52.63%,N/A,N/A,25.92%,8.46%,46.3%,Anderson County,26.20%,69.90%,0.45%,0.76%,87.77%,6.82%,3.25%,Eastern Standard Time,90,54,36,68,30,55%,59%,48,66,100,59%,59%,57%,46.65,11.38,13.41,29.23%,30.11%,33.56%,2.2,0,6.6,42.5,59,645,5,0.91,SC-55465,34.6432391,-82.4587994
Pendleton,South Carolina,3542,747,Greenville-Anderson-Mauldin,918166,$60517,50.98%,42,$255000,1723,$148,41,61.17%,$891,57.62%,N/A,N/A,23.46%,2.68%,61.55%,Anderson County,26.20%,69.90%,0.65%,18.21%,75.97%,0.0%,4.43%,Eastern Standard Time,91,53,38,69,33,55%,59%,48,66,102,59%,59%,57%,51.58,12.7,14.86,31.59%,33.96%,35.22%,2.2,0,6.6,42.5,60,732,5,4.74,SC-55645,34.6450711,-82.7818579
Perry,South Carolina,333,347,Augusta-Richmond County,607673,$35179,15.3%,32,N/A,N/A,N/A,33,73.31%,$829,64.32%,N/A,N/A,29.54%,2.26%,56.12%,Aiken County,34.00%,61.50%,0.0%,48.35%,48.35%,0.0%,0.0%,Eastern Standard Time,91,57,34,69,34,50%,52%,51,68,98,64%,67%,57%,50.75,16.9,12.35,28.82%,35.27%,31.11%,1.2,0,6.1,50.8,63,354,4.7,0.96,SC-55960,33.6283187,-81.3081049
Pickens,South Carolina,3386,1188,Greenville-Anderson-Mauldin,918166,$58534,13.99%,38,$212000,1293,$164,57,48.33%,$874,47.56%,599,5897,16.74%,0.97%,52.18%,Pickens County,21.10%,73.90%,2.42%,13.53%,72.74%,4.61%,1.92%,Eastern Standard Time,90,53,37,69,30,55%,59%,48,66,100,59%,59%,57%,57.12,14.76,16.01,32.16%,37.03%,34.0%,2.2,0,6.6,42.5,69,984,4.4,2.85,SC-56140,34.8857389,-82.7104412
Piedmont,South Carolina,5786,673,Greenville-Anderson-Mauldin,918166,$51896,12.91%,36,$316000,1987,$159,36,67.54%,$844,52.66%,N/A,N/A,27.71%,11.09%,56.49%,Anderson County,26.20%,69.90%,0.43%,15.62%,73.4%,5.7%,2.35%,Eastern Standard Time,91,54,37,72,35,55%,59%,48,66,102,59%,59%,57%,51.67,13.77,13.75,29.23%,30.11%,33.56%,3.6,0,6.6,42.5,58,819,5,8.6,SC-56365,34.7073839,-82.4650704
Pine Ridge,South Carolina,2709,576,Columbia,825823,$74861,29.98%,38,N/A,N/A,N/A,27,77.48%,$1204,40.54%,N/A,N/A,16.57%,6.45%,60.75%,Lexington County,28.90%,65.50%,4.21%,23.48%,62.5%,6.13%,5.28%,Eastern Standard Time,93,57,36,72,35,50%,52%,51,68,102,64%,67%,57%,45.71,14.84,10.95,29.42%,35.16%,30.78%,1.2,0,6.1,50.8,53,210,4.7,4.7,SC-56950,33.9081979,-81.0976813
Pinewood,South Carolina,559,522,Sumter,137150,$27500,9.12%,34,N/A,N/A,N/A,50,70.73%,$435,50.77%,N/A,N/A,34.85%,2.29%,59.37%,Sumter County,54.50%,42.50%,0.0%,52.06%,34.7%,5.01%,0.89%,Eastern Standard Time,91,56,35,70,33,50%,52%,51,68,98,64%,67%,57%,50.5,16.33,10.91,33.21%,37.36%,37.0%,1.2,0,6.1,50.8,63,165,5,1.07,SC-57085,33.739585,-80.4620161
Pinopolis,South Carolina,950,664,Charleston-North Charleston,789932,$113750,26.63%,61,$687000,2987,$230,45,98.32%,N/A,24.63%,N/A,N/A,1.79%,0.0%,41.05%,Berkeley County,38.60%,56.10%,0.0%,0.0%,100.0%,0.0%,2.32%,Eastern Standard Time,94,59,35,74,39,50%,52%,54,70,104,64%,67%,57%,52.05,17.78,10.81,30.74%,38.02%,31.67%,0.6,0,7.9,54.4,65,45,4.7,1.43,SC-57175,33.2286179,-80.0386018
Plum Branch,South Carolina,95,264,None,N/A,$145833,58.44%,53,N/A,N/A,N/A,60,98.91%,N/A,28.89%,N/A,N/A,23.16%,2.04%,54.44%,McCormick County,47.50%,50.80%,0.0%,8.42%,91.58%,0.0%,1.05%,N/A,93,55,38,70,33,50%,52%,48,66,102,64%,67%,57%,46.5,13.26,12.95,27.92%,29.56%,31.22%,1.0,0,6.1,42.5,60,465,5,0.36,SC-57670,33.848166,-82.2587465
Pomaria,South Carolina,103,98,Newberry,37842,$71250,42.11%,50,$220000,1560,$141,56,87.07%,N/A,32.95%,N/A,N/A,0.0%,0.0%,56.47%,Newberry County,37.00%,59.60%,0.0%,4.85%,83.5%,10.68%,4.85%,N/A,91,55,36,71,35,50%,52%,51,68,98,64%,67%,57%,46.73,12.79,12.42,29.64%,31.98%,34.44%,1.2,0,6.1,50.8,62,651,4.9,1.05,SC-57850,34.2677092,-81.4191682
Port Royal,South Carolina,15047,887,Hilton Head Island-Bluffton-Beaufort,214370,$70330,37.27%,26,$341000,1688,$202,12,39.04%,$1606,56.02%,299,1735,10.65%,1.38%,71.1%,Beaufort County,40.90%,54.70%,2.1%,17.98%,57.86%,17.29%,4.9%,Eastern Standard Time,92,61,31,75,40,54%,57%,55,70,103,59%,59%,55%,50.01,18.37,10.06,28.22%,36.48%,29.11%,0.2,0,6.9,60.5,71,9,5.5,16.97,SC-58030,32.3554985,-80.7028592
Powdersville,South Carolina,11321,823,Greenville-Anderson-Mauldin,918166,$88125,33.57%,40,$397000,2451,$162,24,76.36%,$1231,41.56%,N/A,N/A,8.51%,2.89%,66.17%,Anderson County,26.20%,69.90%,1.7%,10.64%,78.83%,4.28%,4.75%,Eastern Standard Time,91,54,37,72,35,55%,59%,48,66,102,59%,59%,57%,51.67,13.77,13.75,33.42%,38.9%,34.89%,3.6,0,6.6,42.5,59,819,5,13.76,SC-58170,34.7826306,-82.4959107
