City,State,Population,People per sq mi,Metro Name,Metro population,Median household income,% with at least Bachelor's degree,Median age,Median home price,Median home sqft,Median home cost per sqft,Median home age,Homeownership Rate,Avg Apartment Monthly Rent,Single Population,Num Violent Crimes Per 100k residents,Num Property Crimes Per 100k residents,Poverty Rate,Unemployment rate,Labor Force Participation rate,County,% Democrat,% Republican,% Asian,% Black,% Non-Hispanic White,% Hispanic,Foreign Born %,Timezone,Hottest month's avg high (F),Coldest month's avg high (F),Hottest high minus coldest high,Hottest month's avg low (F),Coldest month's avg low (F),Annual Relative Humidity (afternoon),Summer Relative Humidity (afternoon),Annual dew point (F),Average summer dew point (F),Hottest month's avg heat index high (F),Annual Sunshine - Percentage of Possible,Summer Sunshine - Percentage of Possible,Winter Sunshine - Percentage of Possible,Annual rainfall (in),Summer rainfall (in),Winter rainfall (in),Percent of days that include precipitation,Percent of Summer days that include precipitation,Percent of Winter days that include precipitation,Annual snowfall (in),Days of snow per year,Average yearly windspeed (mph),Number of days with thunder per year,Air quality Index,Elevation (ft),UV Index,Land Area (sq mi),Fips Code,Latitude,Longitude
Albany village,Vermont,203,132,None,N/A,$66042,21.09%,39,N/A,N/A,N/A,N/A,92.05%,N/A,36.43%,N/A,N/A,1.97%,0.0%,65.89%,Orleans County,43.00%,42.80%,0.0%,0.0%,78.33%,17.73%,0.0%,N/A,76,26,50,57,7,58%,54%,35,57,76,49%,60%,42%,49.1,14.74,10.47,43.29%,48.24%,39.78%,141.7,84,8.2,23.6,92,1863,3,1.54,VT-00400,44.7301426,-72.3809891
Alburgh,Vermont,1648,2575,Burlington-South Burlington,224524,N/A,N/A,N/A,$120000,960,$125,N/A,N/A,N/A,N/A,N/A,N/A,N/A,N/A,N/A,Grand Isle County,51.00%,36.20%,N/A,N/A,N/A,N/A,N/A,Eastern Standard Time,81,30,51,59,12,58%,54%,35,57,82,49%,60%,42%,36.36,11.7,6.61,39.67%,46.15%,33.89%,48.8,30,8.2,23.6,84,162,3.1,0.64,VT-00625,44.9767282,-73.3025697
Alburgh village,Vermont,545,852,Burlington-South Burlington,224524,N/A,N/A,N/A,$120000,960,$125,N/A,N/A,N/A,N/A,N/A,N/A,N/A,N/A,N/A,Grand Isle County,51.00%,36.20%,N/A,N/A,N/A,N/A,N/A,Eastern Standard Time,81,30,51,59,12,58%,54%,35,57,82,49%,60%,42%,36.36,11.7,6.61,39.67%,46.15%,33.89%,48.8,30,8.2,23.6,84,162,3.1,0.64,VT-00625,44.9767282,-73.3025697
Andover,Vermont,534,19,Claremont-Lebanon,N/A,N/A,N/A,N/A,N/A,N/A,N/A,N/A,N/A,N/A,N/A,N/A,N/A,N/A,N/A,N/A,Windsor County,58.70%,28.80%,N/A,N/A,N/A,N/A,N/A,N/A,76,28,48,58,9,53%,51%,35,57,76,55%,62%,53%,50.64,14.35,12.54,40.44%,49.23%,37.11%,73.4,33,6.0,17.7,89,1578,3.3,28.11,VT-01300,43.2863686,-72.7228999
Arlington,Vermont,1584,413,Bennington,37235,$65000,31.36%,36,N/A,N/A,N/A,66,80.45%,$958,50.78%,N/A,N/A,9.97%,7.84%,74.45%,Bennington County,54.90%,34.10%,1.77%,0.0%,87.56%,6.38%,3.41%,N/A,82,33,49,58,15,57%,55%,37,58,83,50%,58%,45%,39.98,13.3,7.55,41.04%,45.16%,40.44%,73.4,33,7.9,22.7,91,756,3.4,3.84,VT-01375,43.0685084,-73.1467799
Ascutney,Vermont,505,299,Claremont-Lebanon,N/A,$45972,21.26%,63,N/A,N/A,N/A,54,97.89%,N/A,60.47%,N/A,N/A,14.56%,0.0%,34.3%,Windsor County,58.70%,28.80%,0.0%,0.0%,100.0%,0.0%,0.0%,N/A,84,31,53,58,11,53%,51%,35,57,85,55%,62%,53%,44.81,12.86,9.84,33.51%,36.48%,31.89%,68.9,27,6.0,17.7,84,513,3.3,1.69,VT-01750,43.4080052,-72.4068432
Bakersfield,Vermont,409,393,Burlington-South Burlington,224524,$82206,40.0%,51,N/A,N/A,N/A,65,94.66%,N/A,38.3%,N/A,N/A,0.0%,0.0%,63.03%,Franklin County,43.70%,40.90%,0.0%,0.0%,81.66%,14.43%,1.47%,Eastern Standard Time,82,28,54,56,5,58%,54%,35,57,83,49%,60%,42%,42.23,12.67,8.08,52.96%,50.99%,60.78%,48.8,30,8.2,23.6,90,390,2.9,1.04,VT-02425,44.7820218,-72.8032772
Baltimore,Vermont,282,61,Claremont-Lebanon,N/A,N/A,N/A,N/A,N/A,N/A,N/A,N/A,N/A,N/A,N/A,N/A,N/A,N/A,N/A,N/A,Windsor County,58.70%,28.80%,N/A,N/A,N/A,N/A,N/A,N/A,83,31,52,59,12,53%,51%,35,57,84,55%,62%,53%,41.18,11.99,8.8,40.44%,49.23%,37.11%,68.9,27,6.0,17.7,90,528,3.3,4.62,VT-02575,43.3596264,-72.5659379
Barnard,Vermont,760,16,Claremont-Lebanon,N/A,N/A,N/A,N/A,N/A,N/A,N/A,N/A,N/A,N/A,N/A,N/A,N/A,N/A,N/A,N/A,Windsor County,58.70%,28.80%,N/A,N/A,N/A,N/A,N/A,N/A,82,31,51,58,9,58%,54%,35,57,83,49%,60%,42%,46.7,13.98,10.04,41.32%,44.18%,43.11%,84.9,34,8.2,23.6,89,1449,3.3,47.5,VT-02725,43.7294189,-72.6246918
Barre,Vermont,8778,2200,Barre,59609,N/A,N/A,N/A,$284000,1614,$176,N/A,N/A,N/A,N/A,103,571,N/A,N/A,N/A,Washington County,59.80%,25.70%,N/A,N/A,N/A,N/A,N/A,N/A,79,27,52,57,9,58%,54%,35,57,80,49%,60%,42%,42.14,14.03,7.66,45.53%,46.92%,47.22%,118.2,69,8.2,23.6,66,1029,2.9,3.99,VT-03250,44.1858459,-72.4818107
Barre town,Vermont,7787,1952,Barre,59609,N/A,N/A,N/A,$284000,1614,$176,N/A,N/A,N/A,N/A,103,571,N/A,N/A,N/A,Washington County,59.80%,25.70%,N/A,N/A,N/A,N/A,N/A,N/A,79,27,52,57,9,58%,54%,35,57,80,49%,60%,42%,42.14,14.03,7.66,45.53%,46.92%,47.22%,118.2,69,8.2,23.6,83,1029,2.9,3.99,VT-03250,44.1858459,-72.4818107
Barton village,Vermont,624,552,None,N/A,$33235,17.21%,48,N/A,N/A,N/A,64,52.97%,$792,64.18%,N/A,N/A,29.32%,9.02%,47.93%,Orleans County,43.00%,42.80%,1.92%,5.61%,89.9%,0.96%,9.62%,N/A,77,24,53,57,6,58%,54%,35,57,77,49%,60%,42%,45.98,14.16,8.94,54.49%,50.44%,67.0%,141.7,84,8.2,23.6,78,1371,3,1.13,VT-03475,44.7481194,-72.1785014
Beecher Falls,Vermont,112,88,Berlin,N/A,N/A,3.85%,58,N/A,N/A,N/A,N/A,82.76%,N/A,19.05%,N/A,N/A,13.39%,10.0%,57.14%,Essex County,34.80%,51.50%,0.0%,0.0%,96.43%,0.0%,11.61%,N/A,76,23,53,54,2,58%,54%,36,57,76,49%,60%,42%,44.85,13.95,8.55,51.23%,49.89%,59.56%,146.6,67,8.2,23.6,94,1554,3,1.27,VT-04150,45.0090817,-71.4936347
Bellows Falls,Vermont,2734,1996,None,N/A,$46806,28.52%,39,N/A,N/A,N/A,N/A,47.36%,$962,69.08%,100,1871,19.17%,3.75%,65.93%,Windham County,63.40%,24.10%,3.95%,3.47%,80.72%,3.26%,4.54%,N/A,82,32,50,59,14,53%,51%,35,57,83,55%,62%,53%,46.49,13.73,10.94,33.51%,36.48%,31.89%,59.9,29,6.0,17.7,72,663,3.5,1.37,VT-04225,43.1343339,-72.4549773
Bennington,Vermont,8772,1816,Bennington,37235,$48457,32.59%,47,$242000,1344,$180,71,65.44%,$946,61.62%,208,2785,11.56%,5.67%,50.69%,Bennington County,54.90%,34.10%,2.01%,0.15%,94.02%,1.19%,1.72%,N/A,82,33,49,58,15,57%,55%,37,58,83,50%,58%,45%,39.98,13.3,7.55,41.04%,45.16%,40.44%,54.0,29,7.9,22.7,83,756,3.4,4.83,VT-04750,42.8746123,-73.1852188
Benson,Vermont,280,72,Rutland,60662,$30625,5.64%,46,N/A,N/A,N/A,55,80.31%,$827,50.21%,N/A,N/A,16.07%,3.13%,42.11%,Rutland County,46.00%,42.10%,0.0%,0.0%,100.0%,0.0%,0.0%,N/A,84,31,53,63,13,58%,54%,37,58,86,49%,60%,42%,44.92,14.29,9.25,41.32%,44.18%,43.11%,84.9,34,8.2,23.6,88,108,2.9,3.87,VT-05125,43.707186,-73.3093978
Berkshire,Vermont,1711,41,Burlington-South Burlington,224524,N/A,N/A,N/A,N/A,N/A,N/A,N/A,N/A,N/A,N/A,N/A,N/A,N/A,N/A,N/A,Franklin County,43.70%,40.90%,N/A,N/A,N/A,N/A,N/A,Eastern Standard Time,82,28,54,56,5,58%,54%,35,57,83,49%,60%,42%,42.23,12.67,8.08,52.96%,50.99%,60.78%,48.8,30,8.2,23.6,90,390,2.9,41.73,VT-05425,44.9698828,-72.7582703
Berlin,Vermont,2832,78,Barre,59609,N/A,N/A,N/A,N/A,N/A,N/A,N/A,N/A,N/A,N/A,143,4291,N/A,N/A,N/A,Washington County,59.80%,25.70%,N/A,N/A,N/A,N/A,N/A,N/A,79,27,52,57,9,58%,54%,35,57,80,49%,60%,42%,42.14,14.03,7.66,45.53%,46.92%,47.22%,118.2,69,8.2,23.6,86,1029,2.9,36.31,VT-05650,44.209727,-72.6040286
Bethel,Vermont,756,396,Claremont-Lebanon,N/A,$62188,15.06%,33,$359000,1962,$183,N/A,60.72%,$806,58.17%,N/A,N/A,2.55%,16.54%,72.38%,Windsor County,58.70%,28.80%,1.72%,0.0%,89.42%,3.17%,0.66%,N/A,80,30,50,56,10,58%,54%,35,57,81,49%,60%,42%,48.23,14.66,10.17,41.32%,44.18%,43.11%,84.9,34,8.2,23.6,90,1854,3.3,1.91,VT-05725,43.8293735,-72.6353824
Bloomfield,Vermont,228,6,Berlin,N/A,N/A,N/A,N/A,N/A,N/A,N/A,N/A,N/A,N/A,N/A,N/A,N/A,N/A,N/A,N/A,Essex County,34.80%,51.50%,N/A,N/A,N/A,N/A,N/A,N/A,78,25,53,53,3,58%,54%,36,57,78,49%,60%,42%,41.61,13.47,8.11,47.73%,49.67%,54.22%,109.5,60,8.2,23.6,94,1023,3,38.0,VT-06325,44.8120124,-71.6445998
Bolton,Vermont,46,657,Burlington-South Burlington,224524,$164167,30.0%,37,N/A,N/A,N/A,57,80.0%,N/A,60.87%,N/A,N/A,0.0%,32.5%,86.96%,Chittenden County,65.70%,22.30%,0.0%,0.0%,93.48%,6.52%,0.0%,Eastern Standard Time,70,22,48,56,7,58%,54%,35,57,69,49%,60%,42%,46.73,14.47,8.78,51.92%,49.89%,60.78%,86.2,49,8.2,23.6,91,669,3,0.07,VT-06475,44.374215,-72.8860101
Bradford,Vermont,953,1003,Claremont-Lebanon,N/A,$48750,34.64%,37,$262000,2031,$129,N/A,73.93%,$958,55.96%,0,815,17.76%,5.67%,66.21%,Orange County,51.50%,34.20%,0.42%,0.73%,91.4%,7.03%,1.68%,N/A,77,27,50,56,7,53%,51%,35,57,77,55%,62%,53%,45.97,13.98,9.99,43.1%,50.0%,39.0%,74.3,35,6.0,17.7,83,1080,3.1,0.95,VT-07225,43.9924743,-72.1250678
Braintree,Vermont,1105,29,Claremont-Lebanon,N/A,N/A,N/A,N/A,N/A,N/A,N/A,N/A,N/A,N/A,N/A,N/A,N/A,N/A,N/A,N/A,Orange County,51.50%,34.20%,N/A,N/A,N/A,N/A,N/A,N/A,80,30,50,56,10,58%,54%,35,57,81,49%,60%,42%,48.23,14.66,10.17,45.53%,46.92%,47.22%,84.9,34,8.2,23.6,89,1854,3.1,38.1,VT-07600,43.9693067,-72.7202174
Brandon,Vermont,1711,605,Rutland,60662,$45714,40.71%,50,$414000,1574,$263,N/A,77.58%,$856,48.21%,238,1088,11.63%,0.83%,62.43%,Rutland County,46.00%,42.10%,3.97%,0.0%,91.0%,0.0%,3.97%,N/A,81,28,53,60,11,58%,54%,35,57,82,49%,60%,42%,47.87,15.3,9.38,41.32%,44.18%,43.11%,84.9,34,8.2,23.6,90,1065,2.9,2.83,VT-07675,43.8010576,-73.084267
Bridgewater,Vermont,898,18,Claremont-Lebanon,N/A,N/A,N/A,N/A,N/A,N/A,N/A,N/A,N/A,N/A,N/A,N/A,N/A,N/A,N/A,N/A,Windsor County,58.70%,28.80%,N/A,N/A,N/A,N/A,N/A,N/A,82,31,51,58,9,53%,51%,35,57,83,55%,62%,53%,45.66,13.76,9.84,40.0%,40.44%,43.0%,73.4,33,6.0,17.7,91,549,3.3,49.89,VT-08275,43.6252692,-72.666772
Brighton,Vermont,1103,21,Berlin,N/A,N/A,N/A,N/A,N/A,N/A,N/A,N/A,N/A,N/A,N/A,N/A,N/A,N/A,N/A,N/A,Essex County,34.80%,51.50%,N/A,N/A,N/A,N/A,N/A,N/A,77,25,52,56,6,58%,54%,35,57,77,49%,60%,42%,46.33,15.35,8.49,51.78%,53.52%,56.33%,109.5,60,8.2,23.6,93,1098,3,52.52,VT-08725,44.8026445,-71.8695294
Brookfield,Vermont,1462,36,Claremont-Lebanon,N/A,N/A,N/A,N/A,N/A,N/A,N/A,N/A,N/A,N/A,N/A,N/A,N/A,N/A,N/A,N/A,Orange County,51.50%,34.20%,N/A,N/A,N/A,N/A,N/A,N/A,82,30,52,56,8,58%,54%,35,57,83,49%,60%,42%,42.14,14.03,7.66,45.53%,46.92%,47.22%,118.2,69,8.2,23.6,89,612,3.1,40.61,VT-09325,44.0286909,-72.5920797
Brunswick,Vermont,77,3,Berlin,N/A,N/A,N/A,N/A,N/A,N/A,N/A,N/A,N/A,N/A,N/A,N/A,N/A,N/A,N/A,N/A,Essex County,34.80%,51.50%,N/A,N/A,N/A,N/A,N/A,N/A,80,26,54,56,4,58%,54%,35,57,81,49%,60%,42%,41.61,13.47,8.11,47.73%,49.67%,54.22%,109.5,60,8.2,23.6,94,870,3,25.67,VT-10075,44.7323225,-71.6619622
Burlington,Vermont,44703,4336,Burlington-South Burlington,224524,$59331,56.95%,27,$610000,1826,$334,63,39.78%,$1381,75.36%,272,1982,23.77%,4.15%,64.95%,Chittenden County,65.70%,22.30%,4.61%,4.36%,83.76%,3.84%,9.05%,Eastern Standard Time,83,30,53,63,15,58%,54%,35,57,84,49%,60%,42%,39.59,12.2,7.12,43.81%,42.64%,48.67%,86.2,49,8.2,23.6,64,303,3,10.31,VT-10675,44.4876126,-73.2315393
Cabot,Vermont,298,259,Barre,59609,$45625,20.29%,24,N/A,N/A,N/A,60,83.77%,$814,71.82%,N/A,N/A,17.09%,19.51%,59.71%,Washington County,59.80%,25.70%,0.0%,0.0%,97.65%,0.0%,0.0%,N/A,81,26,55,54,4,58%,54%,35,57,82,49%,60%,42%,43.29,14.19,8.42,48.82%,46.37%,56.0%,118.2,69,8.2,23.6,90,732,2.9,1.15,VT-11050,44.4048174,-72.3117368
Calais,Vermont,1534,40,Barre,59609,N/A,N/A,N/A,N/A,N/A,N/A,N/A,N/A,N/A,N/A,N/A,N/A,N/A,N/A,N/A,Washington County,59.80%,25.70%,N/A,N/A,N/A,N/A,N/A,N/A,78,27,51,58,10,58%,54%,35,57,78,49%,60%,42%,48.78,15.24,10.68,48.82%,46.37%,56.0%,118.2,69,8.2,23.6,89,1245,2.9,38.35,VT-11350,44.364938,-72.4658497
Cambridge village,Vermont,246,198,None,N/A,$44609,24.86%,32,N/A,N/A,N/A,N/A,41.49%,$1118,55.81%,N/A,N/A,5.28%,9.14%,91.63%,Lamoille County,56.70%,28.00%,0.0%,0.0%,84.55%,10.16%,2.85%,N/A,70,22,48,56,7,58%,54%,35,57,69,49%,60%,42%,50.16,14.98,9.53,52.96%,50.99%,60.78%,86.2,49,8.2,23.6,91,855,3.1,1.24,VT-11425,44.6389286,-72.8787618
Canaan,Vermont,300,191,Berlin,N/A,$52679,12.72%,60,N/A,N/A,N/A,52,73.31%,$725,25.97%,N/A,N/A,3.0%,11.8%,64.4%,Essex County,34.80%,51.50%,0.0%,0.0%,98.67%,0.0%,7.0%,N/A,76,23,53,54,2,58%,54%,36,57,76,49%,60%,42%,44.85,13.95,8.55,51.23%,49.89%,59.56%,146.6,67,8.2,23.6,94,1554,3,1.57,VT-11725,45.0045569,-71.5344498
Castleton,Vermont,1206,950,Rutland,60662,$21322,52.13%,21,N/A,N/A,N/A,N/A,25.0%,$1080,96.11%,0,0,39.49%,5.71%,51.95%,Rutland County,46.00%,42.10%,1.66%,5.72%,88.14%,2.24%,4.56%,N/A,81,30,51,57,10,58%,54%,37,58,82,49%,60%,42%,44.71,14.72,8.98,40.0%,40.44%,43.0%,73.4,33,8.2,23.6,87,621,2.9,1.27,VT-11875,43.6054575,-73.1850584
Cavendish,Vermont,221,266,Claremont-Lebanon,N/A,N/A,21.21%,41,$380000,1704,$223,N/A,68.48%,$1292,41.71%,N/A,N/A,1.36%,6.94%,77.01%,Windsor County,58.70%,28.80%,0.0%,0.0%,100.0%,0.0%,0.0%,N/A,83,31,52,59,12,53%,51%,35,57,84,55%,62%,53%,46.66,13.47,10.45,40.44%,49.23%,37.11%,68.9,27,6.0,17.7,90,888,3.3,0.83,VT-12175,43.3853834,-72.6062919
Charlotte,Vermont,3818,93,Burlington-South Burlington,224524,N/A,N/A,N/A,N/A,N/A,N/A,N/A,N/A,N/A,N/A,N/A,N/A,N/A,N/A,N/A,Chittenden County,65.70%,22.30%,N/A,N/A,N/A,N/A,N/A,Eastern Standard Time,83,30,53,61,12,58%,54%,35,57,84,49%,60%,42%,39.59,12.2,7.12,43.81%,42.64%,48.67%,86.2,49,8.2,23.6,86,180,3,41.05,VT-13300,44.3089404,-73.2359132
Chelsea,Vermont,461,518,Claremont-Lebanon,N/A,$39583,18.0%,35,N/A,N/A,N/A,N/A,68.53%,$758,62.31%,N/A,N/A,20.51%,9.24%,56.62%,Orange County,51.50%,34.20%,0.0%,0.0%,90.02%,3.25%,0.0%,N/A,77,27,50,56,7,58%,54%,35,57,77,49%,60%,42%,45.97,13.98,9.99,45.53%,46.92%,47.22%,118.2,69,8.2,23.6,88,1080,3.1,0.89,VT-13450,43.990237,-72.4485435
Chester,Vermont,1113,696,Claremont-Lebanon,N/A,$59010,46.33%,49,N/A,N/A,N/A,N/A,73.02%,$872,31.03%,99,931,1.98%,0.0%,61.53%,Windsor County,58.70%,28.80%,0.0%,0.0%,100.0%,0.0%,10.33%,N/A,83,31,52,59,12,53%,51%,35,57,84,55%,62%,53%,41.18,11.99,8.8,40.44%,49.23%,37.11%,68.9,27,6.0,17.7,89,528,3.3,1.6,VT-13600,43.2650996,-72.592715
Chittenden,Vermont,186,413,Rutland,60662,$98750,27.94%,37,N/A,N/A,N/A,50,89.09%,$788,45.06%,N/A,N/A,12.9%,12.6%,81.41%,Rutland County,46.00%,42.10%,0.0%,0.0%,97.31%,0.0%,0.0%,N/A,81,30,51,57,10,58%,54%,35,57,82,49%,60%,42%,47.87,15.3,9.38,41.32%,44.18%,43.11%,84.9,34,8.2,23.6,93,1065,2.9,0.45,VT-14275,43.7038915,-72.9493482
Clarendon,Vermont,2403,77,Rutland,60662,N/A,N/A,N/A,N/A,N/A,N/A,N/A,N/A,N/A,N/A,N/A,N/A,N/A,N/A,N/A,Rutland County,46.00%,42.10%,N/A,N/A,N/A,N/A,N/A,N/A,81,30,51,57,10,58%,54%,37,58,82,49%,60%,42%,44.71,14.72,8.98,40.0%,40.44%,43.0%,73.4,33,8.2,23.6,90,621,2.9,31.21,VT-14500,43.5303913,-72.9853379
Colchester,Vermont,17309,476,Burlington-South Burlington,224524,N/A,N/A,N/A,N/A,N/A,N/A,N/A,N/A,N/A,N/A,92,1132,N/A,N/A,N/A,Chittenden County,65.70%,22.30%,N/A,N/A,N/A,N/A,N/A,Eastern Standard Time,83,29,54,63,13,58%,54%,35,57,84,49%,60%,42%,36.54,12.05,6.22,36.74%,40.22%,36.33%,48.8,30,8.2,23.6,80,102,3,36.36,VT-14875,44.5545173,-73.2168443
Concord,Vermont,163,148,Berlin,N/A,$39271,35.29%,46,N/A,N/A,N/A,N/A,64.74%,N/A,58.74%,N/A,N/A,20.25%,0.0%,79.02%,Essex County,34.80%,51.50%,0.61%,0.0%,99.39%,0.0%,1.84%,N/A,82,30,52,59,10,58%,54%,35,57,83,49%,60%,42%,42.5,13.46,8.46,46.93%,45.93%,53.33%,88.5,57,8.2,23.6,91,639,3,1.1,VT-15175,44.4322388,-71.8862515
Corinth,Vermont,1376,28,Claremont-Lebanon,N/A,N/A,N/A,N/A,N/A,N/A,N/A,N/A,N/A,N/A,N/A,N/A,N/A,N/A,N/A,N/A,Orange County,51.50%,34.20%,N/A,N/A,N/A,N/A,N/A,N/A,77,27,50,56,7,58%,54%,35,57,77,49%,60%,42%,45.97,13.98,9.99,45.53%,46.92%,47.22%,74.3,35,8.2,23.6,90,1080,3.1,49.14,VT-15700,44.0375438,-72.2898809
Danby,Vermont,199,276,Rutland,60662,$54583,27.67%,49,$190000,1258,$151,N/A,64.84%,$850,48.07%,N/A,N/A,9.05%,4.17%,66.3%,Rutland County,46.00%,42.10%,1.51%,0.0%,95.98%,0.0%,10.55%,N/A,76,28,48,58,9,57%,55%,37,58,76,50%,58%,45%,52.16,14.75,12.4,40.0%,40.44%,43.0%,73.4,33,7.9,22.7,93,1554,2.9,0.72,VT-16750,43.3451731,-72.9946655
Derby Center,Vermont,667,480,None,N/A,$41083,14.85%,58,N/A,N/A,N/A,51,53.21%,$1008,44.98%,N/A,N/A,29.64%,2.98%,52.25%,Orleans County,43.00%,42.80%,0.0%,0.0%,97.45%,2.55%,8.7%,N/A,79,25,54,57,6,58%,54%,35,57,80,49%,60%,42%,46.05,14.65,8.9,51.78%,53.52%,56.33%,109.5,60,8.2,23.6,89,723,3,1.39,VT-17425,44.9548898,-72.1360894
Derby Line,Vermont,753,1032,None,N/A,$62784,48.64%,42,N/A,N/A,N/A,73,68.56%,$829,54.76%,N/A,N/A,19.87%,2.36%,58.55%,Orleans County,43.00%,42.80%,0.0%,0.0%,91.24%,1.86%,9.3%,N/A,79,25,54,57,6,58%,54%,35,57,80,49%,60%,42%,46.05,14.65,8.9,51.78%,53.52%,56.33%,109.5,60,8.2,23.6,90,723,3,0.73,VT-17500,45.0008502,-72.1034225
Dorset,Vermont,470,226,Bennington,37235,$91845,88.85%,53,N/A,N/A,N/A,67,96.38%,N/A,45.31%,N/A,N/A,12.34%,0.0%,47.96%,Bennington County,54.90%,34.10%,0.0%,0.0%,100.0%,0.0%,0.0%,N/A,76,28,48,58,9,57%,55%,37,58,76,50%,58%,45%,52.16,14.75,12.4,40.0%,40.44%,43.0%,73.4,33,7.9,22.7,92,1554,3.4,2.08,VT-17650,43.2574146,-73.102048
Duxbury,Vermont,1260,29,Barre,59609,N/A,N/A,N/A,N/A,N/A,N/A,N/A,N/A,N/A,N/A,N/A,N/A,N/A,N/A,N/A,Washington County,59.80%,25.70%,N/A,N/A,N/A,N/A,N/A,N/A,78,29,49,57,12,58%,54%,35,57,78,49%,60%,42%,52.88,15.87,11.38,51.92%,49.89%,60.78%,118.2,69,8.2,23.6,90,420,2.9,43.45,VT-18550,44.3050803,-72.8235573
East Barre,Vermont,903,341,Barre,59609,$72188,4.44%,42,N/A,N/A,N/A,34,61.71%,$1348,60.44%,N/A,N/A,3.03%,5.79%,68.94%,Washington County,59.80%,25.70%,0.0%,0.0%,100.0%,0.0%,2.33%,N/A,79,27,52,57,9,58%,54%,35,57,80,49%,60%,42%,42.14,14.03,7.66,45.53%,46.92%,47.22%,118.2,69,8.2,23.6,84,1029,2.9,2.65,VT-19075,44.1499808,-72.4498155
East Burke,Vermont,85,160,None,N/A,$66125,62.9%,30,N/A,N/A,N/A,39,56.52%,N/A,87.34%,N/A,N/A,2.35%,0.0%,87.34%,Caledonia County,45.80%,39.30%,0.0%,0.0%,100.0%,0.0%,0.0%,N/A,79,25,54,52,1,58%,54%,35,57,80,49%,60%,42%,45.55,14.1,9.03,54.49%,50.44%,67.0%,141.7,84,8.2,23.6,91,915,3.1,0.53,VT-19600,44.587441,-71.940262
East Haven,Vermont,315,8,Berlin,N/A,N/A,N/A,N/A,N/A,N/A,N/A,N/A,N/A,N/A,N/A,N/A,N/A,N/A,N/A,N/A,Essex County,34.80%,51.50%,N/A,N/A,N/A,N/A,N/A,N/A,79,25,54,52,1,58%,54%,35,57,80,49%,60%,42%,45.55,14.1,9.03,51.78%,53.52%,56.33%,109.5,60,8.2,23.6,91,915,3,39.38,VT-21250,44.6555144,-71.8228531
East Montpelier,Vermont,63,274,Barre,59609,N/A,100.0%,8,N/A,N/A,N/A,N/A,100.0%,N/A,0.0%,N/A,N/A,0.0%,0.0%,53.33%,Washington County,59.80%,25.70%,0.0%,0.0%,100.0%,0.0%,0.0%,N/A,81,26,55,54,4,58%,54%,35,57,82,49%,60%,42%,43.29,14.19,8.42,45.53%,46.92%,47.22%,118.2,69,8.2,23.6,86,732,2.9,0.23,VT-21850,44.2684612,-72.4902629
Enosburg Falls,Vermont,1369,387,Burlington-South Burlington,224524,$47132,13.11%,37,N/A,N/A,N/A,N/A,73.54%,$827,57.06%,N/A,N/A,22.96%,10.71%,60.42%,Franklin County,43.70%,40.90%,1.46%,4.75%,76.84%,0.66%,1.31%,Eastern Standard Time,82,28,54,56,5,58%,54%,35,57,83,49%,60%,42%,42.23,12.67,8.08,52.96%,50.99%,60.78%,48.8,30,8.2,23.6,90,390,2.9,3.54,VT-24025,44.9083299,-72.8026176
Enosburgh,Vermont,2758,57,Burlington-South Burlington,224524,N/A,N/A,N/A,N/A,N/A,N/A,N/A,N/A,N/A,N/A,N/A,N/A,N/A,N/A,N/A,Franklin County,43.70%,40.90%,N/A,N/A,N/A,N/A,N/A,Eastern Standard Time,82,28,54,56,5,58%,54%,35,57,83,49%,60%,42%,42.23,12.67,8.08,52.96%,50.99%,60.78%,48.8,30,8.2,23.6,90,390,2.9,48.39,VT-24050,44.8806038,-72.7477918
Essex,Vermont,20901,538,Burlington-South Burlington,224524,N/A,N/A,N/A,N/A,N/A,N/A,N/A,N/A,N/A,N/A,59,1362,N/A,N/A,N/A,Chittenden County,65.70%,22.30%,N/A,N/A,N/A,N/A,N/A,Eastern Standard Time,83,30,53,63,15,58%,54%,35,57,84,49%,60%,42%,39.59,12.2,7.12,43.81%,42.64%,48.67%,86.2,49,8.2,23.6,82,303,3,38.85,VT-24175,44.5195976,-73.0655871
Essex Junction,Vermont,10473,2292,Burlington-South Burlington,224524,$79677,46.85%,39,$464000,2109,$220,39,72.45%,$1412,47.79%,N/A,N/A,7.64%,3.69%,72.61%,Chittenden County,65.70%,22.30%,4.75%,4.59%,83.28%,1.7%,12.71%,Eastern Standard Time,83,30,53,63,15,58%,54%,35,57,84,49%,60%,42%,39.59,12.2,7.12,43.81%,42.64%,48.67%,86.2,49,8.2,23.6,77,303,3,4.57,VT-24400,44.4902189,-73.1140064
Fair Haven,Vermont,2412,858,Rutland,60662,$64826,18.47%,38,$69000,2556,$27,N/A,78.49%,$745,53.18%,N/A,N/A,11.14%,4.22%,65.95%,Rutland County,46.00%,42.10%,0.0%,0.12%,94.61%,0.0%,1.74%,N/A,84,31,53,63,13,58%,54%,37,58,86,49%,60%,42%,44.92,14.29,9.25,40.0%,40.44%,43.0%,73.4,33,8.2,23.6,86,108,2.9,2.81,VT-25450,43.5930709,-73.2692512
Fairfax,Vermont,1214,642,Burlington-South Burlington,224524,$51938,47.44%,39,$450000,1613,$279,45,42.97%,$1106,24.39%,N/A,N/A,16.31%,13.18%,67.62%,Franklin County,43.70%,40.90%,0.0%,0.0%,100.0%,0.0%,0.0%,Eastern Standard Time,70,22,48,56,7,58%,54%,35,57,69,49%,60%,42%,50.16,14.98,9.53,52.96%,50.99%,60.78%,48.8,30,8.2,23.6,89,855,2.9,1.89,VT-24850,44.6694853,-73.0106664
Fairfield,Vermont,1899,28,Burlington-South Burlington,224524,N/A,N/A,N/A,N/A,N/A,N/A,N/A,N/A,N/A,N/A,N/A,N/A,N/A,N/A,N/A,Franklin County,43.70%,40.90%,N/A,N/A,N/A,N/A,N/A,Eastern Standard Time,82,28,54,56,5,58%,54%,35,57,83,49%,60%,42%,42.23,12.67,8.08,52.96%,50.99%,60.78%,48.8,30,8.2,23.6,90,390,2.9,67.82,VT-25225,44.808435,-72.9325282
Fairlee,Vermont,125,212,Claremont-Lebanon,N/A,$52500,20.87%,65,N/A,N/A,N/A,52,66.87%,$886,64.46%,N/A,N/A,20.8%,5.26%,47.11%,Orange County,51.50%,34.20%,0.0%,0.0%,96.0%,0.0%,1.6%,N/A,83,29,54,58,8,53%,51%,35,57,84,55%,62%,53%,43.52,13.74,8.85,43.1%,50.0%,39.0%,74.3,35,6.0,17.7,86,420,3.1,0.59,VT-25600,43.8987403,-72.1549285
Fayston,Vermont,1298,36,Barre,59609,N/A,N/A,N/A,N/A,N/A,N/A,N/A,N/A,N/A,N/A,N/A,N/A,N/A,N/A,N/A,Washington County,59.80%,25.70%,N/A,N/A,N/A,N/A,N/A,N/A,78,29,49,57,12,58%,54%,35,57,78,49%,60%,42%,46.55,14.51,8.97,51.92%,49.89%,60.78%,118.2,69,8.2,23.6,92,1044,2.9,36.06,VT-25825,44.2130306,-72.8748925
Fletcher,Vermont,1424,38,Burlington-South Burlington,224524,N/A,N/A,N/A,N/A,N/A,N/A,N/A,N/A,N/A,N/A,N/A,N/A,N/A,N/A,N/A,Franklin County,43.70%,40.90%,N/A,N/A,N/A,N/A,N/A,Eastern Standard Time,76,26,50,57,7,58%,54%,35,57,76,49%,60%,42%,50.16,14.98,9.53,52.96%,50.99%,60.78%,48.8,30,8.2,23.6,89,855,2.9,37.47,VT-26500,44.7108816,-72.9009983
Franklin,Vermont,1414,37,Burlington-South Burlington,224524,N/A,N/A,N/A,N/A,N/A,N/A,N/A,N/A,N/A,N/A,N/A,N/A,N/A,N/A,N/A,Franklin County,43.70%,40.90%,N/A,N/A,N/A,N/A,N/A,Eastern Standard Time,82,28,54,56,5,58%,54%,35,57,83,49%,60%,42%,42.23,12.67,8.08,52.96%,50.99%,60.78%,48.8,30,8.2,23.6,88,390,2.9,38.22,VT-27100,44.9765314,-72.8980543
Georgia,Vermont,4691,119,Burlington-South Burlington,224524,N/A,N/A,N/A,N/A,N/A,N/A,N/A,N/A,N/A,N/A,N/A,N/A,N/A,N/A,N/A,Franklin County,43.70%,40.90%,N/A,N/A,N/A,N/A,N/A,Eastern Standard Time,83,29,54,63,13,58%,54%,35,57,84,49%,60%,42%,36.54,12.05,6.22,36.74%,40.22%,36.33%,48.8,30,8.2,23.6,86,102,2.9,39.42,VT-27700,44.7282388,-73.1276314
Granby,Vermont,103,3,Berlin,N/A,N/A,N/A,N/A,N/A,N/A,N/A,N/A,N/A,N/A,N/A,N/A,N/A,N/A,N/A,N/A,Essex County,34.80%,51.50%,N/A,N/A,N/A,N/A,N/A,N/A,80,26,54,56,4,58%,54%,35,57,81,49%,60%,42%,47.41,14.32,9.89,47.73%,49.67%,54.22%,141.7,84,8.2,23.6,91,1347,3,34.33,VT-29125,44.6023405,-71.7206278
Grand Isle,Vermont,2229,136,Burlington-South Burlington,224524,N/A,N/A,N/A,N/A,N/A,N/A,N/A,N/A,N/A,N/A,N/A,N/A,N/A,N/A,N/A,Grand Isle County,51.00%,36.20%,N/A,N/A,N/A,N/A,N/A,Eastern Standard Time,83,29,54,63,13,58%,54%,35,57,84,49%,60%,42%,36.54,12.05,6.22,36.74%,40.22%,36.33%,48.8,30,8.2,23.6,84,102,3.1,16.39,VT-29275,44.7203507,-73.2989753
Graniteville,Vermont,632,374,Barre,59609,$32525,25.91%,33,N/A,N/A,N/A,N/A,60.31%,$1051,72.97%,N/A,N/A,9.65%,14.1%,73.72%,Washington County,59.80%,25.70%,0.0%,20.89%,79.11%,0.0%,20.89%,N/A,79,27,52,57,9,58%,54%,35,57,80,49%,60%,42%,42.14,14.03,7.66,45.53%,46.92%,47.22%,118.2,69,8.2,23.6,84,1029,2.9,1.69,VT-29425,44.14634,-72.4818365
Guildhall,Vermont,185,6,Berlin,N/A,N/A,N/A,N/A,N/A,N/A,N/A,N/A,N/A,N/A,N/A,N/A,N/A,N/A,N/A,N/A,Essex County,34.80%,51.50%,N/A,N/A,N/A,N/A,N/A,N/A,80,26,54,55,5,58%,54%,35,57,81,49%,60%,42%,44.09,14.24,8.03,47.73%,49.67%,54.22%,96.9,65,8.2,23.6,91,786,3,30.83,VT-30775,44.5479105,-71.6287922
Hartford,Vermont,569,486,Claremont-Lebanon,N/A,N/A,25.96%,45,$518000,2123,$244,57,51.5%,$915,46.44%,261,1327,31.28%,2.55%,78.44%,Windsor County,58.70%,28.80%,0.0%,0.0%,79.61%,0.0%,0.0%,N/A,84,32,52,59,11,53%,51%,35,57,85,55%,62%,53%,40.34,13.18,7.66,40.99%,46.59%,37.67%,68.9,27,6.0,17.7,68,546,3.3,1.17,VT-32205,43.6638102,-72.3364955
Hartland,Vermont,555,509,Claremont-Lebanon,N/A,$79063,5.82%,36,N/A,N/A,N/A,N/A,74.3%,N/A,37.18%,N/A,N/A,16.58%,0.0%,62.12%,Windsor County,58.70%,28.80%,1.62%,1.08%,93.69%,0.0%,15.86%,N/A,81,29,52,58,10,53%,51%,35,57,82,55%,62%,53%,40.34,13.18,7.66,40.99%,46.59%,37.67%,68.9,27,6.0,17.7,85,522,3.3,1.09,VT-32350,43.5423345,-72.4000705
Highgate,Vermont,3627,71,Burlington-South Burlington,224524,N/A,N/A,N/A,N/A,N/A,N/A,N/A,N/A,N/A,N/A,N/A,N/A,N/A,N/A,N/A,Franklin County,43.70%,40.90%,N/A,N/A,N/A,N/A,N/A,Eastern Standard Time,82,28,54,56,5,58%,54%,35,57,83,49%,60%,42%,42.23,12.67,8.08,36.74%,40.22%,36.33%,48.8,30,8.2,23.6,88,390,2.9,51.08,VT-33025,44.9655727,-73.0561906
Hinesburg,Vermont,651,525,Burlington-South Burlington,224524,$54844,57.17%,37,$604000,2496,$242,36,54.07%,$1239,68.01%,65,393,0.46%,4.1%,83.42%,Chittenden County,65.70%,22.30%,0.0%,0.0%,85.56%,0.0%,0.0%,Eastern Standard Time,83,30,53,63,15,58%,54%,35,57,84,49%,60%,42%,46.55,14.51,8.97,43.81%,42.64%,48.67%,86.2,49,8.2,23.6,88,651,3,1.24,VT-33400,44.3336413,-73.1085505
Hubbardton,Vermont,559,20,Rutland,60662,N/A,N/A,N/A,N/A,N/A,N/A,N/A,N/A,N/A,N/A,N/A,N/A,N/A,N/A,N/A,Rutland County,46.00%,42.10%,N/A,N/A,N/A,N/A,N/A,N/A,81,30,51,57,10,58%,54%,37,58,82,49%,60%,42%,44.71,14.72,8.98,41.32%,44.18%,43.11%,84.9,34,8.2,23.6,88,621,2.9,27.95,VT-34450,43.712841,-73.1765771
Huntington,Vermont,577,704,Burlington-South Burlington,224524,$77500,33.55%,46,$361000,1563,$231,43,94.01%,N/A,40.28%,N/A,N/A,9.71%,0.95%,63.8%,Chittenden County,65.70%,22.30%,0.35%,0.0%,92.55%,2.43%,1.73%,Eastern Standard Time,83,30,53,63,15,58%,54%,35,57,84,49%,60%,42%,46.55,14.51,8.97,51.92%,49.89%,60.78%,86.2,49,8.2,23.6,91,651,3,0.82,VT-34525,44.3275514,-72.9893609
Hyde Park village,Vermont,487,423,None,N/A,$76630,39.58%,50,N/A,N/A,N/A,59,86.22%,$1139,39.57%,N/A,N/A,4.52%,3.81%,69.3%,Lamoille County,56.70%,28.00%,1.64%,0.0%,98.36%,0.0%,2.26%,N/A,80,28,52,56,7,58%,54%,35,57,81,49%,60%,42%,47.18,14.61,9.59,43.29%,48.24%,39.78%,118.2,69,8.2,23.6,90,945,3.1,1.15,VT-34975,44.5960805,-72.6123863
Ira,Vermont,424,19,Rutland,60662,N/A,N/A,N/A,N/A,N/A,N/A,N/A,N/A,N/A,N/A,N/A,N/A,N/A,N/A,N/A,Rutland County,46.00%,42.10%,N/A,N/A,N/A,N/A,N/A,N/A,81,30,51,57,10,58%,54%,37,58,82,49%,60%,42%,44.71,14.72,8.98,40.0%,40.44%,43.0%,73.4,33,8.2,23.6,91,621,2.9,22.32,VT-35425,43.5537489,-73.0813329
Island Pond,Vermont,837,201,Berlin,N/A,$41250,23.71%,52,N/A,N/A,N/A,62,65.07%,$730,55.57%,N/A,N/A,14.34%,2.34%,53.03%,Essex County,34.80%,51.50%,0.0%,0.0%,92.47%,4.3%,0.24%,N/A,77,25,52,56,6,58%,54%,35,57,77,49%,60%,42%,46.33,15.35,8.49,51.78%,53.52%,56.33%,109.5,60,8.2,23.6,93,1098,3,4.17,VT-35725,44.8125381,-71.8862023
Isle La Motte,Vermont,494,63,Burlington-South Burlington,224524,N/A,N/A,N/A,N/A,N/A,N/A,N/A,N/A,N/A,N/A,N/A,N/A,N/A,N/A,N/A,Grand Isle County,51.00%,36.20%,N/A,N/A,N/A,N/A,N/A,Eastern Standard Time,81,30,51,59,12,58%,54%,35,57,82,49%,60%,42%,36.36,11.7,6.61,39.67%,46.15%,33.89%,48.8,30,8.2,23.6,84,162,3.1,7.84,VT-35875,44.863036,-73.3424544
Jacksonville,Vermont,284,249,None,N/A,$48500,18.29%,44,N/A,N/A,N/A,N/A,82.14%,$867,56.82%,N/A,N/A,8.1%,19.85%,55.74%,Windham County,63.40%,24.10%,3.52%,0.0%,94.37%,2.11%,3.52%,N/A,76,30,46,58,12,57%,55%,37,58,76,50%,58%,45%,54.08,15.34,13.63,40.66%,45.71%,39.0%,59.9,29,7.9,22.7,92,1587,3.5,1.14,VT-36025,42.7975732,-72.8192225
Jeffersonville,Vermont,696,892,None,N/A,$61316,47.1%,32,N/A,N/A,N/A,37,39.88%,$1116,58.5%,N/A,N/A,13.94%,5.48%,84.13%,Lamoille County,56.70%,28.00%,0.0%,0.0%,89.08%,2.01%,0.29%,N/A,76,26,50,57,7,58%,54%,35,57,76,49%,60%,42%,54.92,15.24,11.41,52.96%,50.99%,60.78%,86.2,49,8.2,23.6,91,1065,3.1,0.78,VT-36475,44.6427032,-72.8282358
Jericho,Vermont,1109,798,Burlington-South Burlington,224524,$95156,66.87%,43,$356000,1575,$226,48,95.36%,N/A,39.93%,N/A,N/A,3.97%,0.0%,66.2%,Chittenden County,65.70%,22.30%,0.0%,1.89%,93.42%,1.71%,0.81%,Eastern Standard Time,83,30,53,63,15,58%,54%,35,57,84,49%,60%,42%,50.16,14.98,9.53,52.96%,50.99%,60.78%,86.2,49,8.2,23.6,90,855,3,1.39,VT-36625,44.5048644,-72.9878497
Johnson village,Vermont,1645,1406,None,N/A,$41542,39.78%,22,N/A,N/A,N/A,50,38.65%,$873,78.69%,N/A,N/A,22.23%,11.97%,74.85%,Lamoille County,56.70%,28.00%,0.79%,2.86%,88.81%,4.68%,1.52%,N/A,76,26,50,57,7,58%,54%,35,57,76,49%,60%,42%,47.2,14.12,9.14,43.29%,48.24%,39.78%,118.2,69,8.2,23.6,90,897,3.1,1.17,VT-37000,44.6366037,-72.6785728
Killington,Vermont,433,72,Rutland,60662,$54917,50.0%,47,$268000,856,$313,38,76.04%,$1288,43.1%,N/A,N/A,0.0%,6.2%,74.14%,Rutland County,46.00%,42.10%,5.31%,0.23%,75.29%,9.7%,20.09%,N/A,81,30,51,57,10,58%,54%,35,57,82,49%,60%,42%,47.87,15.3,9.38,41.32%,44.18%,43.11%,84.9,34,8.2,23.6,93,1065,2.9,6.02,VT-37750,43.6505469,-72.7851021
Landgrove,Vermont,109,12,Bennington,37235,N/A,N/A,N/A,N/A,N/A,N/A,N/A,N/A,N/A,N/A,N/A,N/A,N/A,N/A,N/A,Bennington County,54.90%,34.10%,N/A,N/A,N/A,N/A,N/A,N/A,76,28,48,58,9,57%,55%,37,58,76,50%,58%,45%,52.16,14.75,12.4,40.44%,49.23%,37.11%,73.4,33,7.9,22.7,93,1554,3.4,9.08,VT-39025,43.263662,-72.8464422
Lemington,Vermont,133,4,Berlin,N/A,N/A,N/A,N/A,N/A,N/A,N/A,N/A,N/A,N/A,N/A,N/A,N/A,N/A,N/A,N/A,Essex County,34.80%,51.50%,N/A,N/A,N/A,N/A,N/A,N/A,78,25,53,53,3,58%,54%,36,57,78,49%,60%,42%,44.85,13.95,8.55,47.73%,49.67%,54.22%,109.5,60,8.2,23.6,94,1023,3,33.25,VT-39700,44.8906848,-71.5829463
Ludlow,Vermont,790,590,Claremont-Lebanon,N/A,$45278,31.14%,47,N/A,N/A,N/A,N/A,45.66%,$913,64.25%,160,641,15.06%,3.52%,64.81%,Windsor County,58.70%,28.80%,0.38%,0.13%,94.68%,0.13%,5.06%,N/A,83,31,52,59,12,53%,51%,35,57,84,55%,62%,53%,46.66,13.47,10.45,40.44%,49.23%,37.11%,73.4,33,6.0,17.7,91,888,3.3,1.34,VT-41200,43.3972429,-72.6969261
Ludlow village,Vermont,790,590,Claremont-Lebanon,N/A,$45278,31.14%,47,N/A,N/A,N/A,N/A,45.66%,$913,64.25%,160,641,15.06%,3.52%,64.81%,Windsor County,58.70%,28.80%,0.38%,0.13%,94.68%,0.13%,5.06%,N/A,83,31,52,59,12,53%,51%,35,57,84,55%,62%,53%,46.66,13.47,10.45,40.44%,49.23%,37.11%,73.4,33,6.0,17.7,91,888,3.3,1.34,VT-41200,43.3972429,-72.6969261
Lunenburg,Vermont,333,131,Berlin,N/A,$34375,21.3%,48,N/A,N/A,N/A,N/A,78.46%,$813,46.93%,N/A,N/A,50.15%,31.11%,54.44%,Essex County,34.80%,51.50%,0.9%,0.0%,94.29%,3.3%,0.9%,N/A,80,26,54,55,5,58%,54%,35,57,81,49%,60%,42%,47.41,14.32,9.89,45.84%,53.96%,40.22%,96.9,65,8.2,23.6,91,1347,3,2.54,VT-41350,44.456999,-71.6803018
Lyndonville,Vermont,1317,1855,None,N/A,$38966,22.25%,37,N/A,N/A,N/A,N/A,42.57%,$803,60.63%,345,1987,20.12%,5.36%,70.65%,Caledonia County,45.80%,39.30%,0.0%,0.0%,90.36%,3.11%,0.0%,N/A,77,24,53,57,6,58%,54%,35,57,77,49%,60%,42%,49.59,15.11,10.54,54.49%,50.44%,67.0%,141.7,84,8.2,23.6,89,1371,3.1,0.71,VT-41950,44.5351896,-72.0016708
Maidstone,Vermont,186,6,Berlin,N/A,N/A,N/A,N/A,N/A,N/A,N/A,N/A,N/A,N/A,N/A,N/A,N/A,N/A,N/A,N/A,Essex County,34.80%,51.50%,N/A,N/A,N/A,N/A,N/A,N/A,80,26,54,56,4,58%,54%,35,57,81,49%,60%,42%,41.61,13.47,8.11,47.73%,49.67%,54.22%,96.9,65,8.2,23.6,94,870,3,31.0,VT-42475,44.6409464,-71.6166885
Manchester,Vermont,705,199,Bennington,37235,$24773,45.19%,65,$278000,1544,$180,46,64.89%,$519,57.48%,118,1087,20.85%,0.0%,33.19%,Bennington County,54.90%,34.10%,0.0%,0.99%,90.64%,8.37%,11.49%,N/A,76,28,48,58,9,57%,55%,37,58,76,50%,58%,45%,52.16,14.75,12.4,41.04%,45.16%,40.44%,73.4,33,7.9,22.7,91,1554,3.4,3.54,VT-42700,43.161082,-73.0712055
Manchester village,Vermont,705,199,Bennington,37235,$24773,45.19%,65,$278000,1544,$180,46,64.89%,$519,57.48%,118,1087,20.85%,0.0%,33.19%,Bennington County,54.90%,34.10%,0.0%,0.99%,90.64%,8.37%,11.49%,N/A,76,28,48,58,9,57%,55%,37,58,76,50%,58%,45%,52.16,14.75,12.4,41.04%,45.16%,40.44%,73.4,33,7.9,22.7,91,1554,3.4,3.54,VT-42700,43.161082,-73.0712055
Marshfield,Vermont,382,1469,Barre,59609,$70000,36.27%,39,$370000,1989,$186,N/A,87.47%,N/A,50.94%,N/A,N/A,0.26%,3.78%,59.29%,Washington County,59.80%,25.70%,0.0%,0.0%,87.96%,7.85%,3.66%,N/A,81,26,55,54,4,58%,54%,35,57,82,49%,60%,42%,43.29,14.19,8.42,48.82%,46.37%,56.0%,118.2,69,8.2,23.6,90,732,2.9,0.26,VT-43525,44.351923,-72.352028
Marshfield village,Vermont,382,1469,Barre,59609,$70000,36.27%,39,$370000,1989,$186,N/A,87.47%,N/A,50.94%,N/A,N/A,0.26%,3.78%,59.29%,Washington County,59.80%,25.70%,0.0%,0.0%,87.96%,7.85%,3.66%,N/A,81,26,55,54,4,58%,54%,35,57,82,49%,60%,42%,43.29,14.19,8.42,48.82%,46.37%,56.0%,118.2,69,8.2,23.6,90,732,2.9,0.26,VT-43525,44.351923,-72.352028
Mendon,Vermont,968,25,Rutland,60662,N/A,N/A,N/A,N/A,N/A,N/A,N/A,N/A,N/A,N/A,N/A,N/A,N/A,N/A,N/A,Rutland County,46.00%,42.10%,N/A,N/A,N/A,N/A,N/A,N/A,81,30,51,57,10,58%,54%,35,57,82,49%,60%,42%,40.62,13.18,8.48,40.0%,40.44%,43.0%,73.4,33,8.2,23.6,93,567,2.9,38.72,VT-44125,43.6261836,-72.8788141
Middlesex,Vermont,1672,42,Barre,59609,N/A,N/A,N/A,N/A,N/A,N/A,N/A,N/A,N/A,N/A,N/A,N/A,N/A,N/A,N/A,Washington County,59.80%,25.70%,N/A,N/A,N/A,N/A,N/A,N/A,78,27,51,58,10,58%,54%,35,57,78,49%,60%,42%,48.78,15.24,10.68,48.82%,46.37%,56.0%,118.2,69,8.2,23.6,89,1245,2.9,39.81,VT-44500,44.3269555,-72.6305418
Middletown Springs,Vermont,179,259,Rutland,60662,$61705,50.51%,31,N/A,N/A,N/A,N/A,77.78%,$1250,52.07%,N/A,N/A,4.05%,1.15%,73.73%,Rutland County,46.00%,42.10%,0.0%,0.0%,98.32%,1.68%,0.56%,N/A,81,30,51,57,10,57%,55%,37,58,82,50%,58%,45%,44.71,14.72,8.98,40.0%,40.44%,43.0%,73.4,33,7.9,22.7,91,621,2.9,0.69,VT-44725,43.4865715,-73.1230877
Milton,Vermont,4053,1299,Burlington-South Burlington,224524,$74884,18.93%,49,$338000,1579,$214,33,67.83%,$1393,40.9%,145,943,7.4%,17.14%,68.38%,Chittenden County,65.70%,22.30%,0.0%,4.42%,92.5%,0.0%,3.03%,Eastern Standard Time,83,29,54,63,13,58%,54%,35,57,84,49%,60%,42%,36.54,12.05,6.22,36.74%,40.22%,36.33%,48.8,30,8.2,23.6,85,102,3,3.12,VT-45175,44.6309973,-73.1221034
Montgomery,Vermont,998,18,Burlington-South Burlington,224524,N/A,N/A,N/A,N/A,N/A,N/A,N/A,N/A,N/A,N/A,N/A,N/A,N/A,N/A,N/A,Franklin County,43.70%,40.90%,N/A,N/A,N/A,N/A,N/A,Eastern Standard Time,82,28,54,56,5,58%,54%,35,57,83,49%,60%,42%,51.6,15.25,11.46,43.29%,48.24%,39.78%,141.7,84,8.2,23.6,92,978,2.9,55.44,VT-45850,44.8599088,-72.6039599
Montpelier,Vermont,7966,792,Barre,59609,$71163,64.62%,45,$355000,1537,$231,67,60.2%,$1106,56.81%,94,2165,4.87%,2.01%,69.69%,Washington County,59.80%,25.70%,2.01%,0.59%,91.7%,1.85%,4.69%,N/A,82,29,53,60,10,58%,54%,35,57,83,49%,60%,42%,43.63,13.86,8.73,45.53%,46.92%,47.22%,118.2,69,8.2,23.6,70,486,2.9,10.06,VT-46000,44.265916,-72.5717266
Moretown,Vermont,1739,44,Barre,59609,N/A,N/A,N/A,N/A,N/A,N/A,N/A,N/A,N/A,N/A,N/A,N/A,N/A,N/A,N/A,Washington County,59.80%,25.70%,N/A,N/A,N/A,N/A,N/A,N/A,82,29,53,60,10,58%,54%,35,57,83,49%,60%,42%,43.63,13.86,8.73,45.53%,46.92%,47.22%,118.2,69,8.2,23.6,90,486,2.9,39.52,VT-46225,44.2564886,-72.7147496
Morrisville,Vermont,2326,1187,None,N/A,$58203,38.56%,35,N/A,N/A,N/A,63,49.82%,$982,60.4%,N/A,N/A,15.17%,7.46%,68.09%,Lamoille County,56.70%,28.00%,0.47%,2.36%,93.59%,3.96%,4.39%,N/A,80,28,52,56,7,58%,54%,35,57,81,49%,60%,42%,35.87,12.2,6.18,43.29%,48.24%,39.78%,118.2,69,8.2,23.6,88,669,3.1,1.96,VT-46825,44.5583578,-72.5932668
Mount Holly,Vermont,1231,25,Rutland,60662,N/A,N/A,N/A,N/A,N/A,N/A,N/A,N/A,N/A,N/A,N/A,N/A,N/A,N/A,N/A,Rutland County,46.00%,42.10%,N/A,N/A,N/A,N/A,N/A,N/A,76,28,48,58,9,53%,51%,35,57,76,55%,62%,53%,46.66,13.47,10.45,40.44%,49.23%,37.11%,73.4,33,6.0,17.7,92,888,2.9,49.24,VT-47200,43.4288129,-72.8036563
Mount Tabor,Vermont,265,6,Rutland,60662,N/A,N/A,N/A,N/A,N/A,N/A,N/A,N/A,N/A,N/A,N/A,N/A,N/A,N/A,N/A,Rutland County,46.00%,42.10%,N/A,N/A,N/A,N/A,N/A,N/A,76,28,48,58,9,57%,55%,37,58,76,50%,58%,45%,52.16,14.75,12.4,40.0%,40.44%,43.0%,73.4,33,7.9,22.7,93,1554,2.9,44.17,VT-47425,43.3492433,-72.928083
Newbury,Vermont,439,88,Claremont-Lebanon,N/A,$59250,37.39%,50,$525000,1875,$280,N/A,70.03%,$950,44.36%,N/A,N/A,14.81%,4.15%,51.19%,Orange County,51.50%,34.20%,0.0%,2.51%,94.76%,0.91%,5.92%,N/A,77,27,50,56,7,53%,51%,35,57,77,55%,62%,53%,45.97,13.98,9.99,43.1%,50.0%,39.0%,74.3,35,6.0,17.7,86,1080,3.1,4.97,VT-48100,44.080928,-72.0599473
Newbury village,Vermont,439,88,Claremont-Lebanon,N/A,$59250,37.39%,50,$525000,1875,$280,N/A,70.03%,$950,44.36%,N/A,N/A,14.81%,4.15%,51.19%,Orange County,51.50%,34.20%,0.0%,2.51%,94.76%,0.91%,5.92%,N/A,77,27,50,56,7,53%,51%,35,57,77,55%,62%,53%,45.97,13.98,9.99,43.1%,50.0%,39.0%,74.3,35,6.0,17.7,86,1080,3.1,4.97,VT-48100,44.080928,-72.0599473
Newfane village,Vermont,131,728,None,N/A,$58125,69.51%,35,N/A,N/A,N/A,N/A,57.66%,$1000,68.03%,N/A,N/A,9.16%,0.0%,95.61%,Windham County,63.40%,24.10%,0.0%,0.0%,100.0%,0.0%,0.0%,N/A,82,32,50,59,14,53%,51%,35,57,83,55%,62%,53%,51.13,14.77,12.0,36.96%,37.8%,37.56%,59.9,29,6.0,17.7,90,363,3.5,0.18,VT-48325,42.9874534,-72.6548213
Newport,Vermont,4372,746,None,N/A,N/A,N/A,N/A,N/A,N/A,N/A,N/A,N/A,N/A,N/A,517,2448,N/A,N/A,N/A,Orleans County,43.00%,42.80%,N/A,N/A,N/A,N/A,N/A,N/A,79,25,54,57,6,58%,54%,35,57,80,49%,60%,42%,46.05,14.65,8.9,51.78%,53.52%,56.33%,109.5,60,8.2,23.6,81,723,3,5.86,VT-48925,44.9357742,-72.3041389
North Bennington,Vermont,1539,823,Bennington,37235,$46513,43.6%,24,$281000,1295,$217,71,63.91%,$1089,77.77%,N/A,N/A,15.9%,5.77%,50.17%,Bennington County,54.90%,34.10%,6.17%,0.91%,80.96%,3.38%,11.63%,N/A,82,33,49,58,15,57%,55%,37,58,83,50%,58%,45%,39.98,13.3,7.55,41.04%,45.16%,40.44%,54.0,29,7.9,22.7,87,756,3.4,1.87,VT-49075,42.9240557,-73.2411014
North Hartland,Vermont,296,296,Claremont-Lebanon,N/A,$66299,36.59%,45,N/A,N/A,N/A,64,75.18%,N/A,74.29%,N/A,N/A,0.0%,0.0%,62.86%,Windsor County,58.70%,28.80%,0.0%,0.0%,100.0%,0.0%,8.11%,N/A,81,29,52,58,10,53%,51%,35,57,82,55%,62%,53%,40.34,13.18,7.66,40.99%,46.59%,37.67%,68.9,27,6.0,17.7,85,522,3.3,1.0,VT-50500,43.5936689,-72.3578192
North Hero,Vermont,968,72,Burlington-South Burlington,224524,N/A,N/A,N/A,N/A,N/A,N/A,N/A,N/A,N/A,N/A,N/A,N/A,N/A,N/A,N/A,Grand Isle County,51.00%,36.20%,N/A,N/A,N/A,N/A,N/A,Eastern Standard Time,83,29,54,63,13,58%,54%,35,57,84,49%,60%,42%,36.36,11.7,6.61,36.74%,40.22%,36.33%,48.8,30,8.2,23.6,84,162,3.1,13.44,VT-50650,44.8370665,-73.2653266
North Springfield,Vermont,540,439,Claremont-Lebanon,N/A,$58830,16.11%,61,$268000,1686,$159,29,98.15%,N/A,36.67%,N/A,N/A,0.0%,0.0%,72.04%,Windsor County,58.70%,28.80%,0.0%,0.0%,91.3%,8.7%,8.7%,N/A,83,31,52,59,12,53%,51%,35,57,84,55%,62%,53%,41.18,11.99,8.8,40.44%,49.23%,37.11%,68.9,27,6.0,17.7,80,528,3.3,1.23,VT-51925,43.3304464,-72.5277067
North Troy,Vermont,570,305,None,N/A,$55486,23.1%,37,N/A,N/A,N/A,58,72.89%,$870,55.56%,N/A,N/A,11.72%,11.78%,69.39%,Orleans County,43.00%,42.80%,0.0%,0.0%,92.46%,2.63%,2.98%,N/A,79,25,54,57,6,58%,54%,35,57,80,49%,60%,42%,51.6,15.25,11.46,51.78%,53.52%,56.33%,109.5,60,8.2,23.6,92,978,3,1.87,VT-52075,44.9963392,-72.4038041
North Westminster,Vermont,131,273,None,N/A,$61439,37.04%,53,N/A,N/A,N/A,N/A,34.48%,N/A,67.18%,N/A,N/A,0.0%,45.71%,53.44%,Windham County,63.40%,24.10%,0.0%,0.0%,100.0%,0.0%,6.11%,N/A,82,32,50,59,14,53%,51%,35,57,83,55%,62%,53%,46.49,13.73,10.94,36.96%,37.8%,37.56%,59.9,29,6.0,17.7,81,663,3.5,0.48,VT-52375,43.1218588,-72.4554343
Northfield,Vermont,4680,2089,Barre,59609,$52016,31.49%,23,$306000,1913,$160,79,54.2%,$825,73.25%,266,765,17.07%,2.41%,52.71%,Washington County,59.80%,25.70%,1.82%,1.05%,85.9%,7.09%,2.37%,N/A,82,30,52,56,8,58%,54%,35,57,83,49%,60%,42%,42.14,14.03,7.66,45.53%,46.92%,47.22%,118.2,69,8.2,23.6,91,612,2.9,2.24,VT-50200,44.1443009,-72.6573744
Northfield village,Vermont,4680,2089,Barre,59609,$52016,31.49%,23,$306000,1913,$160,79,54.2%,$825,73.25%,266,765,17.07%,2.41%,52.71%,Washington County,59.80%,25.70%,1.82%,1.05%,85.9%,7.09%,2.37%,N/A,82,30,52,56,8,58%,54%,35,57,83,49%,60%,42%,42.14,14.03,7.66,45.53%,46.92%,47.22%,118.2,69,8.2,23.6,91,612,2.9,2.24,VT-50200,44.1443009,-72.6573744
Norton,Vermont,127,3,Berlin,N/A,N/A,N/A,N/A,N/A,N/A,N/A,N/A,N/A,N/A,N/A,N/A,N/A,N/A,N/A,N/A,Essex County,34.80%,51.50%,N/A,N/A,N/A,N/A,N/A,N/A,76,23,53,54,2,58%,54%,35,57,76,49%,60%,42%,44.85,13.95,8.55,51.78%,53.52%,56.33%,109.5,60,8.2,23.6,94,1554,3,42.33,VT-52750,44.9794629,-71.8144335
Norwich,Vermont,673,464,Claremont-Lebanon,N/A,$89464,84.92%,44,N/A,N/A,N/A,74,48.95%,$950,57.37%,60,393,11.59%,3.83%,51.62%,Windsor County,58.70%,28.80%,4.01%,0.0%,89.75%,2.38%,3.27%,N/A,84,32,52,61,14,53%,51%,35,57,85,55%,62%,53%,44.35,13.73,9.25,40.99%,46.59%,37.67%,74.3,35,6.0,17.7,83,534,3.3,1.45,VT-52825,43.7201857,-72.3018353
Old Bennington,Vermont,168,454,Bennington,37235,$156250,73.64%,47,N/A,N/A,N/A,N/A,97.25%,N/A,20.29%,N/A,N/A,1.79%,1.11%,66.18%,Bennington County,54.90%,34.10%,0.0%,0.0%,97.62%,0.0%,1.79%,N/A,82,33,49,58,15,57%,55%,37,58,83,50%,58%,45%,39.98,13.3,7.55,41.04%,45.16%,40.44%,54.0,29,7.9,22.7,85,756,3.4,0.37,VT-53125,42.8848547,-73.2142972
Orange,Vermont,1003,26,Claremont-Lebanon,N/A,N/A,N/A,N/A,N/A,N/A,N/A,N/A,N/A,N/A,N/A,N/A,N/A,N/A,N/A,N/A,Orange County,51.50%,34.20%,N/A,N/A,N/A,N/A,N/A,N/A,81,26,55,54,4,58%,54%,35,57,82,49%,60%,42%,43.29,14.19,8.42,45.53%,46.92%,47.22%,118.2,69,8.2,23.6,91,732,3.1,38.58,VT-53425,44.1560068,-72.374686
Orleans,Vermont,1085,1233,None,N/A,$54457,23.53%,31,N/A,N/A,N/A,N/A,71.69%,$775,52.84%,N/A,N/A,14.17%,6.71%,66.16%,Orleans County,43.00%,42.80%,0.0%,0.18%,87.65%,0.83%,0.92%,N/A,79,25,54,57,6,58%,54%,35,57,80,49%,60%,42%,45.98,14.16,8.94,51.78%,53.52%,56.33%,109.5,60,8.2,23.6,78,1371,3,0.88,VT-53575,44.8090072,-72.2010612
Pawlet,Vermont,200,82,Rutland,60662,$37167,34.73%,55,$660000,3000,$220,54,85.39%,$1367,47.34%,N/A,N/A,18.5%,5.43%,55.09%,Rutland County,46.00%,42.10%,0.0%,0.0%,85.5%,9.0%,2.0%,N/A,76,28,48,58,9,57%,55%,37,58,76,50%,58%,45%,52.16,14.75,12.4,40.0%,40.44%,43.0%,73.4,33,7.9,22.7,90,1554,2.9,2.45,VT-54175,43.3480767,-73.1743096
Perkinsville,Vermont,117,650,Claremont-Lebanon,N/A,N/A,N/A,N/A,N/A,N/A,N/A,N/A,88.89%,N/A,N/A,N/A,N/A,N/A,N/A,N/A,Windsor County,58.70%,28.80%,N/A,N/A,N/A,N/A,N/A,N/A,83,31,52,59,12,53%,51%,35,57,84,55%,62%,53%,41.18,11.99,8.8,40.44%,49.23%,37.11%,68.9,27,6.0,17.7,84,528,3.3,0.18,VT-54850,43.3710615,-72.5157982
Peru,Vermont,329,9,Bennington,37235,N/A,N/A,N/A,N/A,N/A,N/A,N/A,N/A,N/A,N/A,N/A,N/A,N/A,N/A,N/A,Bennington County,54.90%,34.10%,N/A,N/A,N/A,N/A,N/A,N/A,76,28,48,58,9,57%,55%,37,58,76,50%,58%,45%,52.16,14.75,12.4,40.44%,49.23%,37.11%,73.4,33,7.9,22.7,93,1554,3.4,36.56,VT-55000,43.2551389,-72.9204464
Pittsfield,Vermont,412,20,Rutland,60662,N/A,N/A,N/A,N/A,N/A,N/A,N/A,N/A,N/A,N/A,N/A,N/A,N/A,N/A,N/A,Rutland County,46.00%,42.10%,N/A,N/A,N/A,N/A,N/A,N/A,80,30,50,56,10,58%,54%,35,57,81,49%,60%,42%,47.6,14.29,10.48,41.32%,44.18%,43.11%,84.9,34,8.2,23.6,93,759,2.9,20.6,VT-55450,43.7931215,-72.8286459
Pittsford,Vermont,593,301,Rutland,60662,$37035,25.63%,60,N/A,N/A,N/A,66,93.86%,$971,61.32%,35,213,14.67%,7.96%,50.35%,Rutland County,46.00%,42.10%,4.89%,2.7%,92.41%,0.0%,4.22%,N/A,81,30,51,57,10,58%,54%,35,57,82,49%,60%,42%,47.87,15.3,9.38,41.32%,44.18%,43.11%,84.9,34,8.2,23.6,91,1065,2.9,1.97,VT-55525,43.7067385,-73.0275642
Plainfield,Vermont,363,772,Barre,59609,$39221,36.99%,42,$380000,1854,$205,N/A,28.37%,$1074,72.58%,N/A,N/A,24.04%,0.0%,71.94%,Washington County,59.80%,25.70%,3.03%,2.48%,88.15%,2.75%,7.44%,N/A,81,26,55,54,4,58%,54%,35,57,82,49%,60%,42%,43.29,14.19,8.42,45.53%,46.92%,47.22%,118.2,69,8.2,23.6,90,732,2.9,0.47,VT-55750,44.2790777,-72.4308474
Plymouth,Vermont,494,10,Claremont-Lebanon,N/A,N/A,N/A,N/A,N/A,N/A,N/A,N/A,N/A,N/A,N/A,N/A,N/A,N/A,N/A,N/A,Windsor County,58.70%,28.80%,N/A,N/A,N/A,N/A,N/A,N/A,82,31,51,58,9,53%,51%,35,57,83,55%,62%,53%,46.66,13.47,10.45,40.0%,40.44%,43.0%,73.4,33,6.0,17.7,91,888,3.3,49.4,VT-56050,43.5225965,-72.7172787
Pomfret,Vermont,1008,26,Claremont-Lebanon,N/A,N/A,N/A,N/A,N/A,N/A,N/A,N/A,N/A,N/A,N/A,N/A,N/A,N/A,N/A,N/A,Windsor County,58.70%,28.80%,N/A,N/A,N/A,N/A,N/A,N/A,82,31,51,58,9,53%,51%,35,57,83,55%,62%,53%,46.7,13.98,10.04,40.99%,46.59%,37.67%,84.9,34,6.0,17.7,89,1449,3.3,38.77,VT-56350,43.6971172,-72.5063945
Poultney,Vermont,1389,2205,Rutland,60662,$62222,33.58%,22,$90000,1406,$64,N/A,60.68%,$815,67.61%,N/A,N/A,14.59%,8.66%,47.22%,Rutland County,46.00%,42.10%,1.44%,4.82%,87.98%,1.94%,5.62%,N/A,84,31,53,63,13,57%,55%,37,58,86,50%,58%,45%,44.92,14.29,9.25,40.0%,40.44%,43.0%,73.4,33,7.9,22.7,88,108,2.9,0.63,VT-56800,43.5180781,-73.2359058
Poultney village,Vermont,1389,2205,Rutland,60662,$62222,33.58%,22,$90000,1406,$64,N/A,60.68%,$815,67.61%,N/A,N/A,14.59%,8.66%,47.22%,Rutland County,46.00%,42.10%,1.44%,4.82%,87.98%,1.94%,5.62%,N/A,84,31,53,63,13,57%,55%,37,58,86,50%,58%,45%,44.92,14.29,9.25,40.0%,40.44%,43.0%,73.4,33,7.9,22.7,88,108,2.9,0.63,VT-56800,43.5180781,-73.2359058
Pownal,Vermont,568,1114,Bennington,37235,$73438,18.61%,21,$179000,2057,$87,47,96.1%,N/A,71.43%,N/A,N/A,4.58%,13.61%,61.41%,Bennington County,54.90%,34.10%,0.0%,0.0%,96.3%,0.0%,0.0%,N/A,82,33,49,59,16,57%,55%,37,58,83,50%,58%,45%,41.08,13.5,7.58,40.66%,45.71%,39.0%,54.0,29,7.9,22.7,89,597,3.4,0.51,VT-56950,42.7652516,-73.2355152
Proctor,Vermont,1470,431,Rutland,60662,$67115,32.16%,45,$220000,1864,$118,N/A,82.11%,$955,50.57%,N/A,N/A,5.92%,1.78%,60.07%,Rutland County,46.00%,42.10%,0.0%,0.0%,98.1%,0.0%,1.9%,N/A,81,30,51,57,10,58%,54%,37,58,82,49%,60%,42%,44.71,14.72,8.98,40.0%,40.44%,43.0%,73.4,33,8.2,23.6,88,621,2.9,3.41,VT-57246,43.6689748,-73.0405404
Proctorsville,Vermont,328,415,Claremont-Lebanon,N/A,$56667,31.58%,32,N/A,N/A,N/A,69,49.46%,$595,49.0%,N/A,N/A,7.72%,1.26%,63.35%,Windsor County,58.70%,28.80%,0.0%,1.22%,93.9%,4.88%,0.0%,N/A,83,31,52,59,12,53%,51%,35,57,84,55%,62%,53%,46.66,13.47,10.45,40.44%,49.23%,37.11%,68.9,27,6.0,17.7,90,888,3.3,0.79,VT-57400,43.381008,-72.6372896
Quechee,Vermont,382,206,Claremont-Lebanon,N/A,N/A,63.94%,38,$240000,1062,$226,41,31.71%,$1444,67.29%,N/A,N/A,13.61%,5.49%,60.97%,Windsor County,58.70%,28.80%,0.0%,0.0%,100.0%,0.0%,0.0%,N/A,81,29,52,58,10,53%,51%,35,57,82,55%,62%,53%,45.66,13.76,9.84,40.99%,46.59%,37.67%,68.9,27,6.0,17.7,82,522,3.3,1.85,VT-57775,43.6444584,-72.4184562
Randolph,Vermont,2102,468,Claremont-Lebanon,N/A,$63452,43.72%,44,$150000,993,$151,N/A,59.02%,$924,50.33%,N/A,N/A,9.0%,4.25%,63.98%,Orange County,51.50%,34.20%,0.0%,0.0%,95.53%,0.0%,1.43%,N/A,80,30,50,56,10,58%,54%,35,57,81,49%,60%,42%,48.23,14.66,10.17,45.53%,46.92%,47.22%,84.9,34,8.2,23.6,84,1854,3.1,4.49,VT-58000,43.9262157,-72.671576
Reading,Vermont,612,15,Claremont-Lebanon,N/A,N/A,N/A,N/A,N/A,N/A,N/A,N/A,N/A,N/A,N/A,N/A,N/A,N/A,N/A,N/A,Windsor County,58.70%,28.80%,N/A,N/A,N/A,N/A,N/A,N/A,82,31,51,58,9,53%,51%,35,57,83,55%,62%,53%,46.66,13.47,10.45,40.44%,49.23%,37.11%,73.4,33,6.0,17.7,91,888,3.3,40.8,VT-58375,43.4977246,-72.59396
Readsboro,Vermont,295,240,Bennington,37235,$62000,9.38%,38,N/A,N/A,N/A,N/A,70.23%,$332,73.23%,N/A,N/A,5.76%,3.26%,68.4%,Bennington County,54.90%,34.10%,0.0%,0.0%,97.97%,0.0%,3.39%,N/A,76,30,46,58,12,57%,55%,37,58,76,50%,58%,45%,54.08,15.34,13.63,40.66%,45.71%,39.0%,73.1,47,7.9,22.7,92,1587,3.4,1.23,VT-58525,42.7684222,-72.9489581
Richford,Vermont,1656,1562,Burlington-South Burlington,224524,$40625,13.29%,39,$200000,2062,$97,N/A,57.1%,$1000,56.04%,N/A,N/A,18.79%,7.28%,44.67%,Franklin County,43.70%,40.90%,0.12%,0.0%,86.9%,11.11%,3.8%,Eastern Standard Time,82,28,54,56,5,58%,54%,35,57,83,49%,60%,42%,42.23,12.67,8.08,52.96%,50.99%,60.78%,48.8,30,8.2,23.6,92,390,2.9,1.06,VT-59050,44.9949749,-72.6697372
Richmond,Vermont,785,683,Burlington-South Burlington,224524,$66719,67.96%,42,N/A,N/A,N/A,N/A,43.71%,$1512,59.18%,N/A,N/A,4.2%,0.0%,76.3%,Chittenden County,65.70%,22.30%,4.33%,0.0%,94.14%,0.64%,4.33%,Eastern Standard Time,83,30,53,63,15,58%,54%,35,57,84,49%,60%,42%,46.73,14.47,8.78,43.81%,42.64%,48.67%,86.2,49,8.2,23.6,89,669,3,1.15,VT-59200,44.4054976,-72.996798
Rochester,Vermont,330,524,Claremont-Lebanon,N/A,$35781,40.0%,66,N/A,N/A,N/A,N/A,88.41%,$686,64.13%,N/A,N/A,10.61%,3.03%,43.28%,Windsor County,58.70%,28.80%,0.0%,0.0%,99.39%,0.3%,5.76%,N/A,80,30,50,56,10,58%,54%,35,57,81,49%,60%,42%,47.6,14.29,10.48,41.32%,44.18%,43.11%,84.9,34,8.2,23.6,90,759,3.3,0.63,VT-60025,43.8741865,-72.8051967
Roxbury,Vermont,734,17,Barre,59609,N/A,N/A,N/A,N/A,N/A,N/A,N/A,N/A,N/A,N/A,N/A,N/A,N/A,N/A,N/A,Washington County,59.80%,25.70%,N/A,N/A,N/A,N/A,N/A,N/A,82,30,52,56,8,58%,54%,35,57,83,49%,60%,42%,53.79,16.61,13.05,45.53%,46.92%,47.22%,118.2,69,8.2,23.6,91,1506,2.9,43.18,VT-60625,44.0700055,-72.7271351
Royalton,Vermont,2801,69,Claremont-Lebanon,N/A,N/A,N/A,N/A,N/A,N/A,N/A,N/A,N/A,N/A,N/A,0,317,N/A,N/A,N/A,Windsor County,58.70%,28.80%,N/A,N/A,N/A,N/A,N/A,N/A,82,31,51,58,9,58%,54%,35,57,83,49%,60%,42%,46.7,13.98,10.04,40.99%,46.59%,37.67%,84.9,34,8.2,23.6,86,1449,3.3,40.59,VT-60850,43.8145445,-72.5520425
Rupert,Vermont,646,14,Bennington,37235,N/A,N/A,N/A,N/A,N/A,N/A,N/A,N/A,N/A,N/A,N/A,N/A,N/A,N/A,N/A,Bennington County,54.90%,34.10%,N/A,N/A,N/A,N/A,N/A,N/A,76,28,48,58,9,57%,55%,37,58,76,50%,58%,45%,52.16,14.75,12.4,36.47%,39.78%,34.67%,73.4,33,7.9,22.7,92,1554,3.4,46.14,VT-61000,43.2636098,-73.1904997
Rutland,Vermont,15740,2085,Rutland,60662,N/A,N/A,N/A,$215000,1748,$123,N/A,N/A,N/A,N/A,122,1177,N/A,N/A,N/A,Rutland County,46.00%,42.10%,N/A,N/A,N/A,N/A,N/A,N/A,81,30,51,57,10,58%,54%,37,58,82,49%,60%,42%,40.62,13.18,8.48,40.0%,40.44%,43.0%,73.4,33,8.2,23.6,79,567,2.9,7.55,VT-61300,43.5802021,-72.983252
Rutland town,Vermont,4043,535,Rutland,60662,N/A,N/A,N/A,$215000,1748,$123,N/A,N/A,N/A,N/A,122,1177,N/A,N/A,N/A,Rutland County,46.00%,42.10%,N/A,N/A,N/A,N/A,N/A,N/A,81,30,51,57,10,58%,54%,37,58,82,49%,60%,42%,40.62,13.18,8.48,40.0%,40.44%,43.0%,73.4,33,8.2,23.6,88,567,2.9,7.55,VT-61300,43.5802021,-72.983252
Sandgate,Vermont,374,9,Bennington,37235,N/A,N/A,N/A,N/A,N/A,N/A,N/A,N/A,N/A,N/A,N/A,N/A,N/A,N/A,N/A,Bennington County,54.90%,34.10%,N/A,N/A,N/A,N/A,N/A,N/A,76,28,48,58,9,57%,55%,37,58,76,50%,58%,45%,52.16,14.75,12.4,41.04%,45.16%,40.44%,73.4,33,7.9,22.7,92,1554,3.4,41.56,VT-62875,43.1684612,-73.1972371
Saxtons River,Vermont,634,1349,None,N/A,N/A,57.67%,41,N/A,N/A,N/A,N/A,31.97%,$915,39.92%,N/A,N/A,16.5%,1.98%,74.37%,Windham County,63.40%,24.10%,0.0%,0.0%,94.95%,1.1%,1.74%,N/A,82,32,50,59,14,53%,51%,35,57,83,55%,62%,53%,46.49,13.73,10.94,33.51%,36.48%,31.89%,59.9,29,6.0,17.7,83,663,3.5,0.47,VT-62950,43.1389736,-72.5101513
Searsburg,Vermont,106,5,Bennington,37235,N/A,N/A,N/A,N/A,N/A,N/A,N/A,N/A,N/A,N/A,N/A,N/A,N/A,N/A,N/A,Bennington County,54.90%,34.10%,N/A,N/A,N/A,N/A,N/A,N/A,76,30,46,58,12,57%,55%,37,58,76,50%,58%,45%,54.08,15.34,13.63,41.04%,45.16%,40.44%,59.9,29,7.9,22.7,92,1587,3.4,21.2,VT-63175,42.8930745,-72.9666551
Shaftsbury,Vermont,3487,81,Bennington,37235,N/A,N/A,N/A,N/A,N/A,N/A,N/A,N/A,N/A,N/A,N/A,N/A,N/A,N/A,N/A,Bennington County,54.90%,34.10%,N/A,N/A,N/A,N/A,N/A,N/A,82,33,49,58,15,57%,55%,37,58,83,50%,58%,45%,39.98,13.3,7.55,41.04%,45.16%,40.44%,54.0,29,7.9,22.7,90,756,3.4,43.05,VT-63550,42.9805218,-73.207962
Sharon,Vermont,1413,36,Claremont-Lebanon,N/A,N/A,N/A,N/A,N/A,N/A,N/A,N/A,N/A,N/A,N/A,N/A,N/A,N/A,N/A,N/A,Windsor County,58.70%,28.80%,N/A,N/A,N/A,N/A,N/A,N/A,83,29,54,58,8,53%,51%,35,57,84,55%,62%,53%,46.7,13.98,10.04,40.99%,46.59%,37.67%,74.3,35,6.0,17.7,89,1449,3.3,39.25,VT-63775,43.7828539,-72.4361596
Shelburne,Vermont,6335,888,Burlington-South Burlington,224524,$96976,65.25%,48,$599000,2017,$297,37,78.29%,$1304,41.03%,38,614,6.01%,5.53%,62.26%,Chittenden County,65.70%,22.30%,3.66%,0.08%,91.49%,3.73%,7.78%,Eastern Standard Time,83,30,53,63,15,58%,54%,35,57,84,49%,60%,42%,39.59,12.2,7.12,43.81%,42.64%,48.67%,86.2,49,8.2,23.6,85,303,3,7.13,VT-64225,44.3884568,-73.2199461
Sheldon,Vermont,2317,60,Burlington-South Burlington,224524,N/A,N/A,N/A,N/A,N/A,N/A,N/A,N/A,N/A,N/A,N/A,N/A,N/A,N/A,N/A,Franklin County,43.70%,40.90%,N/A,N/A,N/A,N/A,N/A,Eastern Standard Time,82,28,54,56,5,58%,54%,35,57,83,49%,60%,42%,42.23,12.67,8.08,52.96%,50.99%,60.78%,48.8,30,8.2,23.6,88,390,2.9,38.62,VT-64600,44.898995,-72.9200969
Shrewsbury,Vermont,1140,23,Rutland,60662,N/A,N/A,N/A,N/A,N/A,N/A,N/A,N/A,N/A,N/A,N/A,N/A,N/A,N/A,N/A,Rutland County,46.00%,42.10%,N/A,N/A,N/A,N/A,N/A,N/A,81,30,51,57,10,53%,51%,35,57,82,55%,62%,53%,40.62,13.18,8.48,40.0%,40.44%,43.0%,73.4,33,6.0,17.7,93,567,2.9,49.57,VT-65275,43.5297785,-72.8563224
South Barre,Vermont,1280,653,Barre,59609,$71750,45.37%,52,N/A,N/A,N/A,50,87.66%,$1371,37.5%,N/A,N/A,1.88%,0.0%,83.88%,Washington County,59.80%,25.70%,0.0%,4.69%,88.75%,1.02%,0.0%,N/A,79,27,52,57,9,58%,54%,35,57,80,49%,60%,42%,42.14,14.03,7.66,45.53%,46.92%,47.22%,118.2,69,8.2,23.6,84,1029,2.9,1.96,VT-66025,44.1645935,-72.5037624
South Burlington,Vermont,20042,1218,Burlington-South Burlington,224524,$83750,61.95%,39,$505000,1891,$267,33,62.64%,$1592,51.83%,165,2960,7.71%,4.54%,72.56%,Chittenden County,65.70%,22.30%,8.12%,1.45%,83.26%,2.79%,12.13%,Eastern Standard Time,83,30,53,63,15,58%,54%,35,57,84,49%,60%,42%,39.59,12.2,7.12,43.81%,42.64%,48.67%,86.2,49,8.2,23.6,74,303,3,16.46,VT-66175,44.4714119,-73.2747455
South Hero,Vermont,166,154,Burlington-South Burlington,224524,$86125,39.53%,34,N/A,N/A,N/A,44,66.67%,N/A,53.85%,N/A,N/A,0.0%,0.0%,67.83%,Grand Isle County,51.00%,36.20%,0.0%,27.11%,57.83%,15.06%,2.41%,Eastern Standard Time,83,29,54,63,13,58%,54%,35,57,84,49%,60%,42%,36.54,12.05,6.22,36.74%,40.22%,36.33%,48.8,30,8.2,23.6,84,102,3.1,1.08,VT-66925,44.6478584,-73.3017161
South Royalton,Vermont,375,338,Claremont-Lebanon,N/A,N/A,34.46%,53,N/A,N/A,N/A,80,23.81%,$1163,82.91%,N/A,N/A,26.98%,0.0%,44.73%,Windsor County,58.70%,28.80%,0.0%,10.67%,85.07%,4.27%,6.13%,N/A,82,31,51,58,9,58%,54%,35,57,83,49%,60%,42%,46.7,13.98,10.04,40.99%,46.59%,37.67%,84.9,34,8.2,23.6,86,1449,3.3,1.11,VT-68050,43.8122257,-72.5154039
South Shaftsbury,Vermont,566,253,Bennington,37235,$61488,24.43%,54,N/A,N/A,N/A,N/A,78.43%,N/A,38.97%,N/A,N/A,0.0%,0.0%,71.11%,Bennington County,54.90%,34.10%,0.0%,0.0%,96.47%,0.0%,0.0%,N/A,82,33,49,58,15,57%,55%,37,58,83,50%,58%,45%,39.98,13.3,7.55,41.04%,45.16%,40.44%,54.0,29,7.9,22.7,90,756,3.4,2.24,VT-68200,42.9411128,-73.2019714
Springfield,Vermont,4101,1228,Claremont-Lebanon,N/A,$43497,25.38%,46,$137000,938,$146,66,59.66%,$878,62.99%,180,2087,21.27%,6.33%,54.15%,Windsor County,58.70%,28.80%,1.73%,0.34%,94.68%,0.0%,3.1%,N/A,84,31,53,58,11,53%,51%,35,57,85,55%,62%,53%,44.81,12.86,9.84,33.51%,36.48%,31.89%,68.9,27,6.0,17.7,80,513,3.3,3.34,VT-69475,43.2952667,-72.4803737
St. Albans,Vermont,6847,3493,Burlington-South Burlington,224524,N/A,N/A,N/A,$280000,1931,$145,N/A,N/A,N/A,N/A,575,6359,N/A,N/A,N/A,Franklin County,43.70%,40.90%,N/A,N/A,N/A,N/A,N/A,Eastern Standard Time,83,29,54,63,13,58%,54%,35,57,84,49%,60%,42%,36.54,12.05,6.22,36.74%,40.22%,36.33%,48.8,30,8.2,23.6,68,102,2.9,1.96,VT-61750,44.8107484,-73.1452946
St. Albans town,Vermont,6348,3239,Burlington-South Burlington,224524,N/A,N/A,N/A,$280000,1931,$145,N/A,N/A,N/A,N/A,575,6359,N/A,N/A,N/A,Franklin County,43.70%,40.90%,N/A,N/A,N/A,N/A,N/A,Eastern Standard Time,83,29,54,63,13,58%,54%,35,57,84,49%,60%,42%,36.54,12.05,6.22,36.74%,40.22%,36.33%,48.8,30,8.2,23.6,85,102,2.9,1.96,VT-61750,44.8107484,-73.1452946
St. George,Vermont,366,407,Burlington-South Burlington,224524,$77083,28.26%,50,N/A,N/A,N/A,47,85.29%,$1050,51.44%,N/A,N/A,4.92%,2.63%,75.0%,Chittenden County,65.70%,22.30%,0.0%,0.27%,94.26%,0.82%,4.92%,Eastern Standard Time,83,30,53,63,15,58%,54%,35,57,84,49%,60%,42%,39.59,12.2,7.12,43.81%,42.64%,48.67%,86.2,49,8.2,23.6,88,303,3,0.9,VT-62046,44.376968,-73.1300836
Stamford,Vermont,507,95,Bennington,37235,$69000,32.98%,56,$435000,2112,$206,50,92.26%,$858,38.81%,N/A,N/A,8.28%,5.13%,55.71%,Bennington County,54.90%,34.10%,3.35%,0.0%,93.29%,1.78%,3.94%,N/A,82,33,49,59,16,57%,55%,37,58,83,50%,58%,45%,41.08,13.5,7.58,40.66%,45.71%,39.0%,73.1,47,7.9,22.7,92,597,3.4,5.36,VT-69700,42.7594883,-73.056242
Stockbridge,Vermont,684,15,Claremont-Lebanon,N/A,N/A,N/A,N/A,N/A,N/A,N/A,N/A,N/A,N/A,N/A,N/A,N/A,N/A,N/A,N/A,Windsor County,58.70%,28.80%,N/A,N/A,N/A,N/A,N/A,N/A,80,30,50,56,10,58%,54%,35,57,81,49%,60%,42%,47.6,14.29,10.48,41.32%,44.18%,43.11%,84.9,34,8.2,23.6,89,759,3.3,45.6,VT-70375,43.7563191,-72.7440833
Strafford,Vermont,1122,25,Claremont-Lebanon,N/A,N/A,N/A,N/A,N/A,N/A,N/A,N/A,N/A,N/A,N/A,N/A,N/A,N/A,N/A,N/A,Orange County,51.50%,34.20%,N/A,N/A,N/A,N/A,N/A,N/A,83,29,54,58,8,53%,51%,35,57,84,55%,62%,53%,43.52,13.74,8.85,40.99%,46.59%,37.67%,74.3,35,6.0,17.7,88,420,3.1,44.88,VT-70675,43.8694256,-72.3666009
Sudbury,Vermont,614,29,Rutland,60662,N/A,N/A,N/A,N/A,N/A,N/A,N/A,N/A,N/A,N/A,N/A,N/A,N/A,N/A,N/A,Rutland County,46.00%,42.10%,N/A,N/A,N/A,N/A,N/A,N/A,81,28,53,60,11,58%,54%,37,58,82,49%,60%,42%,41.1,13.21,8.04,41.32%,44.18%,43.11%,84.9,34,8.2,23.6,88,315,2.9,21.17,VT-71050,43.7911495,-73.1799631
Sunderland,Vermont,898,20,Bennington,37235,N/A,N/A,N/A,N/A,N/A,N/A,N/A,N/A,N/A,N/A,N/A,N/A,N/A,N/A,N/A,Bennington County,54.90%,34.10%,N/A,N/A,N/A,N/A,N/A,N/A,82,33,49,58,15,57%,55%,37,58,83,50%,58%,45%,39.98,13.3,7.55,41.04%,45.16%,40.44%,73.4,33,7.9,22.7,92,756,3.4,44.9,VT-71425,43.0710229,-73.0687882
Swanton,Vermont,2356,3100,Burlington-South Burlington,224524,$64091,12.34%,40,$249000,1491,$167,N/A,79.99%,$865,51.68%,121,838,11.72%,7.91%,61.46%,Franklin County,43.70%,40.90%,4.12%,1.27%,89.05%,1.1%,5.09%,Eastern Standard Time,82,28,54,56,5,58%,54%,35,57,83,49%,60%,42%,42.23,12.67,8.08,36.74%,40.22%,36.33%,48.8,30,8.2,23.6,87,390,2.9,0.76,VT-71650,44.9213296,-73.1200587
Swanton village,Vermont,2356,3100,Burlington-South Burlington,224524,$64091,12.34%,40,$249000,1491,$167,N/A,79.99%,$865,51.68%,121,838,11.72%,7.91%,61.46%,Franklin County,43.70%,40.90%,4.12%,1.27%,89.05%,1.1%,5.09%,Eastern Standard Time,82,28,54,56,5,58%,54%,35,57,83,49%,60%,42%,42.23,12.67,8.08,36.74%,40.22%,36.33%,48.8,30,8.2,23.6,87,390,2.9,0.76,VT-71650,44.9213296,-73.1200587
Thetford,Vermont,2564,59,Claremont-Lebanon,N/A,N/A,N/A,N/A,N/A,N/A,N/A,N/A,N/A,N/A,N/A,0,195,N/A,N/A,N/A,Orange County,51.50%,34.20%,N/A,N/A,N/A,N/A,N/A,N/A,83,29,54,58,8,53%,51%,35,57,84,55%,62%,53%,43.52,13.74,8.85,40.99%,46.59%,37.67%,74.3,35,6.0,17.7,85,420,3.1,43.46,VT-72400,43.8355644,-72.248525
Tinmouth,Vermont,601,21,Rutland,60662,N/A,N/A,N/A,N/A,N/A,N/A,N/A,N/A,N/A,N/A,N/A,N/A,N/A,N/A,N/A,Rutland County,46.00%,42.10%,N/A,N/A,N/A,N/A,N/A,N/A,81,30,51,57,10,57%,55%,37,58,82,50%,58%,45%,44.71,14.72,8.98,40.0%,40.44%,43.0%,73.4,33,7.9,22.7,91,621,2.9,28.62,VT-72925,43.4447488,-73.0576707
Topsham,Vermont,1063,22,Claremont-Lebanon,N/A,N/A,N/A,N/A,N/A,N/A,N/A,N/A,N/A,N/A,N/A,N/A,N/A,N/A,N/A,N/A,Orange County,51.50%,34.20%,N/A,N/A,N/A,N/A,N/A,N/A,77,27,50,56,7,58%,54%,35,57,77,49%,60%,42%,45.97,13.98,9.99,45.53%,46.92%,47.22%,88.5,57,8.2,23.6,90,1080,3.1,48.32,VT-73075,44.1337548,-72.2497976
Tunbridge,Vermont,1172,26,Claremont-Lebanon,N/A,N/A,N/A,N/A,N/A,N/A,N/A,N/A,N/A,N/A,N/A,N/A,N/A,N/A,N/A,N/A,Orange County,51.50%,34.20%,N/A,N/A,N/A,N/A,N/A,N/A,77,27,50,56,7,58%,54%,35,57,77,49%,60%,42%,45.97,13.98,9.99,40.99%,46.59%,37.67%,84.9,34,8.2,23.6,88,1080,3.1,45.08,VT-73675,43.9019181,-72.4851255
Underhill,Vermont,3053,59,Burlington-South Burlington,224524,N/A,N/A,N/A,N/A,N/A,N/A,N/A,N/A,N/A,N/A,N/A,N/A,N/A,N/A,N/A,Chittenden County,65.70%,22.30%,N/A,N/A,N/A,N/A,N/A,Eastern Standard Time,70,22,48,56,7,58%,54%,35,57,69,49%,60%,42%,72.93,20.43,16.29,52.96%,50.99%,60.78%,86.2,49,8.2,23.6,91,3612,3,51.75,VT-73975,44.5382539,-72.8861212
Vergennes,Vermont,2573,1046,None,N/A,$65750,32.18%,46,N/A,N/A,N/A,51,64.35%,$959,56.58%,78,1452,10.34%,1.48%,70.54%,Addison County,59.00%,27.80%,0.0%,0.78%,94.75%,2.1%,2.88%,N/A,83,30,53,61,12,58%,54%,35,57,84,49%,60%,42%,41.1,13.21,8.04,39.84%,43.63%,38.56%,65.8,25,8.2,23.6,72,180,2.9,2.46,VT-74650,44.1663888,-73.2556473
Vershire,Vermont,720,20,Claremont-Lebanon,N/A,N/A,N/A,N/A,N/A,N/A,N/A,N/A,N/A,N/A,N/A,N/A,N/A,N/A,N/A,N/A,Orange County,51.50%,34.20%,N/A,N/A,N/A,N/A,N/A,N/A,77,27,50,56,7,58%,54%,35,57,77,49%,60%,42%,45.97,13.98,9.99,43.1%,50.0%,39.0%,74.3,35,8.2,23.6,88,1080,3.1,36.0,VT-74950,43.9562337,-72.3243742
Victory,Vermont,72,2,Berlin,N/A,N/A,N/A,N/A,N/A,N/A,N/A,N/A,N/A,N/A,N/A,N/A,N/A,N/A,N/A,N/A,Essex County,34.80%,51.50%,N/A,N/A,N/A,N/A,N/A,N/A,79,25,54,52,1,58%,54%,35,57,80,49%,60%,42%,47.41,14.32,9.89,54.49%,50.44%,67.0%,141.7,84,8.2,23.6,91,1347,3,36.0,VT-75175,44.5466218,-71.8196909
Waitsfield,Vermont,240,375,Barre,59609,$32604,56.07%,62,N/A,N/A,N/A,57,44.96%,$775,68.81%,N/A,N/A,13.75%,0.0%,60.55%,Washington County,59.80%,25.70%,0.0%,0.0%,87.92%,12.08%,1.67%,N/A,78,29,49,57,12,58%,54%,35,57,78,49%,60%,42%,53.79,16.61,13.05,51.92%,49.89%,60.78%,118.2,69,8.2,23.6,92,1044,2.9,0.64,VT-75250,44.187527,-72.82901
Wallingford,Vermont,926,558,Rutland,60662,$82589,23.31%,45,$118000,1513,$78,N/A,71.43%,$857,40.8%,N/A,N/A,4.0%,1.53%,70.35%,Rutland County,46.00%,42.10%,2.81%,0.0%,92.98%,4.1%,6.37%,N/A,81,30,51,57,10,57%,55%,37,58,82,50%,58%,45%,44.71,14.72,8.98,40.0%,40.44%,43.0%,73.4,33,7.9,22.7,92,621,2.9,1.66,VT-75850,43.4748359,-72.9675154
Warren,Vermont,1716,43,Barre,59609,N/A,N/A,N/A,N/A,N/A,N/A,N/A,N/A,N/A,N/A,N/A,N/A,N/A,N/A,N/A,Washington County,59.80%,25.70%,N/A,N/A,N/A,N/A,N/A,N/A,78,29,49,57,12,58%,54%,35,57,78,49%,60%,42%,53.79,16.61,13.05,45.53%,46.92%,47.22%,118.2,69,8.2,23.6,92,1506,2.9,39.91,VT-76525,44.1110811,-72.8607795
Washington,Vermont,1147,30,Claremont-Lebanon,N/A,N/A,N/A,N/A,N/A,N/A,N/A,N/A,N/A,N/A,N/A,N/A,N/A,N/A,N/A,N/A,Orange County,51.50%,34.20%,N/A,N/A,N/A,N/A,N/A,N/A,77,27,50,56,7,58%,54%,35,57,77,49%,60%,42%,45.97,13.98,9.99,45.53%,46.92%,47.22%,118.2,69,8.2,23.6,91,1080,3.1,38.23,VT-76750,44.0711299,-72.422042
Waterbury,Vermont,1796,1392,Barre,59609,$70688,54.09%,34,$275000,1050,$262,45,34.22%,$1184,55.13%,N/A,N/A,17.61%,2.3%,68.23%,Washington County,59.80%,25.70%,2.67%,0.0%,91.98%,0.84%,1.45%,N/A,78,27,51,58,10,58%,54%,35,57,78,49%,60%,42%,52.88,15.87,11.38,51.92%,49.89%,60.78%,118.2,69,8.2,23.6,87,420,2.9,1.29,VT-76900,44.3406409,-72.751281
Waterbury village,Vermont,1796,1392,Barre,59609,$70688,54.09%,34,$275000,1050,$262,45,34.22%,$1184,55.13%,N/A,N/A,17.61%,2.3%,68.23%,Washington County,59.80%,25.70%,2.67%,0.0%,91.98%,0.84%,1.45%,N/A,78,27,51,58,10,58%,54%,35,57,78,49%,60%,42%,52.88,15.87,11.38,51.92%,49.89%,60.78%,118.2,69,8.2,23.6,87,420,2.9,1.29,VT-76900,44.3406409,-72.751281
Weathersfield,Vermont,2767,63,Claremont-Lebanon,N/A,N/A,N/A,N/A,N/A,N/A,N/A,N/A,N/A,N/A,N/A,145,546,N/A,N/A,N/A,Windsor County,58.70%,28.80%,N/A,N/A,N/A,N/A,N/A,N/A,84,31,53,58,11,53%,51%,35,57,85,55%,62%,53%,44.81,12.86,9.84,33.51%,36.48%,31.89%,68.9,27,6.0,17.7,84,513,3.3,43.92,VT-77500,43.3883507,-72.4715332
Websterville,Vermont,272,137,Barre,59609,$65398,28.09%,57,$260000,4000,$65,N/A,97.89%,N/A,84.26%,N/A,N/A,0.0%,0.0%,69.36%,Washington County,59.80%,25.70%,0.0%,0.0%,89.71%,2.94%,11.03%,N/A,79,27,52,57,9,58%,54%,35,57,80,49%,60%,42%,42.14,14.03,7.66,45.53%,46.92%,47.22%,118.2,69,8.2,23.6,84,1029,2.9,1.99,VT-77800,44.1618639,-72.4733162
Wells,Vermont,451,571,Rutland,60662,$79625,18.6%,29,N/A,N/A,N/A,48,67.41%,$936,53.56%,N/A,N/A,10.86%,0.0%,67.34%,Rutland County,46.00%,42.10%,1.33%,0.0%,86.7%,0.0%,1.33%,N/A,84,31,53,63,13,57%,55%,37,58,86,50%,58%,45%,44.92,14.29,9.25,40.0%,40.44%,43.0%,73.4,33,7.9,22.7,88,108,2.9,0.79,VT-77875,43.420832,-73.2075484
Wells River,Vermont,372,197,Claremont-Lebanon,N/A,$35417,14.06%,42,$613000,2254,$272,N/A,56.72%,$856,63.78%,N/A,N/A,24.19%,7.91%,48.1%,Orange County,51.50%,34.20%,1.08%,0.0%,74.73%,5.11%,6.45%,N/A,77,27,50,56,7,58%,54%,35,57,77,49%,60%,42%,45.97,13.98,9.99,46.93%,45.93%,53.33%,88.5,57,8.2,23.6,86,1080,3.1,1.89,VT-78025,44.1537207,-72.0615879
West Brattleboro,Vermont,2770,1689,None,N/A,$36618,31.95%,45,N/A,N/A,N/A,44,61.98%,$795,65.85%,N/A,N/A,19.42%,3.15%,70.62%,Windham County,63.40%,24.10%,3.0%,0.4%,87.69%,3.97%,1.91%,N/A,82,32,50,59,14,57%,57%,35,56,84,55%,62%,53%,51.13,14.77,12.0,36.96%,37.8%,37.56%,59.9,29,6.0,22.8,78,363,3.5,1.64,VT-78850,42.8558832,-72.6017523
West Burke,Vermont,195,415,None,N/A,$23750,17.81%,45,N/A,N/A,N/A,N/A,60.08%,N/A,64.67%,N/A,N/A,34.02%,8.51%,56.97%,Caledonia County,45.80%,39.30%,0.0%,0.0%,95.38%,3.59%,0.0%,N/A,77,24,53,57,6,58%,54%,35,57,77,49%,60%,42%,49.59,15.11,10.54,54.49%,50.44%,67.0%,141.7,84,8.2,23.6,91,1371,3.1,0.47,VT-79150,44.6431642,-71.9790865
West Fairlee,Vermont,709,31,Claremont-Lebanon,N/A,N/A,N/A,N/A,N/A,N/A,N/A,N/A,N/A,N/A,N/A,N/A,N/A,N/A,N/A,N/A,Orange County,51.50%,34.20%,N/A,N/A,N/A,N/A,N/A,N/A,77,27,50,56,7,53%,51%,35,57,77,55%,62%,53%,45.97,13.98,9.99,43.1%,50.0%,39.0%,74.3,35,6.0,17.7,86,1080,3.1,22.87,VT-79975,43.9395169,-72.2269471
West Haven,Vermont,313,11,Rutland,60662,N/A,N/A,N/A,N/A,N/A,N/A,N/A,N/A,N/A,N/A,N/A,N/A,N/A,N/A,N/A,Rutland County,46.00%,42.10%,N/A,N/A,N/A,N/A,N/A,N/A,84,31,53,63,13,58%,54%,37,58,86,49%,60%,42%,44.92,14.29,9.25,40.0%,40.44%,43.0%,73.4,33,8.2,23.6,88,108,2.9,28.45,VT-80875,43.6348749,-73.3687072
West Rutland,Vermont,2138,581,Rutland,60662,$49884,28.45%,47,N/A,N/A,N/A,N/A,82.38%,$876,53.2%,N/A,N/A,6.13%,3.02%,61.59%,Rutland County,46.00%,42.10%,0.0%,0.0%,92.19%,6.13%,4.21%,N/A,81,30,51,57,10,58%,54%,37,58,82,49%,60%,42%,44.71,14.72,8.98,40.0%,40.44%,43.0%,73.4,33,8.2,23.6,88,621,2.9,3.68,VT-82375,43.5971916,-73.0450722
West Windsor,Vermont,1106,45,Claremont-Lebanon,N/A,N/A,N/A,N/A,N/A,N/A,N/A,N/A,N/A,N/A,N/A,N/A,N/A,N/A,N/A,N/A,Windsor County,58.70%,28.80%,N/A,N/A,N/A,N/A,N/A,N/A,83,31,52,59,12,53%,51%,35,57,84,55%,62%,53%,41.18,11.99,8.8,40.44%,49.23%,37.11%,68.9,27,6.0,17.7,91,528,3.3,24.58,VT-83050,43.4846729,-72.4917885
Westford,Vermont,165,147,Burlington-South Burlington,224524,$104250,51.91%,47,N/A,N/A,N/A,N/A,96.58%,N/A,28.29%,N/A,N/A,0.0%,6.02%,63.82%,Chittenden County,65.70%,22.30%,0.0%,0.0%,92.12%,0.0%,0.0%,Eastern Standard Time,70,22,48,56,7,58%,54%,35,57,69,49%,60%,42%,50.16,14.98,9.53,52.96%,50.99%,60.78%,86.2,49,8.2,23.6,91,855,3,1.12,VT-80275,44.6079279,-73.0112841
Westminster village,Vermont,445,327,None,N/A,$89250,45.45%,43,N/A,N/A,N/A,N/A,87.12%,$875,41.24%,N/A,N/A,0.45%,0.51%,55.84%,Windham County,63.40%,24.10%,0.0%,0.0%,93.03%,2.02%,1.35%,N/A,82,32,50,59,14,53%,51%,35,57,83,55%,62%,53%,48.23,15.14,10.76,36.96%,37.8%,37.56%,59.9,29,6.0,17.7,81,552,3.5,1.36,VT-81325,43.0738945,-72.4550685
Weston,Vermont,48,267,Claremont-Lebanon,N/A,$61563,75.0%,76,N/A,N/A,N/A,N/A,81.82%,N/A,56.25%,N/A,N/A,10.42%,0.0%,55.56%,Windsor County,58.70%,28.80%,0.0%,0.0%,100.0%,0.0%,0.0%,N/A,76,28,48,58,9,53%,51%,35,57,76,55%,62%,53%,52.16,14.75,12.4,40.44%,49.23%,37.11%,73.4,33,6.0,17.7,89,1554,3.3,0.18,VT-81925,43.2904973,-72.7923348
White River Junction,Vermont,2776,1186,Claremont-Lebanon,N/A,$56906,31.27%,38,$316000,2488,$127,77,61.06%,$1024,57.87%,N/A,N/A,10.88%,3.21%,64.53%,Windsor County,58.70%,28.80%,5.55%,0.22%,90.74%,0.22%,6.02%,N/A,84,32,52,59,11,53%,51%,35,57,85,55%,62%,53%,40.34,13.18,7.66,40.99%,46.59%,37.67%,68.9,27,6.0,17.7,54,546,3.3,2.34,VT-83575,43.6498784,-72.3289684
Wilder,Vermont,3375,1318,Claremont-Lebanon,N/A,$64353,57.22%,45,$395000,1586,$249,39,72.29%,$1286,58.26%,N/A,N/A,4.16%,4.77%,62.61%,Windsor County,58.70%,28.80%,2.76%,2.61%,92.0%,1.87%,11.94%,N/A,84,32,52,61,14,53%,51%,35,57,85,55%,62%,53%,44.35,13.73,9.25,40.99%,46.59%,37.67%,68.9,27,6.0,17.7,54,534,3.3,2.56,VT-84025,43.6802229,-72.316591
Williamstown,Vermont,1504,448,Claremont-Lebanon,N/A,$67308,12.59%,38,N/A,N/A,N/A,43,93.7%,$1343,54.68%,N/A,N/A,7.37%,1.39%,75.37%,Orange County,51.50%,34.20%,0.0%,0.0%,91.95%,0.0%,1.33%,N/A,79,27,52,57,9,58%,54%,35,57,80,49%,60%,42%,42.14,14.03,7.66,45.53%,46.92%,47.22%,118.2,69,8.2,23.6,86,1029,3.1,3.36,VT-84100,44.1218062,-72.542609
Williston,Vermont,9341,311,Burlington-South Burlington,224524,N/A,N/A,N/A,N/A,N/A,N/A,N/A,N/A,N/A,N/A,71,1973,N/A,N/A,N/A,Chittenden County,65.70%,22.30%,N/A,N/A,N/A,N/A,N/A,Eastern Standard Time,83,30,53,63,15,58%,54%,35,57,84,49%,60%,42%,39.59,12.2,7.12,43.81%,42.64%,48.67%,86.2,49,8.2,23.6,84,303,3,30.04,VT-84475,44.4345501,-73.0888108
Windsor,Vermont,2145,1744,Claremont-Lebanon,N/A,$37283,25.02%,37,N/A,N/A,N/A,N/A,47.23%,$894,65.25%,236,1006,6.22%,5.33%,63.5%,Windsor County,58.70%,28.80%,0.0%,0.0%,94.17%,1.26%,1.59%,N/A,81,29,52,58,10,53%,51%,35,57,82,55%,62%,53%,40.34,13.18,7.66,40.99%,46.59%,37.67%,68.9,27,6.0,17.7,82,522,3.3,1.23,VT-85000,43.4798138,-72.3935302
Winhall,Vermont,589,14,Bennington,37235,N/A,N/A,N/A,N/A,N/A,N/A,N/A,N/A,N/A,N/A,136,1232,N/A,N/A,N/A,Bennington County,54.90%,34.10%,N/A,N/A,N/A,N/A,N/A,N/A,76,28,48,58,9,57%,55%,37,58,76,50%,58%,45%,52.16,14.75,12.4,40.44%,49.23%,37.11%,73.4,33,7.9,22.7,93,1554,3.4,42.07,VT-85075,43.1621722,-72.9349239
Winooski,Vermont,8015,5725,Burlington-South Burlington,224524,$61033,52.09%,32,$578000,1823,$317,63,38.63%,$1372,63.8%,387,1672,20.61%,3.1%,72.99%,Chittenden County,65.70%,22.30%,12.89%,3.23%,79.66%,2.62%,14.21%,Eastern Standard Time,83,30,53,63,15,58%,54%,35,57,84,49%,60%,42%,39.59,12.2,7.12,43.81%,42.64%,48.67%,86.2,49,8.2,23.6,62,303,3,1.4,VT-85150,44.4948469,-73.1846022
Woodbury,Vermont,878,23,Barre,59609,N/A,N/A,N/A,N/A,N/A,N/A,N/A,N/A,N/A,N/A,N/A,N/A,N/A,N/A,N/A,Washington County,59.80%,25.70%,N/A,N/A,N/A,N/A,N/A,N/A,78,27,51,58,10,58%,54%,35,57,78,49%,60%,42%,48.78,15.24,10.68,48.82%,46.37%,56.0%,118.2,69,8.2,23.6,89,1245,2.9,38.17,VT-85525,44.4445609,-72.4068514
Woodford,Vermont,318,7,Bennington,37235,N/A,N/A,N/A,N/A,N/A,N/A,N/A,N/A,N/A,N/A,N/A,N/A,N/A,N/A,N/A,Bennington County,54.90%,34.10%,N/A,N/A,N/A,N/A,N/A,N/A,82,33,49,58,15,57%,55%,37,58,83,50%,58%,45%,39.98,13.3,7.55,41.04%,45.16%,40.44%,73.1,47,7.9,22.7,92,756,3.4,45.43,VT-85675,42.8827929,-73.0799628
Woodstock,Vermont,1111,942,Claremont-Lebanon,N/A,$96161,68.19%,49,$703000,1220,$576,N/A,71.09%,$1104,53.56%,102,788,3.7%,0.72%,62.37%,Windsor County,58.70%,28.80%,0.0%,1.08%,94.51%,3.51%,6.48%,N/A,82,31,51,58,9,53%,51%,35,57,83,55%,62%,53%,45.66,13.76,9.84,40.99%,46.59%,37.67%,84.9,34,6.0,17.7,90,549,3.3,1.18,VT-85900,43.6238774,-72.5163776
Woodstock village,Vermont,1111,942,Claremont-Lebanon,N/A,$96161,68.19%,49,$703000,1220,$576,N/A,71.09%,$1104,53.56%,102,788,3.7%,0.72%,62.37%,Windsor County,58.70%,28.80%,0.0%,1.08%,94.51%,3.51%,6.48%,N/A,82,31,51,58,9,53%,51%,35,57,83,55%,62%,53%,45.66,13.76,9.84,40.99%,46.59%,37.67%,84.9,34,6.0,17.7,90,549,3.3,1.18,VT-85900,43.6238774,-72.5163776
Worcester,Vermont,104,867,Barre,59609,$67625,41.54%,34,N/A,N/A,N/A,72,24.53%,$930,54.02%,N/A,N/A,0.0%,37.93%,66.67%,Washington County,59.80%,25.70%,0.0%,0.0%,100.0%,0.0%,3.85%,N/A,78,27,51,58,10,58%,54%,35,57,78,49%,60%,42%,48.78,15.24,10.68,48.82%,46.37%,56.0%,118.2,69,8.2,23.6,89,1245,2.9,0.12,VT-86050,44.3723929,-72.5489257
