City,State,Population,People per sq mi,Metro Name,Metro population,Median household income,% with at least Bachelor's degree,Median age,Median home price,Median home sqft,Median home cost per sqft,Median home age,Homeownership Rate,Avg Apartment Monthly Rent,Single Population,Num Violent Crimes Per 100k residents,Num Property Crimes Per 100k residents,Poverty Rate,Unemployment rate,Labor Force Participation rate,County,% Democrat,% Republican,% Asian,% Black,% Non-Hispanic White,% Hispanic,Foreign Born %,Timezone,Hottest month's avg high (F),Coldest month's avg high (F),Hottest high minus coldest high,Annual rainfall (in),Annual days of precipitation,Annual days of sunshine,Annual snowfall (in),Avg Summer Dew Point,Avg Annual Dew Point,Average yearly windspeed (mph),Air quality Index,Elevation (ft),UV Index,Land Area (sq mi),Fips Code,Latitude,Longitude,Annual Sunshine - Percentage of Possible,Summer Sunshine - Percentage of Possible,Winter Sunshine - Percentage of Possible
Albany village,Vermont,176,114,None,N/A,$64000,9.82%,41,N/A,N/A,N/A,78,92.05%,N/A,20.16%,N/A,N/A,2.27%,0.0%,53.23%,Orleans County,43.00%,42.80%,0.0%,0.0%,84.66%,13.07%,0.0%,N/A,78,23,55,44,180,163,102,N/A,N/A,N/A,92,N/A,3,1.54,VT-00400,44.7301426,-72.3809891,49%,60%,42%
Alburgh,Vermont,1648,2575,Burlington-South Burlington,221160,$55733,19.72%,N/A,$329000,1828,$180,40,40.80%,N/A,N/A,N/A,N/A,10.8%,2.20%,N/A,Grand Isle County,51.00%,36.20%,0.7%,0.8%,96.5%,0.7%,0%,Eastern Standard Time,80,27,53,35,134,159,63,55.2,34.5,N/A,84,200,3.1,0.64,VT-00625,44.9767282,-73.3025697,49%,60%,42%
Alburgh village,Vermont,545,852,Burlington-South Burlington,221160,$42125,N/A,N/A,$329000,1828,$180,39,42.90%,N/A,N/A,N/A,N/A,N/A,2.20%,N/A,Grand Isle County,51.00%,36.20%,0.0%,2.4%,93.0%,2.2%,N/A,Eastern Standard Time,80,27,53,35,134,159,63,N/A,N/A,N/A,84,200,3.1,0.64,VT-00625,44.9767282,-73.3025697,49%,60%,42%
Andover,Vermont,534,19,Claremont-Lebanon,217783,$46304,40.81%,N/A,N/A,N/A,N/A,37,38.70%,N/A,41.40%,N/A,N/A,N/A,2.00%,N/A,Windsor County,58.70%,28.80%,1.1%,0.0%,98.5%,0.4%,N/A,N/A,81,29,52,46,140,179,72,N/A,N/A,6,89,N/A,3.3,28.11,VT-01300,43.2863686,-72.7228999,55%,62%,53%
Arlington,Vermont,1483,386,Bennington,35338,$62564,30.35%,36,$335000,1948,$172,67,80.45%,$982,45.91%,N/A,N/A,7.22%,7.09%,67.0%,Bennington County,54.90%,34.10%,3.78%,0.0%,88.13%,6.27%,7.28%,N/A,80,30,50,46,140,180,65,N/A,N/A,7,91,N/A,3.4,3.84,VT-01375,43.0685084,-73.1467799,50%,58%,45%
Ascutney,Vermont,380,225,Claremont-Lebanon,217783,$53056,15.73%,58,$175000,2397,$73,54,97.89%,N/A,61.49%,N/A,N/A,15.58%,10.37%,45.0%,Windsor County,58.70%,28.80%,0.0%,0.0%,100.0%,0.0%,0.0%,N/A,81,29,52,44,138,179,76,55.3,35.2,6,84,N/A,3.3,1.69,VT-01750,43.4080052,-72.4068432,55%,62%,53%
Bakersfield,Vermont,431,414,Burlington-South Burlington,221160,$65104,34.64%,52,N/A,N/A,N/A,73,94.66%,N/A,44.02%,N/A,N/A,0.0%,0.0%,55.98%,Franklin County,43.70%,40.90%,0.0%,0.0%,85.61%,9.05%,1.62%,Eastern Standard Time,80,27,53,44,150,159,88,N/A,N/A,6,90,200,2.9,1.04,VT-02425,44.7820218,-72.8032772,49%,60%,42%
Baltimore,Vermont,282,61,Claremont-Lebanon,217783,$75625,15.76%,N/A,N/A,N/A,N/A,42,85.70%,N/A,41.80%,N/A,N/A,N/A,2.00%,N/A,Windsor County,58.70%,28.80%,0.0%,0.0%,99.3%,0.4%,N/A,N/A,82,29,53,45,137,179,68,N/A,N/A,6,90,N/A,3.3,4.62,VT-02575,43.3596264,-72.5659379,55%,62%,53%
Barnard,Vermont,760,16,Claremont-Lebanon,217783,$59476,41.63%,N/A,N/A,N/A,N/A,35,44.40%,N/A,34.10%,N/A,N/A,N/A,2.00%,N/A,Windsor County,58.70%,28.80%,0.7%,0.0%,97.9%,0.7%,N/A,N/A,80,28,52,45,138,179,82,N/A,N/A,6,89,N/A,3.3,47.5,VT-02725,43.7294189,-72.6246918,49%,60%,42%
Barre,Vermont,8778,2200,Barre,58328,$40679,23.66%,N/A,$240000,1538,$156,71,43.10%,N/A,65.40%,103,571,21.3%,2.00%,N/A,Washington County,59.80%,25.70%,0.5%,1.1%,94.2%,2.5%,2.3%,N/A,81,27,54,42,144,156,89,54.4,34,6,66,N/A,2.9,3.99,VT-03250,44.1858459,-72.4818107,49%,60%,42%
Barre town,Vermont,7787,1952,Barre,58328,$64800,N/A,N/A,$240000,1538,$156,48,76.80%,N/A,41.70%,103,571,N/A,2.00%,N/A,Washington County,59.80%,25.70%,0.4%,1.0%,95.3%,1.5%,N/A,N/A,81,27,54,42,144,159,92,N/A,N/A,N/A,83,N/A,2.9,3.99,VT-03250,44.1858459,-72.4818107,49%,60%,42%
Barton village,Vermont,594,526,None,N/A,$30170,10.46%,53,N/A,N/A,N/A,59,52.97%,$700,64.63%,N/A,N/A,25.82%,10.86%,51.35%,Orleans County,43.00%,42.80%,0.0%,8.08%,90.4%,0.84%,9.93%,N/A,79,24,55,43,180,162,102,N/A,N/A,N/A,78,N/A,3,1.13,VT-03475,44.7481194,-72.1785014,49%,60%,42%
Beecher Falls,Vermont,174,137,Berlin,31174,$38333,5.66%,58,N/A,N/A,N/A,75,82.76%,N/A,39.62%,N/A,N/A,18.97%,6.74%,55.97%,Essex County,34.80%,51.50%,0.0%,0.0%,95.4%,0.0%,14.94%,N/A,76,23,53,42,158,176,104,52.7,32.4,6,94,N/A,3,1.27,VT-04150,45.0090817,-71.4936347,49%,60%,42%
Bellows Falls,Vermont,2908,2123,None,N/A,$42907,21.22%,36,N/A,N/A,N/A,78,47.36%,$868,72.02%,100,1871,20.54%,4.68%,64.6%,Windham County,63.40%,24.10%,0.48%,3.03%,89.55%,1.75%,4.4%,N/A,81,29,52,44,130,194,56,55.4,35.4,N/A,72,N/A,3.5,1.37,VT-04225,43.1343339,-72.4549773,55%,62%,53%
Bennington,Vermont,8539,1768,Bennington,35338,$46460,34.11%,49,$180000,1525,$118,72,65.44%,$866,60.6%,208,2785,13.18%,4.08%,51.46%,Bennington County,54.90%,34.10%,0.55%,0.45%,93.86%,2.04%,1.04%,N/A,79,30,49,44,138,180,65,N/A,N/A,N/A,83,N/A,3.4,4.83,VT-04750,42.8746123,-73.1852188,50%,58%,45%
Benson,Vermont,259,67,Rutland,57764,$36875,9.63%,46,N/A,N/A,N/A,44,80.31%,$763,47.75%,N/A,N/A,13.9%,3.88%,47.69%,Rutland County,46.00%,42.10%,0.0%,0.0%,94.98%,0.0%,0.0%,N/A,83,30,53,41,130,165,66,N/A,N/A,6,88,N/A,2.9,3.87,VT-05125,43.707186,-73.3093978,49%,60%,42%
Berkshire,Vermont,1711,41,Burlington-South Burlington,221160,$54375,13.89%,N/A,N/A,N/A,N/A,42,73.40%,N/A,51.50%,N/A,N/A,N/A,2.30%,N/A,Franklin County,43.70%,40.90%,0.0%,0.0%,94.6%,3.2%,N/A,Eastern Standard Time,80,26,54,40,152,159,83,N/A,N/A,6,90,200,2.9,41.73,VT-05425,44.9698828,-72.7582703,49%,60%,42%
Berlin,Vermont,2832,78,Barre,58328,$57891,22.84%,N/A,N/A,N/A,N/A,40,71.30%,N/A,49.90%,143,4291,N/A,2.00%,N/A,Washington County,59.80%,25.70%,0.2%,0.2%,95.7%,0.8%,N/A,N/A,81,27,54,43,146,159,93,N/A,N/A,6,86,N/A,2.9,36.31,VT-05650,44.209727,-72.6040286,49%,60%,42%
Bethel,Vermont,891,466,Claremont-Lebanon,217783,$51471,8.92%,27,$214000,829,$258,54,60.72%,$779,69.66%,N/A,N/A,13.73%,17.5%,69.18%,Windsor County,58.70%,28.80%,0.34%,1.46%,89.11%,2.24%,0.0%,N/A,80,28,52,44,132,160,78,N/A,N/A,6,90,N/A,3.3,1.91,VT-05725,43.8293735,-72.6353824,49%,60%,42%
Bloomfield,Vermont,228,6,Berlin,31174,$29375,N/A,N/A,N/A,N/A,N/A,40,37.10%,N/A,51.00%,N/A,N/A,N/A,2.90%,N/A,Essex County,34.80%,51.50%,0.0%,0.0%,99.1%,0.0%,N/A,N/A,79,25,54,41,153,176,79,N/A,N/A,6,94,N/A,3,38.0,VT-06325,44.8120124,-71.6445998,49%,60%,42%
Bolton,Vermont,50,714,Burlington-South Burlington,221160,$75568,11.43%,55,N/A,N/A,N/A,40,80.0%,N/A,72.0%,N/A,N/A,0.0%,27.91%,86.0%,Chittenden County,65.70%,22.30%,0.0%,0.0%,100.0%,0.0%,0.0%,Eastern Standard Time,80,27,53,42,153,159,88,N/A,N/A,6,91,200,3,0.07,VT-06475,44.374215,-72.8860101,49%,60%,42%
Bradford,Vermont,925,974,Claremont-Lebanon,217783,$57125,28.21%,37,$442000,2232,$198,44,73.93%,$875,52.41%,0,815,17.02%,6.38%,63.51%,Orange County,51.50%,34.20%,0.43%,0.65%,93.51%,5.19%,2.38%,N/A,78,26,52,40,132,171,69,N/A,N/A,6,83,N/A,3.1,0.95,VT-07225,43.9924743,-72.1250678,55%,62%,53%
Braintree,Vermont,1105,29,Claremont-Lebanon,217783,$43688,24.30%,N/A,N/A,N/A,N/A,42,69.10%,N/A,41.60%,N/A,N/A,N/A,2.10%,N/A,Orange County,51.50%,34.20%,0.0%,0.0%,97.2%,2.8%,N/A,N/A,79,27,52,45,136,171,94,N/A,N/A,6,89,N/A,3.1,38.1,VT-07600,43.9693067,-72.7202174,49%,60%,42%
Brandon,Vermont,1552,548,Rutland,57764,$38265,38.77%,44,N/A,N/A,N/A,51,77.58%,$928,50.92%,238,1088,10.05%,1.05%,63.06%,Rutland County,46.00%,42.10%,4.32%,2.06%,90.79%,0.0%,4.32%,N/A,82,29,53,41,130,165,71,N/A,N/A,6,90,N/A,2.9,2.83,VT-07675,43.8010576,-73.084267,49%,60%,42%
Bridgewater,Vermont,898,18,Claremont-Lebanon,217783,$65000,29.20%,N/A,N/A,N/A,N/A,48,52.70%,N/A,33.60%,N/A,N/A,N/A,2.00%,N/A,Windsor County,58.70%,28.80%,0.0%,0.0%,96.1%,0.6%,N/A,N/A,81,30,51,48,148,178,83,N/A,N/A,6,91,N/A,3.3,49.89,VT-08275,43.6252692,-72.666772,55%,62%,53%
Brighton,Vermont,1103,21,Berlin,31174,$28239,17.51%,N/A,N/A,N/A,N/A,44,33.60%,N/A,52.40%,N/A,N/A,N/A,2.90%,N/A,Essex County,34.80%,51.50%,1.4%,1.0%,95.3%,0.4%,N/A,N/A,78,23,55,43,167,176,99,N/A,N/A,6,93,N/A,3,52.52,VT-08725,44.8026445,-71.8695294,49%,60%,42%
Brookfield,Vermont,1462,36,Claremont-Lebanon,217783,$61042,42.24%,N/A,N/A,N/A,N/A,41,63.40%,N/A,37.30%,N/A,N/A,N/A,2.10%,N/A,Orange County,51.50%,34.20%,0.0%,0.8%,91.4%,1.1%,N/A,N/A,77,26,51,42,147,159,98,N/A,N/A,6,89,N/A,3.1,40.61,VT-09325,44.0286909,-72.5920797,49%,60%,42%
Brunswick,Vermont,77,3,Berlin,31174,$33750,N/A,N/A,N/A,N/A,N/A,33,34.00%,N/A,20.00%,N/A,N/A,N/A,2.90%,N/A,Essex County,34.80%,51.50%,0.0%,0.0%,100.0%,0.0%,N/A,N/A,79,25,54,41,153,176,79,N/A,N/A,5,94,N/A,3,25.67,VT-10075,44.7323225,-71.6619622,49%,60%,42%
Burlington,Vermont,42645,4136,Burlington-South Burlington,221160,$55461,53.97%,27,$494000,1583,$312,63,39.78%,$1279,74.83%,272,1982,24.95%,4.21%,64.45%,Chittenden County,65.70%,22.30%,4.77%,5.14%,82.63%,3.76%,10.66%,Eastern Standard Time,81,28,53,36,149,157,72,55.6,35,6,64,200,3,10.31,VT-10675,44.4876126,-73.2315393,49%,60%,42%
Cabot,Vermont,228,198,Barre,58328,$33500,40.85%,47,N/A,N/A,N/A,38,83.77%,$567,56.67%,N/A,N/A,18.4%,10.81%,66.87%,Washington County,59.80%,25.70%,0.0%,0.0%,100.0%,0.0%,0.0%,N/A,76,25,51,44,151,159,100,N/A,N/A,6,90,N/A,2.9,1.15,VT-11050,44.4048174,-72.3117368,49%,60%,42%
Calais,Vermont,1534,40,Barre,58328,$61333,46.27%,N/A,N/A,N/A,N/A,45,69.10%,N/A,47.50%,N/A,N/A,N/A,2.00%,N/A,Washington County,59.80%,25.70%,0.8%,0.0%,91.8%,2.3%,N/A,N/A,79,26,53,41,151,159,105,N/A,N/A,N/A,89,N/A,2.9,38.35,VT-11350,44.364938,-72.4658497,49%,60%,42%
Cambridge village,Vermont,244,197,None,N/A,$72500,27.33%,32,N/A,N/A,N/A,78,41.49%,$1016,53.03%,N/A,N/A,4.92%,5.52%,91.41%,Lamoille County,56.70%,28.00%,0.0%,0.0%,88.11%,9.02%,0.82%,N/A,80,26,54,39,153,162,84,N/A,N/A,N/A,91,N/A,3.1,1.24,VT-11425,44.6389286,-72.8787618,49%,60%,42%
Canaan,Vermont,341,217,Berlin,31174,$46094,7.17%,54,N/A,N/A,N/A,61,73.31%,$1013,31.49%,N/A,N/A,18.77%,10.61%,59.47%,Essex County,34.80%,51.50%,0.0%,13.49%,86.51%,0.0%,8.5%,N/A,77,24,53,42,158,175,104,N/A,N/A,N/A,94,N/A,3,1.57,VT-11725,45.0045569,-71.5344498,49%,60%,42%
Castleton,Vermont,1141,898,Rutland,57764,$18564,45.5%,21,N/A,N/A,N/A,45,25.0%,$1086,97.37%,0,0,40.38%,3.37%,54.69%,Rutland County,46.00%,42.10%,1.67%,5.26%,89.83%,2.1%,3.68%,N/A,82,30,52,41,130,162,66,N/A,N/A,6,87,N/A,2.9,1.27,VT-11875,43.6054575,-73.1850584,49%,60%,42%
Cavendish,Vermont,184,222,Claremont-Lebanon,217783,$49565,21.01%,41,N/A,N/A,N/A,37,68.48%,$1318,38.96%,N/A,N/A,3.8%,10.26%,75.97%,Windsor County,58.70%,28.80%,0.0%,0.0%,100.0%,0.0%,0.0%,N/A,81,29,52,48,148,199,81,N/A,N/A,6,90,N/A,3.3,0.83,VT-12175,43.3853834,-72.6062919,55%,62%,53%
Charlotte,Vermont,3818,93,Burlington-South Burlington,221160,$111667,69.85%,N/A,N/A,N/A,N/A,36,74.70%,N/A,31.00%,N/A,N/A,N/A,1.80%,N/A,Chittenden County,65.70%,22.30%,0.3%,0.9%,98.0%,0.3%,N/A,Eastern Standard Time,81,28,53,36,155,159,79,N/A,N/A,6,86,200,3,41.05,VT-13300,44.3089404,-73.2359132,49%,60%,42%
Chelsea,Vermont,463,520,Claremont-Lebanon,217783,$38631,21.6%,34,$235000,2304,$102,45,68.53%,$709,51.98%,N/A,N/A,22.14%,8.02%,51.1%,Orange County,51.50%,34.20%,0.0%,0.0%,86.18%,3.89%,0.43%,N/A,76,25,51,43,144,160,99,N/A,N/A,6,88,N/A,3.1,0.89,VT-13450,43.990237,-72.4485435,49%,60%,42%
Chester,Vermont,1023,639,Claremont-Lebanon,217783,$58462,44.6%,55,$287000,1761,$163,44,73.02%,$842,25.09%,99,931,2.93%,0.0%,57.83%,Windsor County,58.70%,28.80%,0.0%,0.0%,100.0%,0.0%,9.68%,N/A,82,29,53,45,137,183,68,N/A,N/A,6,89,N/A,3.3,1.6,VT-13600,43.2650996,-72.592715,55%,62%,53%
Chittenden,Vermont,110,244,Rutland,57764,$104167,30.95%,56,N/A,N/A,N/A,56,89.09%,N/A,42.86%,N/A,N/A,3.64%,0.0%,76.53%,Rutland County,46.00%,42.10%,0.0%,0.0%,100.0%,0.0%,0.0%,N/A,78,28,50,45,145,159,96,N/A,N/A,6,93,N/A,2.9,0.45,VT-14275,43.7038915,-72.9493482,49%,60%,42%
Clarendon,Vermont,2403,77,Rutland,57764,$52645,28.23%,N/A,N/A,N/A,N/A,41,75.90%,N/A,42.50%,N/A,N/A,N/A,2.70%,N/A,Rutland County,46.00%,42.10%,1.3%,1.1%,93.4%,3.5%,N/A,N/A,81,29,52,43,138,165,78,N/A,N/A,6,90,N/A,2.9,31.21,VT-14500,43.5303913,-72.9853379,49%,60%,42%
Colchester,Vermont,17309,476,Burlington-South Burlington,221160,$68440,43.05%,N/A,N/A,N/A,N/A,36,62.50%,N/A,56.70%,92,1132,N/A,1.90%,N/A,Chittenden County,65.70%,22.30%,1.9%,1.3%,93.3%,1.7%,N/A,Eastern Standard Time,81,27,54,37,149,159,72,N/A,N/A,6,80,200,3,36.36,VT-14875,44.5545173,-73.2168443,49%,60%,42%
Concord,Vermont,176,160,Berlin,31174,$46250,27.13%,47,N/A,N/A,N/A,45,64.74%,N/A,59.01%,N/A,N/A,11.36%,0.0%,82.17%,Essex County,34.80%,51.50%,2.27%,0.0%,97.73%,0.0%,0.0%,N/A,79,26,53,40,165,179,84,N/A,N/A,5,91,N/A,3,1.1,VT-15175,44.4322388,-71.8862515,49%,60%,42%
Corinth,Vermont,1376,28,Claremont-Lebanon,217783,$56719,32.38%,N/A,N/A,N/A,N/A,37,65.50%,N/A,49.80%,N/A,N/A,N/A,2.10%,N/A,Orange County,51.50%,34.20%,0.0%,1.6%,95.8%,0.4%,N/A,N/A,77,26,51,42,143,169,91,N/A,N/A,6,90,N/A,3.1,49.14,VT-15700,44.0375438,-72.2898809,49%,60%,42%
Danby,Vermont,219,304,Rutland,57764,$62212,33.15%,53,N/A,N/A,N/A,42,64.84%,$781,40.91%,N/A,N/A,7.76%,3.73%,67.68%,Rutland County,46.00%,42.10%,2.74%,0.0%,94.98%,0.0%,9.59%,N/A,79,29,50,48,151,175,80,N/A,N/A,6,93,N/A,2.9,0.72,VT-16750,43.3451731,-72.9946655,50%,58%,45%
Derby Center,Vermont,713,513,None,N/A,$39297,10.9%,51,N/A,N/A,N/A,52,53.21%,$905,47.35%,N/A,N/A,22.45%,1.95%,52.92%,Orleans County,43.00%,42.80%,0.0%,0.0%,97.9%,2.1%,7.43%,N/A,77,23,54,43,180,161,102,53.3,32.9,N/A,89,N/A,3,1.39,VT-17425,44.9548898,-72.1360894,49%,60%,42%
Derby Line,Vermont,668,915,None,N/A,$56563,40.73%,42,N/A,N/A,N/A,76,68.56%,$675,52.93%,N/A,N/A,20.81%,2.1%,61.44%,Orleans County,43.00%,42.80%,0.0%,0.0%,94.16%,1.65%,8.38%,N/A,76,23,53,43,170,157,101,53.3,32.9,6,90,N/A,3,0.73,VT-17500,45.0008502,-72.1034225,49%,60%,42%
Dorset,Vermont,387,186,Bennington,35338,$87368,87.46%,61,$725000,2923,$248,63,96.38%,N/A,28.8%,N/A,N/A,12.66%,0.0%,43.04%,Bennington County,54.90%,34.10%,0.0%,0.0%,100.0%,0.0%,0.0%,N/A,79,29,50,50,156,179,92,N/A,N/A,6,92,N/A,3.4,2.08,VT-17650,43.2574146,-73.102048,50%,58%,45%
Duxbury,Vermont,1260,29,Barre,58328,$71964,47.35%,N/A,N/A,N/A,N/A,34,72.30%,N/A,42.60%,N/A,N/A,N/A,2.00%,N/A,Washington County,59.80%,25.70%,1.1%,0.0%,97.5%,0.5%,N/A,N/A,80,27,53,43,149,159,89,N/A,N/A,6,90,N/A,2.9,43.45,VT-18550,44.3050803,-72.8235573,49%,60%,42%
East Barre,Vermont,807,305,Barre,58328,$67935,13.23%,42,$255000,1118,$228,38,61.71%,$1069,58.35%,N/A,N/A,6.01%,5.94%,68.36%,Washington County,59.80%,25.70%,0.0%,0.0%,100.0%,0.0%,0.87%,N/A,80,27,53,42,145,159,92,54.4,34.1,6,84,N/A,2.9,2.65,VT-19075,44.1499808,-72.4498155,49%,60%,42%
East Burke,Vermont,69,130,None,N/A,$57917,21.54%,45,N/A,N/A,N/A,41,56.52%,N/A,72.31%,N/A,N/A,4.35%,0.0%,66.15%,Caledonia County,45.80%,39.30%,0.0%,0.0%,100.0%,0.0%,0.0%,N/A,79,24,55,43,180,164,97,53.4,33,5,91,N/A,3.1,0.53,VT-19600,44.587441,-71.940262,49%,60%,42%
East Haven,Vermont,315,8,Berlin,31174,$39519,N/A,N/A,N/A,N/A,N/A,47,52.50%,N/A,36.80%,N/A,N/A,N/A,2.90%,N/A,Essex County,34.80%,51.50%,0.0%,0.0%,97.5%,1.6%,N/A,N/A,77,24,53,43,177,169,99,N/A,N/A,5,91,N/A,3,39.38,VT-21250,44.6555144,-71.8228531,49%,60%,42%
East Montpelier,Vermont,82,357,Barre,58328,$66719,100.0%,36,$450000,2432,$185,44,100.0%,N/A,32.0%,N/A,N/A,0.0%,0.0%,68.0%,Washington County,59.80%,25.70%,0.0%,0.0%,100.0%,0.0%,0.0%,N/A,81,27,54,43,150,159,98,N/A,N/A,6,86,N/A,2.9,0.23,VT-21850,44.2684612,-72.4902629,49%,60%,42%
Enosburg Falls,Vermont,1350,381,Burlington-South Burlington,221160,$44167,13.13%,37,$275000,3313,$83,77,73.54%,$775,53.7%,N/A,N/A,24.88%,10.9%,58.3%,Franklin County,43.70%,40.90%,1.85%,3.93%,70.44%,0.3%,1.26%,Eastern Standard Time,80,26,54,40,151,157,82,55.1,34.2,6,90,200,2.9,3.54,VT-24025,44.9083299,-72.8026176,49%,60%,42%
Enosburgh,Vermont,2758,57,Burlington-South Burlington,221160,$52569,20.35%,N/A,N/A,N/A,N/A,43,56.20%,N/A,N/A,N/A,N/A,N/A,2.30%,N/A,Franklin County,43.70%,40.90%,0.0%,2.9%,93.3%,0.9%,N/A,Eastern Standard Time,80,26,54,40,151,159,82,N/A,N/A,N/A,90,200,2.9,48.39,VT-24050,44.8806038,-72.7477918,49%,60%,42%
Essex,Vermont,20901,538,Burlington-South Burlington,221160,$73530,52.20%,N/A,N/A,N/A,N/A,36,68.70%,N/A,42.20%,59,1362,N/A,1.90%,N/A,Chittenden County,65.70%,22.30%,5.0%,2.0%,89.1%,2.1%,N/A,Eastern Standard Time,81,27,54,40,156,159,80,N/A,N/A,6,82,200,3,38.85,VT-24175,44.5195976,-73.0655871,49%,60%,42%
Essex Junction,Vermont,10761,2355,Burlington-South Burlington,221160,$76845,47.99%,38,$422000,1991,$212,40,72.45%,$1301,50.02%,N/A,N/A,8.16%,3.64%,75.2%,Chittenden County,65.70%,22.30%,10.25%,1.17%,81.41%,2.36%,15.44%,Eastern Standard Time,81,27,54,40,156,161,80,55.4,34.8,6,77,200,3,4.57,VT-24400,44.4902189,-73.1140064,49%,60%,42%
Fair Haven,Vermont,2273,809,Rutland,57764,$58631,19.83%,40,$150000,1402,$107,78,78.49%,$837,50.08%,N/A,N/A,17.15%,4.68%,62.96%,Rutland County,46.00%,42.10%,0.0%,0.09%,92.12%,2.64%,2.02%,N/A,83,30,53,41,130,165,66,N/A,N/A,6,86,N/A,2.9,2.81,VT-25450,43.5930709,-73.2692512,49%,60%,42%
Fairfax,Vermont,1145,606,Burlington-South Burlington,221160,$53605,55.78%,35,$375000,1847,$203,53,42.97%,$1129,23.98%,N/A,N/A,10.83%,8.88%,74.73%,Franklin County,43.70%,40.90%,0.0%,0.0%,100.0%,0.0%,1.75%,Eastern Standard Time,80,26,54,39,152,159,83,N/A,N/A,6,89,200,2.9,1.89,VT-24850,44.6694853,-73.0106664,49%,60%,42%
Fairfield,Vermont,1899,28,Burlington-South Burlington,221160,$68700,31.98%,N/A,N/A,N/A,N/A,37,63.40%,N/A,38.80%,N/A,N/A,N/A,2.30%,N/A,Franklin County,43.70%,40.90%,0.0%,0.0%,97.4%,1.8%,N/A,Eastern Standard Time,80,26,54,40,149,159,87,N/A,N/A,6,90,200,2.9,67.82,VT-25225,44.808435,-72.9325282,49%,60%,42%
Fairlee,Vermont,163,276,Claremont-Lebanon,217783,$49886,25.37%,52,N/A,N/A,N/A,56,66.87%,$882,55.07%,N/A,N/A,17.79%,4.23%,51.45%,Orange County,51.50%,34.20%,1.23%,0.0%,98.77%,0.0%,4.91%,N/A,77,26,51,42,141,188,86,N/A,N/A,6,86,N/A,3.1,0.59,VT-25600,43.8987403,-72.1549285,55%,62%,53%
Fayston,Vermont,1298,36,Barre,58328,$86042,57.92%,N/A,N/A,N/A,N/A,40,35.30%,N/A,41.10%,N/A,N/A,N/A,2.00%,N/A,Washington County,59.80%,25.70%,1.5%,0.4%,96.1%,0.9%,N/A,N/A,79,27,52,45,151,159,99,N/A,N/A,6,92,N/A,2.9,36.06,VT-25825,44.2130306,-72.8748925,49%,60%,42%
Fletcher,Vermont,1424,38,Burlington-South Burlington,221160,$80625,37.98%,N/A,N/A,N/A,N/A,31,76.20%,N/A,34.30%,N/A,N/A,N/A,2.30%,N/A,Franklin County,43.70%,40.90%,0.2%,0.0%,98.6%,0.0%,N/A,Eastern Standard Time,80,26,54,39,151,159,86,N/A,N/A,6,89,200,2.9,37.47,VT-26500,44.7108816,-72.9009983,49%,60%,42%
Franklin,Vermont,1414,37,Burlington-South Burlington,221160,$53333,18.17%,N/A,N/A,N/A,N/A,42,50.10%,N/A,33.20%,N/A,N/A,N/A,2.30%,N/A,Franklin County,43.70%,40.90%,0.2%,0.0%,96.7%,0.4%,N/A,Eastern Standard Time,80,26,54,40,149,159,86,N/A,N/A,6,88,200,2.9,38.22,VT-27100,44.9765314,-72.8980543,49%,60%,42%
Georgia,Vermont,4691,119,Burlington-South Burlington,221160,$74978,31.53%,N/A,N/A,N/A,N/A,35,78.50%,N/A,44.00%,N/A,N/A,N/A,2.30%,N/A,Franklin County,43.70%,40.90%,0.2%,0.0%,93.9%,3.5%,N/A,Eastern Standard Time,80,27,53,38,150,159,76,N/A,N/A,6,86,200,2.9,39.42,VT-27700,44.7282388,-73.1276314,49%,60%,42%
Granby,Vermont,103,3,Berlin,31174,$46250,N/A,N/A,N/A,N/A,N/A,25,28.40%,N/A,22.60%,N/A,N/A,N/A,2.90%,N/A,Essex County,34.80%,51.50%,0.0%,0.0%,100.0%,0.0%,N/A,N/A,79,25,54,41,163,176,84,N/A,N/A,N/A,91,N/A,3,34.33,VT-29125,44.6023405,-71.7206278,49%,60%,42%
Grand Isle,Vermont,2229,136,Burlington-South Burlington,221160,$61286,44.55%,N/A,N/A,N/A,N/A,33,65.50%,N/A,39.90%,N/A,N/A,N/A,2.20%,N/A,Grand Isle County,51.00%,36.20%,0.1%,0.0%,90.6%,1.8%,N/A,Eastern Standard Time,80,27,53,34,133,159,62,N/A,N/A,N/A,84,200,3.1,16.39,VT-29275,44.7203507,-73.2989753,49%,60%,42%
Graniteville,Vermont,907,537,Barre,58328,$42917,31.1%,32,N/A,N/A,N/A,60,60.31%,$909,73.1%,N/A,N/A,10.69%,16.64%,67.43%,Washington County,59.80%,25.70%,0.0%,11.69%,86.88%,0.0%,5.29%,N/A,77,26,51,42,149,159,113,54.4,34.1,6,84,N/A,2.9,1.69,VT-29425,44.14634,-72.4818365,49%,60%,42%
Guildhall,Vermont,185,6,Berlin,31174,$45938,N/A,N/A,N/A,N/A,N/A,38,63.30%,N/A,44.40%,N/A,N/A,N/A,2.90%,N/A,Essex County,34.80%,51.50%,0.0%,0.0%,96.8%,0.0%,N/A,N/A,79,25,54,41,153,177,79,N/A,N/A,5,91,N/A,3,30.83,VT-30775,44.5479105,-71.6287922,49%,60%,42%
Hartford,Vermont,334,285,Claremont-Lebanon,217783,$46150,54.33%,38,$350000,1259,$278,41,51.5%,$1092,46.06%,261,1327,6.59%,2.96%,79.92%,Windsor County,58.70%,28.80%,0.0%,0.0%,100.0%,0.0%,21.86%,N/A,81,29,52,41,138,179,70,N/A,N/A,6,68,N/A,3.3,1.17,VT-32205,43.6638102,-72.3364955,55%,62%,53%
Hartland,Vermont,537,493,Claremont-Lebanon,217783,$53631,5.94%,38,$369000,1932,$191,42,74.3%,$929,39.95%,N/A,N/A,19.37%,9.49%,59.11%,Windsor County,58.70%,28.80%,2.05%,0.74%,90.32%,0.0%,16.76%,N/A,82,29,53,43,140,191,75,N/A,N/A,6,85,N/A,3.3,1.09,VT-32350,43.5423345,-72.4000705,55%,62%,53%
Highgate,Vermont,3627,71,Burlington-South Burlington,221160,$46165,13.12%,N/A,N/A,N/A,N/A,44,65.10%,N/A,37.80%,N/A,N/A,N/A,2.30%,N/A,Franklin County,43.70%,40.90%,0.0%,0.0%,88.7%,0.0%,N/A,Eastern Standard Time,80,26,54,39,147,159,78,N/A,N/A,6,88,200,2.9,51.08,VT-33025,44.9655727,-73.0561906,49%,60%,42%
Hinesburg,Vermont,595,480,Burlington-South Burlington,221160,$52313,63.32%,32,$380000,1532,$248,30,54.07%,$1194,75.05%,65,393,0.5%,4.62%,84.39%,Chittenden County,65.70%,22.30%,0.0%,0.0%,100.0%,0.0%,2.69%,Eastern Standard Time,79,27,52,41,157,159,87,N/A,N/A,6,88,200,3,1.24,VT-33400,44.3336413,-73.1085505,49%,60%,42%
Hubbardton,Vermont,559,20,Rutland,57764,$65855,39.87%,N/A,N/A,N/A,N/A,41,37.10%,N/A,48.60%,N/A,N/A,N/A,2.70%,N/A,Rutland County,46.00%,42.10%,0.7%,0.0%,96.4%,0.7%,N/A,N/A,82,30,52,41,130,165,67,N/A,N/A,6,88,N/A,2.9,27.95,VT-34450,43.712841,-73.1765771,49%,60%,42%
Huntington,Vermont,584,712,Burlington-South Burlington,221160,$87813,34.33%,44,N/A,N/A,N/A,41,94.01%,$1643,47.27%,N/A,N/A,7.19%,2.45%,69.94%,Chittenden County,65.70%,22.30%,0.51%,0.0%,88.87%,3.77%,3.6%,Eastern Standard Time,79,27,52,44,158,159,98,N/A,N/A,6,91,200,3,0.82,VT-34525,44.3275514,-72.9893609,49%,60%,42%
Hyde Park village,Vermont,399,347,None,N/A,$72880,49.51%,50,N/A,N/A,N/A,76,86.22%,$1019,54.2%,N/A,N/A,4.01%,2.11%,68.7%,Lamoille County,56.70%,28.00%,2.51%,0.0%,96.24%,0.0%,4.51%,N/A,79,26,53,44,166,160,105,N/A,N/A,N/A,90,N/A,3.1,1.15,VT-34975,44.5960805,-72.6123863,49%,60%,42%
Ira,Vermont,424,19,Rutland,57764,$66875,N/A,N/A,N/A,N/A,N/A,41,77.40%,N/A,39.10%,N/A,N/A,N/A,2.70%,N/A,Rutland County,46.00%,42.10%,0.0%,0.0%,98.3%,0.5%,N/A,N/A,81,29,52,43,136,165,76,N/A,N/A,6,91,N/A,2.9,22.32,VT-35425,43.5537489,-73.0813329,49%,60%,42%
Island Pond,Vermont,758,182,Berlin,31174,$38689,21.1%,53,N/A,N/A,N/A,58,65.07%,$669,49.55%,N/A,N/A,11.61%,1.4%,53.83%,Essex County,34.80%,51.50%,0.0%,0.0%,94.2%,0.66%,0.4%,N/A,78,23,55,43,167,178,99,52.7,32.4,6,93,N/A,3,4.17,VT-35725,44.8125381,-71.8862023,49%,60%,42%
Isle La Motte,Vermont,494,63,Burlington-South Burlington,221160,$52083,34.39%,N/A,N/A,N/A,N/A,40,38.20%,N/A,43.10%,N/A,N/A,N/A,2.20%,N/A,Grand Isle County,51.00%,36.20%,0.6%,0.0%,96.4%,1.0%,N/A,Eastern Standard Time,80,27,53,34,134,159,63,N/A,N/A,7,84,200,3.1,7.84,VT-35875,44.863036,-73.3424544,49%,60%,42%
Jacksonville,Vermont,252,221,None,N/A,$40625,22.64%,45,N/A,N/A,N/A,78,82.14%,$923,55.51%,N/A,N/A,12.3%,18.46%,60.19%,Windham County,63.40%,24.10%,5.16%,2.38%,90.87%,1.59%,7.54%,N/A,78,29,49,53,148,192,102,55.4,35.4,7,92,N/A,3.5,1.14,VT-36025,42.7975732,-72.8192225,50%,58%,45%
Jeffersonville,Vermont,667,855,None,N/A,$54917,39.01%,33,N/A,N/A,N/A,42,39.88%,$1017,58.43%,N/A,N/A,14.54%,5.26%,84.53%,Lamoille County,56.70%,28.00%,0.0%,0.0%,86.81%,0.3%,1.8%,N/A,80,27,53,39,156,162,91,54.3,33.8,6,91,N/A,3.1,0.78,VT-36475,44.6427032,-72.8282358,49%,60%,42%
Jericho,Vermont,1077,775,Burlington-South Burlington,221160,$92188,63.02%,34,N/A,N/A,N/A,46,95.36%,N/A,37.5%,N/A,N/A,3.62%,0.0%,72.3%,Chittenden County,65.70%,22.30%,0.0%,0.74%,95.45%,0.84%,1.58%,Eastern Standard Time,79,26,53,41,157,159,95,N/A,N/A,6,90,200,3,1.39,VT-36625,44.5048644,-72.9878497,49%,60%,42%
Johnson village,Vermont,1627,1391,None,N/A,$40907,36.29%,21,N/A,N/A,N/A,53,38.65%,$928,71.48%,N/A,N/A,18.53%,8.91%,75.02%,Lamoille County,56.70%,28.00%,0.8%,2.09%,90.66%,2.09%,1.6%,N/A,79,26,53,43,159,159,101,N/A,N/A,N/A,90,N/A,3.1,1.17,VT-37000,44.6366037,-72.6785728,49%,60%,42%
Killington,Vermont,445,74,Rutland,57764,$57917,57.45%,46,$412000,1161,$355,39,76.04%,$1181,43.45%,N/A,N/A,0.0%,0.0%,69.64%,Rutland County,46.00%,42.10%,5.62%,0.0%,82.47%,4.72%,16.4%,N/A,76,26,50,46,148,161,93,N/A,N/A,6,93,N/A,2.9,6.02,VT-37750,43.6505469,-72.7851021,49%,60%,42%
Landgrove,Vermont,109,12,Bennington,35338,$79375,N/A,N/A,N/A,N/A,N/A,35,30.30%,N/A,22.40%,N/A,N/A,N/A,2.60%,N/A,Bennington County,54.90%,34.10%,0.0%,0.0%,100.0%,0.0%,N/A,N/A,79,29,50,51,159,180,103,N/A,N/A,7,93,N/A,3.4,9.08,VT-39025,43.263662,-72.8464422,50%,58%,45%
Lemington,Vermont,133,4,Berlin,31174,$31429,N/A,N/A,N/A,N/A,N/A,44,70.90%,N/A,37.60%,N/A,N/A,N/A,2.90%,N/A,Essex County,34.80%,51.50%,1.5%,0.0%,88.0%,9.8%,N/A,N/A,77,24,53,41,157,176,99,N/A,N/A,6,94,N/A,3,33.25,VT-39700,44.8906848,-71.5829463,49%,60%,42%
Ludlow,Vermont,646,482,Claremont-Lebanon,217783,$41339,25.7%,53,$678000,1863,$364,79,45.66%,$856,70.03%,160,641,18.07%,4.21%,58.94%,Windsor County,58.70%,28.80%,0.62%,0.15%,95.51%,0.31%,4.49%,N/A,80,29,51,48,150,179,84,55.3,35.2,6,91,N/A,3.3,1.34,VT-41200,43.3972429,-72.6969261,55%,62%,53%
Ludlow village,Vermont,646,482,Claremont-Lebanon,217783,$41339,25.7%,53,$678000,1863,$364,79,45.66%,$856,70.03%,160,641,18.07%,4.21%,58.94%,Windsor County,58.70%,28.80%,0.62%,0.15%,95.51%,0.31%,4.49%,N/A,80,29,51,48,150,176,84,N/A,N/A,N/A,91,N/A,3.3,1.34,VT-41200,43.3972429,-72.6969261,55%,62%,53%
Lunenburg,Vermont,376,148,Berlin,31174,$41250,20.53%,48,N/A,N/A,N/A,48,78.46%,$544,47.7%,N/A,N/A,42.29%,25.53%,50.36%,Essex County,34.80%,51.50%,0.0%,0.0%,95.74%,3.46%,0.0%,N/A,79,26,53,39,163,191,84,N/A,N/A,5,91,N/A,3,2.54,VT-41350,44.456999,-71.6803018,49%,60%,42%
Lyndonville,Vermont,1407,1982,None,N/A,$35865,19.12%,30,N/A,N/A,N/A,78,42.57%,$725,58.52%,345,1987,30.63%,3.99%,69.91%,Caledonia County,45.80%,39.30%,0.0%,0.0%,94.88%,0.21%,0.0%,N/A,77,24,53,43,179,167,103,53.4,33,5,89,N/A,3.1,0.71,VT-41950,44.5351896,-72.0016708,49%,60%,42%
Maidstone,Vermont,186,6,Berlin,31174,$36339,N/A,N/A,N/A,N/A,N/A,50,28.80%,N/A,29.70%,N/A,N/A,N/A,2.90%,N/A,Essex County,34.80%,51.50%,2.2%,0.5%,89.8%,7.5%,N/A,N/A,79,25,54,41,153,176,79,N/A,N/A,5,94,N/A,3,31.0,VT-42475,44.6409464,-71.6166885,49%,60%,42%
Manchester,Vermont,583,165,Bennington,35338,$25114,43.84%,67,$360000,1978,$182,44,64.89%,$513,61.58%,118,1087,29.41%,0.0%,28.3%,Bennington County,54.90%,34.10%,0.0%,0.0%,97.08%,2.92%,13.55%,N/A,80,30,50,46,144,180,71,55.6,35.8,7,91,N/A,3.4,3.54,VT-42700,43.161082,-73.0712055,50%,58%,45%
Manchester village,Vermont,583,165,Bennington,35338,$25114,43.84%,67,$360000,1978,$182,44,64.89%,$513,61.58%,118,1087,29.41%,0.0%,28.3%,Bennington County,54.90%,34.10%,0.0%,0.0%,97.08%,2.92%,13.55%,N/A,80,30,50,46,144,182,71,N/A,N/A,7,91,N/A,3.4,3.54,VT-42700,43.161082,-73.0712055,50%,58%,45%
Marshfield,Vermont,367,1412,Barre,58328,$54583,29.89%,36,$100000,1639,$61,41,87.47%,$857,55.56%,N/A,N/A,6.54%,4.19%,59.01%,Washington County,59.80%,25.70%,0.0%,0.0%,89.65%,4.63%,0.54%,N/A,80,27,53,41,153,159,96,54.4,34.1,6,90,N/A,2.9,0.26,VT-43525,44.351923,-72.352028,49%,60%,42%
Marshfield village,Vermont,367,1412,Barre,58328,$54583,29.89%,36,$100000,1639,$61,78,87.47%,$857,55.56%,N/A,N/A,6.54%,4.19%,59.01%,Washington County,59.80%,25.70%,0.0%,0.0%,89.65%,4.63%,0.54%,N/A,79,26,53,40,155,160,95,N/A,N/A,N/A,90,N/A,2.9,0.26,VT-43525,44.351923,-72.352028,49%,60%,42%
Mendon,Vermont,968,25,Rutland,57764,$55547,53.24%,N/A,N/A,N/A,N/A,43,55.10%,N/A,45.80%,N/A,N/A,N/A,2.70%,N/A,Rutland County,46.00%,42.10%,1.3%,0.0%,95.9%,1.1%,N/A,N/A,80,29,51,43,137,165,78,N/A,N/A,6,93,N/A,2.9,38.72,VT-44125,43.6261836,-72.8788141,49%,60%,42%
Middlesex,Vermont,1672,42,Barre,58328,$66125,51.22%,N/A,N/A,N/A,N/A,38,84.30%,N/A,37.40%,N/A,N/A,N/A,2.00%,N/A,Washington County,59.80%,25.70%,0.2%,0.4%,95.4%,1.3%,N/A,N/A,80,27,53,43,150,159,97,N/A,N/A,6,89,N/A,2.9,39.81,VT-44500,44.3269555,-72.6305418,49%,60%,42%
Middletown Springs,Vermont,117,170,Rutland,57764,$58125,42.65%,36,N/A,N/A,N/A,44,77.78%,$1125,56.25%,N/A,N/A,5.31%,6.78%,75.64%,Rutland County,46.00%,42.10%,0.0%,0.0%,96.58%,3.42%,0.85%,N/A,79,29,50,45,144,167,80,N/A,N/A,6,91,N/A,2.9,0.69,VT-44725,43.4865715,-73.1230877,50%,58%,45%
Milton,Vermont,3913,1254,Burlington-South Burlington,221160,$62292,16.82%,40,$318000,1452,$219,32,67.83%,$1331,44.26%,145,943,9.89%,14.16%,65.15%,Chittenden County,65.70%,22.30%,0.0%,2.63%,96.37%,0.0%,2.53%,Eastern Standard Time,81,27,54,37,149,159,72,N/A,N/A,6,85,200,3,3.12,VT-45175,44.6309973,-73.1221034,49%,60%,42%
Montgomery,Vermont,998,18,Burlington-South Burlington,221160,$48533,29.42%,N/A,N/A,N/A,N/A,43,37.90%,N/A,40.90%,N/A,N/A,N/A,2.30%,N/A,Franklin County,43.70%,40.90%,0.0%,0.0%,94.3%,4.9%,N/A,Eastern Standard Time,78,25,53,45,158,159,92,N/A,N/A,6,92,200,2.9,55.44,VT-45850,44.8599088,-72.6039599,49%,60%,42%
Montpelier,Vermont,7434,739,Barre,58328,$65668,61.25%,45,$245000,1043,$235,68,60.2%,$1060,57.23%,94,2165,4.02%,2.82%,71.26%,Washington County,59.80%,25.70%,2.17%,0.56%,92.0%,2.35%,5.72%,N/A,81,27,54,43,149,157,96,54.8,34.2,6,70,N/A,2.9,10.06,VT-46000,44.265916,-72.5717266,49%,60%,42%
Moretown,Vermont,1739,44,Barre,58328,$69250,48.97%,N/A,N/A,N/A,N/A,40,74.20%,N/A,39.70%,N/A,N/A,N/A,2.00%,N/A,Washington County,59.80%,25.70%,0.6%,0.0%,93.1%,0.9%,N/A,N/A,80,27,53,43,149,159,90,N/A,N/A,6,90,N/A,2.9,39.52,VT-46225,44.2564886,-72.7147496,49%,60%,42%
Morrisville,Vermont,2017,1029,None,N/A,$53138,35.63%,35,N/A,N/A,N/A,61,49.82%,$945,63.22%,N/A,N/A,15.61%,9.55%,66.75%,Lamoille County,56.70%,28.00%,0.64%,2.48%,94.55%,2.73%,2.33%,N/A,79,26,53,40,158,158,98,54.3,33.8,6,88,N/A,3.1,1.96,VT-46825,44.5583578,-72.5932668,49%,60%,42%
Mount Holly,Vermont,1231,25,Rutland,57764,$56625,39.25%,N/A,N/A,N/A,N/A,39,46.70%,N/A,34.20%,N/A,N/A,N/A,2.70%,N/A,Rutland County,46.00%,42.10%,0.5%,0.0%,99.5%,0.0%,N/A,N/A,80,30,50,48,154,165,96,N/A,N/A,N/A,92,N/A,2.9,49.24,VT-47200,43.4288129,-72.8036563,55%,62%,53%
Mount Tabor,Vermont,265,6,Rutland,57764,$48542,32.03%,N/A,N/A,N/A,N/A,45,44.10%,N/A,59.40%,N/A,N/A,N/A,2.70%,N/A,Rutland County,46.00%,42.10%,0.8%,0.0%,92.5%,3.0%,N/A,N/A,79,29,50,48,151,165,80,N/A,N/A,N/A,93,N/A,2.9,44.17,VT-47425,43.3492433,-72.928083,50%,58%,45%
Newbury,Vermont,397,80,Claremont-Lebanon,217783,$54844,37.02%,49,$450000,1875,$240,45,70.03%,$825,38.54%,N/A,N/A,15.62%,3.16%,50.97%,Orange County,51.50%,34.20%,0.0%,0.5%,98.49%,1.01%,1.51%,N/A,80,27,53,40,142,171,70,54.4,34.1,6,86,N/A,3.1,4.97,VT-48100,44.080928,-72.0599473,55%,62%,53%
Newbury village,Vermont,397,80,Claremont-Lebanon,217783,$54844,37.02%,49,$450000,1875,$240,78,70.03%,$825,38.54%,N/A,N/A,15.62%,3.16%,50.97%,Orange County,51.50%,34.20%,0.0%,0.5%,98.49%,1.01%,1.51%,N/A,81,27,54,39,143,172,71,N/A,N/A,N/A,86,N/A,3.1,4.97,VT-48100,44.080928,-72.0599473,55%,62%,53%
Newfane village,Vermont,137,761,None,N/A,$90833,72.37%,35,N/A,N/A,N/A,78,57.66%,$983,64.71%,N/A,N/A,8.03%,3.85%,87.39%,Windham County,63.40%,24.10%,0.0%,0.0%,100.0%,0.0%,0.0%,N/A,80,29,51,47,131,188,57,N/A,N/A,N/A,90,N/A,3.5,0.18,VT-48325,42.9874534,-72.6548213,55%,62%,53%
Newport,Vermont,4372,746,None,N/A,$31038,17.52%,N/A,N/A,N/A,N/A,66,43.00%,N/A,59.50%,517,2448,9.4%,3.30%,N/A,Orleans County,43.00%,42.80%,0.0%,0.6%,97.4%,0.4%,5.6%,N/A,78,23,55,42,179,157,101,53.8,33.4,6,81,N/A,3,5.86,VT-48925,44.9357742,-72.3041389,49%,60%,42%
North Bennington,Vermont,1551,829,Bennington,35338,$55682,43.47%,24,$250000,1025,$244,80,63.91%,$996,74.72%,N/A,N/A,13.49%,4.94%,55.72%,Bennington County,54.90%,34.10%,4.19%,1.68%,81.69%,2.77%,10.51%,N/A,80,30,50,45,137,181,63,55.8,35.9,7,87,N/A,3.4,1.87,VT-49075,42.9240557,-73.2411014,50%,58%,45%
North Hartland,Vermont,274,274,Claremont-Lebanon,217783,$64362,39.89%,37,N/A,N/A,N/A,76,75.18%,N/A,77.45%,N/A,N/A,0.0%,0.0%,72.77%,Windsor County,58.70%,28.80%,0.0%,0.0%,100.0%,0.0%,6.93%,N/A,82,29,53,41,138,179,68,55.3,35.2,6,85,N/A,3.3,1.0,VT-50500,43.5936689,-72.3578192,55%,62%,53%
North Hero,Vermont,968,72,Burlington-South Burlington,221160,$68750,45.30%,N/A,N/A,N/A,N/A,41,35.20%,N/A,32.50%,N/A,N/A,N/A,2.20%,N/A,Grand Isle County,51.00%,36.20%,0.1%,0.0%,92.0%,4.0%,N/A,Eastern Standard Time,80,27,53,34,134,159,63,N/A,N/A,7,84,200,3.1,13.44,VT-50650,44.8370665,-73.2653266,49%,60%,42%
North Springfield,Vermont,740,602,Claremont-Lebanon,217783,$56303,7.79%,54,$170000,1453,$117,35,98.15%,N/A,48.21%,N/A,N/A,25.75%,0.0%,71.01%,Windsor County,58.70%,28.80%,0.0%,0.0%,88.92%,3.92%,3.92%,N/A,82,29,53,45,137,179,72,55.3,35.2,6,80,N/A,3.3,1.23,VT-51925,43.3304464,-72.5277067,55%,62%,53%
North Troy,Vermont,627,335,None,N/A,$52981,17.96%,36,N/A,N/A,N/A,63,72.89%,$883,50.58%,N/A,N/A,12.74%,7.99%,67.2%,Orleans County,43.00%,42.80%,0.0%,0.32%,93.14%,3.51%,2.55%,N/A,79,26,53,41,162,157,94,53.3,32.9,6,92,N/A,3,1.87,VT-52075,44.9963392,-72.4038041,49%,60%,42%
North Westminster,Vermont,87,181,None,N/A,$58750,32.76%,40,N/A,N/A,N/A,69,34.48%,$945,85.06%,N/A,N/A,0.0%,11.39%,90.8%,Windham County,63.40%,24.10%,0.0%,0.0%,100.0%,0.0%,11.49%,N/A,81,29,52,44,130,189,56,55.4,35.4,6,81,N/A,3.5,0.48,VT-52375,43.1218588,-72.4554343,55%,62%,53%
Northfield,Vermont,4413,1970,Barre,58328,$53715,36.35%,23,$385000,1808,$213,47,54.2%,$841,75.24%,266,765,16.17%,2.78%,53.02%,Washington County,59.80%,25.70%,0.68%,0.75%,88.47%,7.89%,3.2%,N/A,80,27,53,43,144,159,90,54.4,34.1,6,91,N/A,2.9,2.24,VT-50200,44.1443009,-72.6573744,49%,60%,42%
Northfield village,Vermont,4413,1970,Barre,58328,$53715,36.35%,23,$385000,1808,$213,78,54.2%,$841,75.24%,266,765,16.17%,2.78%,53.02%,Washington County,59.80%,25.70%,0.68%,0.75%,88.47%,7.89%,3.2%,N/A,80,27,53,43,144,158,90,N/A,N/A,N/A,91,N/A,2.9,2.24,VT-50200,44.1443009,-72.6573744,49%,60%,42%
Norton,Vermont,127,3,Berlin,31174,$31458,N/A,N/A,N/A,N/A,N/A,37,26.50%,N/A,33.00%,N/A,N/A,N/A,2.90%,N/A,Essex County,34.80%,51.50%,0.8%,0.0%,99.2%,0.0%,N/A,N/A,76,23,53,42,161,163,105,N/A,N/A,6,94,N/A,3,42.33,VT-52750,44.9794629,-71.8144335,49%,60%,42%
Norwich,Vermont,621,428,Claremont-Lebanon,217783,$83194,87.11%,38,$725000,2562,$283,71,48.95%,$892,50.0%,60,393,7.89%,2.75%,47.6%,Windsor County,58.70%,28.80%,14.65%,0.0%,82.13%,1.93%,3.22%,N/A,81,28,53,39,136,193,66,N/A,N/A,6,83,N/A,3.3,1.45,VT-52825,43.7201857,-72.3018353,55%,62%,53%
Old Bennington,Vermont,218,589,Bennington,35338,$129904,76.62%,40,N/A,N/A,N/A,78,97.25%,N/A,33.15%,N/A,N/A,1.38%,0.82%,71.35%,Bennington County,54.90%,34.10%,0.0%,0.0%,92.2%,0.0%,1.83%,N/A,79,30,49,44,138,177,65,55.8,35.9,N/A,85,N/A,3.4,0.37,VT-53125,42.8848547,-73.2142972,50%,58%,45%
Orange,Vermont,1003,26,Claremont-Lebanon,217783,$59583,12.62%,N/A,N/A,N/A,N/A,33,80.20%,N/A,40.50%,N/A,N/A,N/A,2.10%,N/A,Orange County,51.50%,34.20%,0.0%,0.0%,97.8%,1.0%,N/A,N/A,79,26,53,42,146,171,94,N/A,N/A,6,91,N/A,3.1,38.58,VT-53425,44.1560068,-72.374686,49%,60%,42%
Orleans,Vermont,936,1064,None,N/A,$50167,20.42%,31,N/A,N/A,N/A,78,71.69%,$793,47.62%,N/A,N/A,16.09%,7.4%,62.35%,Orleans County,43.00%,42.80%,0.43%,0.11%,88.14%,0.43%,0.85%,N/A,78,24,54,42,180,162,102,53.3,32.9,6,78,N/A,3,0.88,VT-53575,44.8090072,-72.2010612,49%,60%,42%
Pawlet,Vermont,219,89,Rutland,57764,$31250,37.43%,60,N/A,N/A,N/A,56,85.39%,$1313,63.21%,N/A,N/A,30.14%,2.68%,58.64%,Rutland County,46.00%,42.10%,0.0%,0.0%,87.21%,9.13%,3.65%,N/A,80,30,50,45,143,178,73,N/A,N/A,6,90,N/A,2.9,2.45,VT-54175,43.3480767,-73.1743096,50%,58%,45%
Perkinsville,Vermont,117,650,Claremont-Lebanon,217783,$70208,35.11%,56,N/A,N/A,N/A,70,88.89%,N/A,41.75%,N/A,N/A,0.87%,0.0%,61.39%,Windsor County,58.70%,28.80%,0.0%,0.0%,97.44%,0.0%,0.0%,N/A,82,29,53,45,141,177,76,55.3,35.2,6,84,N/A,3.3,0.18,VT-54850,43.3710615,-72.5157982,55%,62%,53%
Peru,Vermont,329,9,Bennington,35338,$61250,37.14%,N/A,N/A,N/A,N/A,39,17.30%,N/A,25.50%,N/A,N/A,N/A,2.60%,N/A,Bennington County,54.90%,34.10%,0.3%,0.0%,95.1%,4.6%,N/A,N/A,79,29,50,51,159,181,105,N/A,N/A,7,93,N/A,3.4,36.56,VT-55000,43.2551389,-72.9204464,50%,58%,45%
Pittsfield,Vermont,412,20,Rutland,57764,$67656,40.97%,N/A,N/A,N/A,N/A,44,37.30%,N/A,45.50%,N/A,N/A,N/A,2.70%,N/A,Rutland County,46.00%,42.10%,0.0%,0.0%,100.0%,0.0%,N/A,N/A,75,24,51,44,150,159,106,N/A,N/A,6,93,N/A,2.9,20.6,VT-55450,43.7931215,-72.8286459,49%,60%,42%
Pittsford,Vermont,554,281,Rutland,57764,$36925,29.5%,57,$398000,2274,$175,64,93.86%,$989,53.3%,35,213,25.81%,8.55%,55.68%,Rutland County,46.00%,42.10%,3.25%,1.26%,95.49%,0.0%,2.35%,N/A,81,29,52,42,133,159,73,N/A,N/A,6,91,N/A,2.9,1.97,VT-55525,43.7067385,-73.0275642,49%,60%,42%
Plainfield,Vermont,415,883,Barre,58328,$37170,33.08%,31,$600000,2055,$292,53,28.37%,$951,77.65%,N/A,N/A,27.13%,0.0%,73.33%,Washington County,59.80%,25.70%,3.61%,0.96%,87.71%,2.41%,5.54%,N/A,81,27,54,42,149,160,96,N/A,N/A,6,90,N/A,2.9,0.47,VT-55750,44.2790777,-72.4308474,49%,60%,42%
Plymouth,Vermont,494,10,Claremont-Lebanon,217783,$58173,44.81%,N/A,N/A,N/A,N/A,37,24.00%,N/A,41.50%,N/A,N/A,N/A,2.00%,N/A,Windsor County,58.70%,28.80%,0.0%,0.0%,100.0%,0.0%,N/A,N/A,80,30,50,48,150,162,84,N/A,N/A,6,91,N/A,3.3,49.4,VT-56050,43.5225965,-72.7172787,55%,62%,53%
Pomfret,Vermont,1008,26,Claremont-Lebanon,217783,$73802,60.95%,N/A,N/A,N/A,N/A,47,58.40%,N/A,37.10%,N/A,N/A,N/A,2.00%,N/A,Windsor County,58.70%,28.80%,2.1%,0.8%,93.8%,3.0%,N/A,N/A,80,28,52,45,140,179,82,N/A,N/A,N/A,89,N/A,3.3,38.77,VT-56350,43.6971172,-72.5063945,55%,62%,53%
Poultney,Vermont,1474,2340,Rutland,57764,$49167,31.84%,25,$128000,2098,$61,72,60.68%,$818,67.03%,N/A,N/A,17.87%,6.3%,51.06%,Rutland County,46.00%,42.10%,1.36%,4.14%,92.54%,1.15%,3.93%,N/A,83,31,52,41,133,165,67,55.6,35.7,6,88,N/A,2.9,0.63,VT-56800,43.5180781,-73.2359058,50%,58%,45%
Poultney village,Vermont,1474,2340,Rutland,57764,$49167,31.84%,25,$128000,2098,$61,78,60.68%,$818,67.03%,N/A,N/A,17.87%,6.3%,51.06%,Rutland County,46.00%,42.10%,1.36%,4.14%,92.54%,1.15%,3.93%,N/A,83,31,52,41,133,163,67,N/A,N/A,N/A,88,N/A,2.9,0.63,VT-56800,43.5180781,-73.2359058,50%,58%,45%
Pownal,Vermont,666,1306,Bennington,35338,$56771,14.07%,23,$235000,1250,$188,50,96.1%,N/A,74.26%,N/A,N/A,9.61%,10.96%,55.03%,Bennington County,54.90%,34.10%,0.0%,0.0%,100.0%,0.0%,0.0%,N/A,79,30,49,45,136,180,65,N/A,N/A,7,89,N/A,3.4,0.51,VT-56950,42.7652516,-73.2355152,50%,58%,45%
Proctor,Vermont,1386,406,Rutland,57764,$67273,32.7%,45,$199000,1442,$138,78,82.11%,$972,46.64%,N/A,N/A,5.41%,2.09%,66.09%,Rutland County,46.00%,42.10%,0.0%,0.0%,100.0%,0.0%,1.8%,N/A,81,29,52,41,133,161,73,N/A,N/A,6,88,N/A,2.9,3.41,VT-57246,43.6689748,-73.0405404,49%,60%,42%
Proctorsville,Vermont,287,363,Claremont-Lebanon,217783,$44306,17.92%,43,$428000,1422,$301,52,49.46%,$883,39.83%,N/A,N/A,7.66%,1.52%,54.77%,Windsor County,58.70%,28.80%,0.0%,1.05%,97.21%,1.74%,0.0%,N/A,80,29,51,48,150,179,84,55.3,35.2,6,90,N/A,3.3,0.79,VT-57400,43.381008,-72.6372896,55%,62%,53%
Quechee,Vermont,369,199,Claremont-Lebanon,217783,$73523,71.38%,32,$600000,2609,$230,37,31.71%,$1027,59.11%,N/A,N/A,0.0%,0.0%,71.0%,Windsor County,58.70%,28.80%,0.0%,0.0%,100.0%,0.0%,0.0%,N/A,78,26,52,44,142,179,90,55.3,35.2,6,82,N/A,3.3,1.85,VT-57775,43.6444584,-72.4184562,55%,62%,53%
Randolph,Vermont,2044,455,Claremont-Lebanon,217783,$44620,35.97%,45,$315000,2143,$147,55,59.02%,$910,56.28%,N/A,N/A,17.31%,7.03%,66.69%,Orange County,51.50%,34.20%,0.0%,0.0%,96.43%,1.27%,1.27%,N/A,78,27,51,44,140,159,95,N/A,N/A,6,84,N/A,3.1,4.49,VT-58000,43.9262157,-72.671576,49%,60%,42%
Reading,Vermont,612,15,Claremont-Lebanon,217783,$59583,33.24%,N/A,N/A,N/A,N/A,45,46.90%,N/A,36.00%,N/A,N/A,N/A,2.00%,N/A,Windsor County,58.70%,28.80%,0.5%,0.0%,99.0%,0.5%,N/A,N/A,80,29,51,47,150,178,84,N/A,N/A,6,91,N/A,3.3,40.8,VT-58375,43.4977246,-72.59396,55%,62%,53%
Readsboro,Vermont,309,251,Bennington,35338,$62708,7.14%,38,N/A,N/A,N/A,44,70.23%,N/A,69.2%,N/A,N/A,5.18%,2.26%,64.13%,Bennington County,54.90%,34.10%,0.0%,0.0%,94.82%,0.0%,3.88%,N/A,77,29,48,53,148,185,102,N/A,N/A,7,92,N/A,3.4,1.23,VT-58525,42.7684222,-72.9489581,50%,58%,45%
Richford,Vermont,1619,1527,Burlington-South Burlington,221160,$40150,10.15%,40,$233000,2648,$88,78,57.1%,$949,54.03%,N/A,N/A,15.25%,9.08%,46.24%,Franklin County,43.70%,40.90%,0.06%,0.0%,90.3%,3.58%,3.4%,Eastern Standard Time,80,27,53,40,155,159,86,N/A,N/A,6,92,200,2.9,1.06,VT-59050,44.9949749,-72.6697372,49%,60%,42%
Richmond,Vermont,824,717,Burlington-South Burlington,221160,$56806,74.4%,31,$685000,2299,$298,36,43.71%,$1250,68.9%,N/A,N/A,1.33%,0.0%,82.42%,Chittenden County,65.70%,22.30%,19.05%,0.24%,76.58%,4.13%,21.6%,Eastern Standard Time,80,27,53,41,155,159,79,N/A,N/A,6,89,200,3,1.15,VT-59200,44.4054976,-72.996798,49%,60%,42%
Rochester,Vermont,247,392,Claremont-Lebanon,217783,$31750,39.9%,67,N/A,N/A,N/A,44,88.41%,$1059,60.34%,N/A,N/A,8.1%,2.02%,44.2%,Windsor County,58.70%,28.80%,0.0%,0.0%,98.79%,0.81%,3.64%,N/A,77,27,50,46,139,159,94,N/A,N/A,6,90,N/A,3.3,0.63,VT-60025,43.8741865,-72.8051967,49%,60%,42%
Roxbury,Vermont,734,17,Barre,58328,$43036,29.82%,N/A,N/A,N/A,N/A,39,58.60%,N/A,36.60%,N/A,N/A,N/A,2.00%,N/A,Washington County,59.80%,25.70%,0.4%,0.0%,96.0%,2.9%,N/A,N/A,78,26,52,43,149,159,108,N/A,N/A,6,91,N/A,2.9,43.18,VT-60625,44.0700055,-72.7271351,49%,60%,42%
Royalton,Vermont,2801,69,Claremont-Lebanon,217783,$39484,32.91%,N/A,N/A,N/A,N/A,48,49.40%,N/A,49.30%,0,317,N/A,2.00%,N/A,Windsor County,58.70%,28.80%,0.2%,0.7%,96.9%,1.6%,N/A,N/A,80,28,52,44,132,179,77,N/A,N/A,6,86,N/A,3.3,40.59,VT-60850,43.8145445,-72.5520425,49%,60%,42%
Rupert,Vermont,646,14,Bennington,35338,$49219,42.76%,N/A,N/A,N/A,N/A,55,44.60%,N/A,36.70%,N/A,N/A,N/A,2.60%,N/A,Bennington County,54.90%,34.10%,0.0%,0.6%,90.6%,8.4%,N/A,N/A,79,29,50,48,158,180,94,N/A,N/A,6,92,N/A,3.4,46.14,VT-61000,43.2636098,-73.1904997,50%,58%,45%
Rutland,Vermont,15740,2085,Rutland,57764,$38558,28.38%,N/A,$250000,2315,$108,66,48.80%,N/A,55.40%,122,1177,12.1%,2.60%,N/A,Rutland County,46.00%,42.10%,2.1%,1.3%,93.8%,1.7%,2.9%,N/A,80,29,51,43,137,168,78,55.7,35.5,6,79,N/A,2.9,7.55,VT-61300,43.5802021,-72.983252,49%,60%,42%
Rutland town,Vermont,4043,535,Rutland,57764,$60543,N/A,N/A,$250000,2315,$108,41,66.60%,N/A,49.50%,122,1177,N/A,2.70%,N/A,Rutland County,46.00%,42.10%,0.0%,2.6%,95.2%,0.6%,N/A,N/A,80,29,51,43,137,165,78,N/A,N/A,6,88,N/A,2.9,7.55,VT-61300,43.5802021,-72.983252,49%,60%,42%
Sandgate,Vermont,374,9,Bennington,35338,$50000,34.87%,N/A,N/A,N/A,N/A,46,49.50%,N/A,51.50%,N/A,N/A,N/A,2.60%,N/A,Bennington County,54.90%,34.10%,2.1%,0.3%,89.8%,0.0%,N/A,N/A,80,30,50,46,140,180,65,N/A,N/A,7,92,N/A,3.4,41.56,VT-62875,43.1684612,-73.1972371,50%,58%,45%
Saxtons River,Vermont,528,1123,None,N/A,$110417,70.44%,41,N/A,N/A,N/A,78,31.97%,$786,30.71%,N/A,N/A,19.13%,3.12%,78.87%,Windham County,63.40%,24.10%,0.0%,0.0%,96.4%,0.95%,1.89%,N/A,81,29,52,44,130,193,55,55.4,35.4,6,83,N/A,3.5,0.47,VT-62950,43.1389736,-72.5101513,55%,62%,53%
Searsburg,Vermont,106,5,Bennington,35338,$36250,N/A,N/A,N/A,N/A,N/A,45,53.40%,N/A,51.00%,N/A,N/A,N/A,2.60%,N/A,Bennington County,54.90%,34.10%,0.0%,0.0%,94.3%,0.0%,N/A,N/A,77,28,49,54,149,180,103,N/A,N/A,7,92,N/A,3.4,21.2,VT-63175,42.8930745,-72.9666551,50%,58%,45%
Shaftsbury,Vermont,3487,81,Bennington,35338,$63382,47.98%,N/A,N/A,N/A,N/A,54,75.80%,N/A,37.20%,N/A,N/A,N/A,2.60%,N/A,Bennington County,54.90%,34.10%,0.1%,0.0%,96.2%,1.5%,N/A,N/A,79,30,49,44,143,180,68,N/A,N/A,7,90,N/A,3.4,43.05,VT-63550,42.9805218,-73.207962,50%,58%,45%
Sharon,Vermont,1413,36,Claremont-Lebanon,217783,$60781,37.31%,N/A,N/A,N/A,N/A,33,62.30%,N/A,39.70%,N/A,N/A,N/A,2.00%,N/A,Windsor County,58.70%,28.80%,0.6%,0.6%,96.8%,0.5%,N/A,N/A,79,27,52,42,133,174,73,N/A,N/A,6,89,N/A,3.3,39.25,VT-63775,43.7828539,-72.4361596,55%,62%,53%
Shelburne,Vermont,6008,843,Burlington-South Burlington,221160,$85216,68.18%,49,$625000,2155,$290,35,78.29%,$1355,40.2%,38,614,5.83%,5.26%,61.34%,Chittenden County,65.70%,22.30%,0.37%,0.63%,95.21%,2.53%,7.59%,Eastern Standard Time,81,28,53,36,149,159,72,N/A,N/A,6,85,200,3,7.13,VT-64225,44.3884568,-73.2199461,49%,60%,42%
Sheldon,Vermont,2317,60,Burlington-South Burlington,221160,$63750,11.59%,N/A,N/A,N/A,N/A,35,81.20%,N/A,31.80%,N/A,N/A,N/A,2.30%,N/A,Franklin County,43.70%,40.90%,0.5%,0.0%,97.1%,2.4%,N/A,Eastern Standard Time,80,26,54,40,150,159,83,N/A,N/A,6,88,200,2.9,38.62,VT-64600,44.898995,-72.9200969,49%,60%,42%
Shrewsbury,Vermont,1140,23,Rutland,57764,$66875,43.88%,N/A,N/A,N/A,N/A,42,66.00%,N/A,33.30%,N/A,N/A,N/A,2.70%,N/A,Rutland County,46.00%,42.10%,0.9%,0.0%,96.0%,0.0%,N/A,N/A,77,28,49,48,152,165,93,N/A,N/A,6,93,N/A,2.9,49.57,VT-65275,43.5297785,-72.8563224,55%,62%,53%
South Barre,Vermont,1110,566,Barre,58328,$54792,46.44%,52,$250000,1282,$195,49,87.66%,$955,39.42%,N/A,N/A,9.46%,0.0%,85.99%,Washington County,59.80%,25.70%,0.0%,1.26%,93.42%,1.17%,0.0%,N/A,81,27,54,42,144,160,90,54.4,34.1,6,84,N/A,2.9,1.96,VT-66025,44.1645935,-72.5037624,49%,60%,42%
South Burlington,Vermont,19359,1176,Burlington-South Burlington,221160,$76227,56.14%,39,$475000,1772,$268,34,62.64%,$1426,52.05%,165,2960,6.53%,3.82%,71.69%,Chittenden County,65.70%,22.30%,5.4%,2.68%,84.53%,3.09%,12.94%,Eastern Standard Time,81,28,53,37,150,160,74,55.6,35,6,74,200,3,16.46,VT-66175,44.4714119,-73.2747455,49%,60%,42%
South Hero,Vermont,150,139,Burlington-South Burlington,221160,$83864,18.95%,38,$341000,1056,$323,45,66.67%,N/A,65.65%,N/A,N/A,5.33%,0.0%,69.53%,Grand Isle County,51.00%,36.20%,1.33%,24.0%,74.67%,0.0%,1.33%,Eastern Standard Time,80,27,53,32,138,159,62,N/A,N/A,6,84,200,3.1,1.08,VT-66925,44.6478584,-73.3017161,49%,60%,42%
South Royalton,Vermont,609,549,Claremont-Lebanon,217783,$50566,28.53%,30,N/A,N/A,N/A,57,23.81%,$1014,84.05%,N/A,N/A,21.52%,0.0%,55.01%,Windsor County,58.70%,28.80%,0.0%,0.0%,97.21%,2.79%,5.91%,N/A,80,28,52,44,132,179,77,55.3,35.2,6,86,N/A,3.3,1.11,VT-68050,43.8122257,-72.5154039,49%,60%,42%
South Shaftsbury,Vermont,459,205,Bennington,35338,$49180,22.47%,49,$547000,3852,$142,78,78.43%,N/A,37.88%,N/A,N/A,0.0%,0.0%,71.0%,Bennington County,54.90%,34.10%,0.0%,0.0%,100.0%,0.0%,0.0%,N/A,79,29,50,44,145,180,69,55.8,35.9,7,90,N/A,3.4,2.24,VT-68200,42.9411128,-73.2019714,50%,58%,45%
Springfield,Vermont,4028,1206,Claremont-Lebanon,217783,$36706,19.22%,46,$152000,1670,$91,67,59.66%,$839,62.52%,180,2087,23.28%,6.67%,52.91%,Windsor County,58.70%,28.80%,1.74%,0.4%,94.04%,0.0%,2.83%,N/A,82,29,53,44,136,179,67,N/A,N/A,6,80,N/A,3.3,3.34,VT-69475,43.2952667,-72.4803737,55%,62%,53%
St. Albans,Vermont,6847,3493,Burlington-South Burlington,221160,$44657,N/A,N/A,$235000,1088,$216,74,47.50%,N/A,57.60%,575,6359,5.9%,2.30%,N/A,Franklin County,43.70%,40.90%,0.7%,1.9%,89.1%,1.3%,5.1%,Eastern Standard Time,80,26,54,40,151,158,82,55.3,34.4,N/A,68,200,2.9,1.96,VT-61750,44.8107484,-73.1452946,49%,60%,42%
St. Albans town,Vermont,6348,3239,Burlington-South Burlington,221160,$58651,N/A,N/A,$235000,1088,$216,33,57.40%,N/A,45.90%,575,6359,N/A,2.30%,N/A,Franklin County,43.70%,40.90%,1.1%,1.3%,95.0%,0.9%,N/A,Eastern Standard Time,80,26,54,39,149,159,81,N/A,N/A,N/A,85,200,2.9,1.96,VT-61750,44.8107484,-73.1452946,49%,60%,42%
St. George,Vermont,401,446,Burlington-South Burlington,221160,$66875,20.42%,48,N/A,N/A,N/A,43,85.29%,$1161,48.2%,N/A,N/A,4.24%,3.0%,71.91%,Chittenden County,65.70%,22.30%,0.0%,0.0%,95.01%,0.5%,3.24%,Eastern Standard Time,81,28,53,40,155,159,79,N/A,N/A,N/A,88,200,3,0.9,VT-62046,44.376968,-73.1300836,49%,60%,42%
Stamford,Vermont,465,87,Bennington,35338,$66146,34.32%,57,N/A,N/A,N/A,60,92.26%,$789,32.91%,N/A,N/A,6.24%,4.78%,57.79%,Bennington County,54.90%,34.10%,0.0%,0.0%,93.76%,3.66%,2.8%,N/A,77,28,49,53,149,182,89,N/A,N/A,7,92,N/A,3.4,5.36,VT-69700,42.7594883,-73.056242,50%,58%,45%
Stockbridge,Vermont,684,15,Claremont-Lebanon,217783,$54375,33.53%,N/A,N/A,N/A,N/A,39,49.00%,N/A,44.40%,N/A,N/A,N/A,2.00%,N/A,Windsor County,58.70%,28.80%,0.4%,0.0%,98.8%,0.4%,N/A,N/A,77,27,50,46,139,160,94,N/A,N/A,6,89,N/A,3.3,45.6,VT-70375,43.7563191,-72.7440833,49%,60%,42%
Strafford,Vermont,1122,25,Claremont-Lebanon,217783,$57500,54.03%,N/A,N/A,N/A,N/A,37,61.70%,N/A,31.60%,N/A,N/A,N/A,2.10%,N/A,Orange County,51.50%,34.20%,0.3%,3.7%,91.8%,1.5%,N/A,N/A,78,26,52,42,139,167,87,N/A,N/A,6,88,N/A,3.1,44.88,VT-70675,43.8694256,-72.3666009,55%,62%,53%
Sudbury,Vermont,614,29,Rutland,57764,$56304,33.18%,N/A,N/A,N/A,N/A,36,53.90%,N/A,32.10%,N/A,N/A,N/A,2.70%,N/A,Rutland County,46.00%,42.10%,1.0%,0.0%,98.0%,1.0%,N/A,N/A,82,29,53,41,130,165,70,N/A,N/A,6,88,N/A,2.9,21.17,VT-71050,43.7911495,-73.1799631,49%,60%,42%
Sunderland,Vermont,898,20,Bennington,35338,$53869,32.80%,N/A,N/A,N/A,N/A,36,67.30%,N/A,32.90%,N/A,N/A,N/A,2.60%,N/A,Bennington County,54.90%,34.10%,0.0%,0.0%,96.0%,1.2%,N/A,N/A,80,30,50,46,140,180,65,N/A,N/A,7,92,N/A,3.4,44.9,VT-71425,43.0710229,-73.0687882,50%,58%,45%
Swanton,Vermont,2328,3063,Burlington-South Burlington,221160,$57250,12.93%,43,$186000,1918,$97,76,79.99%,$823,53.71%,121,838,10.18%,8.09%,60.74%,Franklin County,43.70%,40.90%,1.93%,0.04%,93.6%,1.07%,3.82%,Eastern Standard Time,80,26,54,37,141,159,72,55.1,34.2,6,87,200,2.9,0.76,VT-71650,44.9213296,-73.1200587,49%,60%,42%
Swanton village,Vermont,2328,3063,Burlington-South Burlington,221160,$57250,12.93%,43,$186000,1918,$97,76,79.99%,$823,53.71%,121,838,10.18%,8.09%,60.74%,Franklin County,43.70%,40.90%,1.93%,0.04%,93.6%,1.07%,3.82%,Eastern Standard Time,80,26,54,37,140,159,71,N/A,N/A,N/A,87,200,2.9,0.76,VT-71650,44.9213296,-73.1200587,49%,60%,42%
Thetford,Vermont,2564,59,Claremont-Lebanon,217783,$72768,49.87%,N/A,N/A,N/A,N/A,40,73.30%,N/A,41.80%,0,195,N/A,2.10%,N/A,Orange County,51.50%,34.20%,0.4%,0.0%,96.3%,1.0%,N/A,N/A,81,28,53,39,136,171,69,N/A,N/A,6,85,N/A,3.1,43.46,VT-72400,43.8355644,-72.248525,55%,62%,53%
Tinmouth,Vermont,601,21,Rutland,57764,$53636,25.83%,N/A,N/A,N/A,N/A,39,50.60%,N/A,33.00%,N/A,N/A,N/A,2.70%,N/A,Rutland County,46.00%,42.10%,0.0%,0.0%,97.7%,0.0%,N/A,N/A,81,29,52,44,140,165,79,N/A,N/A,6,91,N/A,2.9,28.62,VT-72925,43.4447488,-73.0576707,50%,58%,45%
Topsham,Vermont,1063,22,Claremont-Lebanon,217783,$56667,23.69%,N/A,N/A,N/A,N/A,35,55.40%,N/A,41.10%,N/A,N/A,N/A,2.10%,N/A,Orange County,51.50%,34.20%,0.0%,0.0%,95.7%,1.7%,N/A,N/A,76,25,51,42,146,171,88,N/A,N/A,6,90,N/A,3.1,48.32,VT-73075,44.1337548,-72.2497976,49%,60%,42%
Tunbridge,Vermont,1172,26,Claremont-Lebanon,217783,$61438,33.19%,N/A,N/A,N/A,N/A,39,63.40%,N/A,42.10%,N/A,N/A,N/A,2.10%,N/A,Orange County,51.50%,34.20%,0.0%,0.0%,98.1%,0.4%,N/A,N/A,80,28,52,44,132,162,78,N/A,N/A,6,88,N/A,3.1,45.08,VT-73675,43.9019181,-72.4851255,49%,60%,42%
Underhill,Vermont,3053,59,Burlington-South Burlington,221160,$90682,59.59%,N/A,N/A,N/A,N/A,39,89.50%,N/A,30.70%,N/A,N/A,N/A,1.80%,N/A,Chittenden County,65.70%,22.30%,0.7%,0.3%,96.1%,0.2%,N/A,Eastern Standard Time,77,25,52,49,160,159,115,N/A,N/A,6,91,200,3,51.75,VT-73975,44.5382539,-72.8861212,49%,60%,42%
Vergennes,Vermont,2607,1060,None,N/A,$63859,29.09%,44,N/A,N/A,N/A,49,64.35%,$966,54.43%,78,1452,9.47%,1.89%,72.81%,Addison County,59.00%,27.80%,0.0%,0.73%,96.36%,1.5%,2.95%,N/A,82,28,54,37,134,158,70,56,35.6,6,72,N/A,2.9,2.46,VT-74650,44.1663888,-73.2556473,49%,60%,42%
Vershire,Vermont,720,20,Claremont-Lebanon,217783,$47500,27.24%,N/A,N/A,N/A,N/A,37,59.20%,N/A,50.10%,N/A,N/A,N/A,2.10%,N/A,Orange County,51.50%,34.20%,0.7%,3.3%,89.4%,1.4%,N/A,N/A,76,25,51,44,147,167,91,N/A,N/A,6,88,N/A,3.1,36.0,VT-74950,43.9562337,-72.3243742,49%,60%,42%
Victory,Vermont,72,2,Berlin,31174,$45938,N/A,N/A,N/A,N/A,N/A,28,41.80%,N/A,62.50%,N/A,N/A,N/A,2.90%,N/A,Essex County,34.80%,51.50%,0.0%,0.0%,100.0%,0.0%,N/A,N/A,79,25,54,41,163,176,85,N/A,N/A,5,91,N/A,3,36.0,VT-75175,44.5466218,-71.8196909,49%,60%,42%
Waitsfield,Vermont,238,372,Barre,58328,$31493,50.26%,48,N/A,N/A,N/A,59,44.96%,$704,68.66%,N/A,N/A,24.37%,0.0%,59.2%,Washington County,59.80%,25.70%,0.0%,0.0%,92.86%,7.14%,1.68%,N/A,79,27,52,45,152,159,104,N/A,N/A,6,92,N/A,2.9,0.64,VT-75250,44.187527,-72.82901,49%,60%,42%
Wallingford,Vermont,1029,620,Rutland,57764,$80667,25.21%,43,N/A,N/A,N/A,55,71.43%,$857,43.13%,N/A,N/A,3.69%,1.34%,72.51%,Rutland County,46.00%,42.10%,2.82%,0.0%,95.34%,1.75%,4.96%,N/A,80,29,51,44,142,165,83,N/A,N/A,6,92,N/A,2.9,1.66,VT-75850,43.4748359,-72.9675154,50%,58%,45%
Warren,Vermont,1716,43,Barre,58328,$62961,63.56%,N/A,N/A,N/A,N/A,38,20.90%,N/A,36.20%,N/A,N/A,N/A,2.00%,N/A,Washington County,59.80%,25.70%,0.2%,0.7%,97.8%,0.6%,N/A,N/A,78,26,52,48,158,159,112,N/A,N/A,6,92,N/A,2.9,39.91,VT-76525,44.1110811,-72.8607795,49%,60%,42%
Washington,Vermont,1147,30,Claremont-Lebanon,217783,$53510,17.44%,N/A,N/A,N/A,N/A,35,72.60%,N/A,41.00%,N/A,N/A,N/A,2.10%,N/A,Orange County,51.50%,34.20%,0.7%,1.7%,87.7%,6.5%,N/A,N/A,75,25,50,44,149,159,100,N/A,N/A,6,91,N/A,3.1,38.23,VT-76750,44.0711299,-72.422042,49%,60%,42%
Waterbury,Vermont,1857,1440,Barre,58328,$58810,46.63%,33,$310000,1325,$234,55,34.22%,$997,53.35%,N/A,N/A,18.93%,0.69%,70.12%,Washington County,59.80%,25.70%,6.25%,0.0%,90.36%,0.92%,3.66%,N/A,80,27,53,42,153,159,93,54.4,34.1,6,87,N/A,2.9,1.29,VT-76900,44.3406409,-72.751281,49%,60%,42%
Waterbury village,Vermont,1857,1440,Barre,58328,$58810,46.63%,33,$310000,1325,$234,55,34.22%,$997,53.35%,N/A,N/A,18.93%,0.69%,70.12%,Washington County,59.80%,25.70%,6.25%,0.0%,90.36%,0.92%,3.66%,N/A,80,27,53,43,149,162,89,N/A,N/A,N/A,87,N/A,2.9,1.29,VT-76900,44.3406409,-72.751281,49%,60%,42%
Weathersfield,Vermont,2767,63,Claremont-Lebanon,217783,$61447,26.68%,N/A,N/A,N/A,N/A,43,79.10%,N/A,39.40%,145,546,N/A,2.00%,N/A,Windsor County,58.70%,28.80%,0.0%,0.3%,97.5%,0.5%,N/A,N/A,81,29,52,44,139,179,74,N/A,N/A,6,84,N/A,3.3,43.92,VT-77500,43.3883507,-72.4715332,55%,62%,53%
Websterville,Vermont,380,191,Barre,58328,$60438,27.16%,35,N/A,N/A,N/A,78,97.89%,N/A,58.02%,N/A,N/A,15.77%,8.08%,81.48%,Washington County,59.80%,25.70%,0.0%,0.0%,95.53%,1.32%,8.16%,N/A,81,27,54,42,143,159,89,54.6,34.4,6,84,N/A,2.9,1.99,VT-77800,44.1618639,-72.4733162,49%,60%,42%
Wells,Vermont,448,567,Rutland,57764,$71442,22.92%,31,$291000,1132,$257,50,67.41%,$921,51.11%,N/A,N/A,9.6%,0.0%,57.84%,Rutland County,46.00%,42.10%,1.56%,0.0%,96.43%,0.0%,1.56%,N/A,82,31,51,43,131,174,66,N/A,N/A,6,88,N/A,2.9,0.79,VT-77875,43.420832,-73.2075484,50%,58%,45%
Wells River,Vermont,409,216,Claremont-Lebanon,217783,$37083,16.42%,35,$285000,893,$319,62,56.72%,$720,58.75%,N/A,N/A,24.94%,4.4%,49.69%,Orange County,51.50%,34.20%,0.0%,0.0%,86.06%,2.2%,6.11%,N/A,78,26,52,40,142,171,68,54.4,34.1,6,86,N/A,3.1,1.89,VT-78025,44.1537207,-72.0615879,49%,60%,42%
West Brattleboro,Vermont,3042,1855,None,N/A,$34696,35.32%,40,N/A,N/A,N/A,43,61.98%,$742,62.87%,N/A,N/A,19.23%,1.67%,69.01%,Windham County,63.40%,24.10%,2.99%,0.82%,88.26%,3.91%,2.14%,N/A,82,31,51,47,130,193,56,55.4,35.4,6,78,N/A,3.5,1.64,VT-78850,42.8558832,-72.6017523,55%,62%,53%
West Burke,Vermont,253,538,None,N/A,$35500,20.51%,49,N/A,N/A,N/A,78,60.08%,$311,59.45%,N/A,N/A,21.43%,10.0%,55.81%,Caledonia County,45.80%,39.30%,0.0%,0.4%,92.09%,4.74%,0.4%,N/A,77,24,53,43,177,163,100,53.4,33,5,91,N/A,3.1,0.47,VT-79150,44.6431642,-71.9790865,49%,60%,42%
West Fairlee,Vermont,709,31,Claremont-Lebanon,217783,$50625,21.29%,N/A,N/A,N/A,N/A,44,58.30%,N/A,43.00%,N/A,N/A,N/A,2.10%,N/A,Orange County,51.50%,34.20%,0.0%,0.0%,98.0%,0.0%,N/A,N/A,77,26,51,41,139,177,79,N/A,N/A,6,86,N/A,3.1,22.87,VT-79975,43.9395169,-72.2269471,55%,62%,53%
West Haven,Vermont,313,11,Rutland,57764,$49219,24.00%,N/A,N/A,N/A,N/A,40,67.50%,N/A,40.80%,N/A,N/A,N/A,2.70%,N/A,Rutland County,46.00%,42.10%,0.0%,0.0%,96.5%,1.0%,N/A,N/A,83,30,53,41,130,165,66,N/A,N/A,6,88,N/A,2.9,28.45,VT-80875,43.6348749,-73.3687072,49%,60%,42%
West Rutland,Vermont,2072,563,Rutland,57764,$51722,26.05%,47,$146000,1460,$100,65,82.38%,$883,48.29%,N/A,N/A,3.28%,2.68%,64.33%,Rutland County,46.00%,42.10%,0.0%,0.0%,93.29%,5.74%,4.01%,N/A,80,29,51,43,137,165,78,N/A,N/A,6,88,N/A,2.9,3.68,VT-82375,43.5971916,-73.0450722,49%,60%,42%
West Windsor,Vermont,1106,45,Claremont-Lebanon,217783,$66705,64.71%,N/A,N/A,N/A,N/A,39,46.20%,N/A,35.20%,N/A,N/A,N/A,2.00%,N/A,Windsor County,58.70%,28.80%,0.1%,0.0%,99.0%,0.8%,N/A,N/A,81,29,52,45,138,179,76,N/A,N/A,6,91,N/A,3.3,24.58,VT-83050,43.4846729,-72.4917885,55%,62%,53%
Westford,Vermont,117,104,Burlington-South Burlington,221160,$74028,53.33%,45,N/A,N/A,N/A,38,96.58%,N/A,23.81%,N/A,N/A,0.0%,0.0%,63.81%,Chittenden County,65.70%,22.30%,0.0%,0.0%,87.18%,0.0%,0.0%,Eastern Standard Time,80,27,53,39,155,159,84,N/A,N/A,6,91,200,3,1.12,VT-80275,44.6079279,-73.0112841,49%,60%,42%
Westminster village,Vermont,427,314,None,N/A,$80625,42.18%,45,N/A,N/A,N/A,78,87.12%,$894,38.46%,N/A,N/A,0.7%,0.58%,51.19%,Windham County,63.40%,24.10%,0.0%,0.0%,92.27%,2.81%,2.11%,N/A,81,30,51,44,130,189,56,N/A,N/A,N/A,81,N/A,3.5,1.36,VT-81325,43.0738945,-72.4550685,55%,62%,53%
Weston,Vermont,33,183,Claremont-Lebanon,217783,$58542,71.43%,72,$250000,1572,$159,43,81.82%,N/A,63.64%,N/A,N/A,9.09%,0.0%,54.84%,Windsor County,58.70%,28.80%,0.0%,0.0%,100.0%,0.0%,0.0%,N/A,79,29,50,51,156,170,99,N/A,N/A,6,89,N/A,3.3,0.18,VT-81925,43.2904973,-72.7923348,55%,62%,53%
White River Junction,Vermont,2528,1080,Claremont-Lebanon,217783,$53903,30.02%,39,N/A,N/A,N/A,67,61.06%,$958,54.45%,N/A,N/A,11.96%,4.27%,69.15%,Windsor County,58.70%,28.80%,8.78%,0.2%,88.41%,1.11%,9.38%,N/A,82,29,53,41,138,178,68,55.3,35.2,6,54,N/A,3.3,2.34,VT-83575,43.6498784,-72.3289684,55%,62%,53%
Wilder,Vermont,3146,1229,Claremont-Lebanon,217783,$64494,54.81%,46,$190000,896,$212,38,72.29%,$1324,57.65%,N/A,N/A,3.82%,5.62%,66.09%,Windsor County,58.70%,28.80%,1.88%,1.4%,88.72%,5.98%,10.65%,N/A,82,29,53,41,138,181,68,55.3,35.2,6,54,N/A,3.3,2.56,VT-84025,43.6802229,-72.316591,55%,62%,53%
Williamstown,Vermont,1253,373,Claremont-Lebanon,217783,$71518,13.05%,42,$264000,1956,$135,47,93.7%,$775,43.15%,N/A,N/A,3.83%,0.53%,74.5%,Orange County,51.50%,34.20%,0.0%,0.0%,99.12%,0.88%,1.92%,N/A,79,27,52,41,136,159,84,N/A,N/A,6,86,N/A,3.1,3.36,VT-84100,44.1218062,-72.542609,49%,60%,42%
Williston,Vermont,9341,311,Burlington-South Burlington,221160,$77917,61.07%,N/A,N/A,N/A,N/A,26,77.50%,N/A,44.60%,71,1973,N/A,1.80%,N/A,Chittenden County,65.70%,22.30%,2.0%,1.5%,92.2%,1.5%,N/A,Eastern Standard Time,81,28,53,40,155,159,79,N/A,N/A,6,84,200,3,30.04,VT-84475,44.4345501,-73.0888108,49%,60%,42%
Windsor,Vermont,2042,1660,Claremont-Lebanon,217783,$40069,28.64%,37,$270000,1753,$154,78,47.23%,$947,60.83%,236,1006,5.18%,4.49%,69.74%,Windsor County,58.70%,28.80%,0.0%,0.0%,97.01%,1.91%,0.78%,N/A,81,29,52,44,138,195,75,N/A,N/A,6,82,N/A,3.3,1.23,VT-85000,43.4798138,-72.3935302,55%,62%,53%
Winhall,Vermont,589,14,Bennington,35338,$54375,N/A,N/A,N/A,N/A,N/A,40,17.30%,N/A,37.10%,136,1232,N/A,2.60%,N/A,Bennington County,54.90%,34.10%,0.0%,6.5%,92.0%,1.0%,N/A,N/A,79,29,50,53,159,180,107,N/A,N/A,7,93,N/A,3.4,42.07,VT-85075,43.1621722,-72.9349239,50%,58%,45%
Winooski,Vermont,7320,5229,Burlington-South Burlington,221160,$56236,47.36%,33,$400000,1153,$347,62,38.63%,$1231,62.98%,387,1672,22.47%,3.2%,70.63%,Chittenden County,65.70%,22.30%,11.37%,3.42%,81.8%,2.05%,14.81%,Eastern Standard Time,81,28,53,37,149,156,73,55.7,35,6,62,200,3,1.4,VT-85150,44.4948469,-73.1846022,49%,60%,42%
Woodbury,Vermont,878,23,Barre,58328,$60938,34.30%,N/A,N/A,N/A,N/A,47,40.90%,N/A,41.70%,N/A,N/A,N/A,2.00%,N/A,Washington County,59.80%,25.70%,0.0%,0.0%,94.9%,2.3%,N/A,N/A,78,26,52,42,153,159,105,N/A,N/A,6,89,N/A,2.9,38.17,VT-85525,44.4445609,-72.4068514,49%,60%,42%
Woodford,Vermont,318,7,Bennington,35338,$41023,23.55%,N/A,N/A,N/A,N/A,48,33.10%,N/A,48.00%,N/A,N/A,N/A,2.60%,N/A,Bennington County,54.90%,34.10%,0.6%,0.0%,96.2%,0.0%,N/A,N/A,79,30,49,44,138,180,65,N/A,N/A,7,92,N/A,3.4,45.43,VT-85675,42.8827929,-73.0799628,50%,58%,45%
Woodstock,Vermont,1091,925,Claremont-Lebanon,217783,$70268,66.3%,50,$1100000,3514,$313,57,71.09%,$979,56.38%,102,788,8.82%,1.39%,61.96%,Windsor County,58.70%,28.80%,0.0%,0.46%,95.6%,3.12%,5.22%,N/A,81,29,52,46,146,179,82,55.3,35.2,6,90,N/A,3.3,1.18,VT-85900,43.6238774,-72.5163776,55%,62%,53%
Woodstock village,Vermont,1091,925,Claremont-Lebanon,217783,$70268,66.3%,50,$1100000,3514,$313,78,71.09%,$979,56.38%,102,788,8.82%,1.39%,61.96%,Windsor County,58.70%,28.80%,0.0%,0.46%,95.6%,3.12%,5.22%,N/A,82,29,53,46,145,178,82,N/A,N/A,N/A,90,N/A,3.3,1.18,VT-85900,43.6238774,-72.5163776,55%,62%,53%
Worcester,Vermont,106,883,Barre,58328,$60833,41.94%,34,N/A,N/A,N/A,77,24.53%,$927,57.95%,N/A,N/A,0.0%,41.27%,71.59%,Washington County,59.80%,25.70%,1.89%,0.0%,96.23%,0.0%,3.77%,N/A,79,26,53,41,159,159,104,N/A,N/A,6,89,N/A,2.9,0.12,VT-86050,44.3723929,-72.5489257,49%,60%,42%
